[{"active":false,"Giataid":"7080","cityId":77340,"cityName":"Amsterdam","hotelId":7080,"hotelName":"Max Brown Hotel Museum Square","address":"Jan Luijkenstraat 40-46,1071CR Amsterdam,Netherlands","phones":"+31206620526","fax":"+31206750811","email":"info@poettrypamsterdam.com","url":"http://www.poettrypamsterdam.com","countryIso2":"NL","countryName":"Netherlands","hotelRating":"2","latitude":"52.3601","longitude":"4.88197","state_id":2612,"state_name":"North Holland","country_id":156},{"active":false,"Giataid":"7681","cityId":77340,"cityName":"Amsterdam","hotelId":7681,"hotelName":"Conscious Museum Square","address":"De Lairessestraat 7,1071 NR Amsterdam,Netherlands","phones":"+31206719596","fax":"","email":"","url":"","countryIso2":"NL","countryName":"Netherlands","hotelRating":"3","latitude":"52.3551","longitude":"4.8775","state_id":2612,"state_name":"North Holland","country_id":156},{"active":false,"Giataid":"7683","cityId":77340,"cityName":"Amsterdam","hotelId":7683,"hotelName":"Leonardo Hotel Amsterdam City Center","address":"Tesselschadestraat 23,1054 ET Amsterdam,Netherlands","phones":"+31206126876","fax":"+31206838313","email":"info@leidsesquarehotel.nl","url":"http://www.leidsesquarehotel.com","countryIso2":"NL","countryName":"Netherlands","hotelRating":"3","latitude":"52.3621","longitude":"4.87831","state_id":2612,"state_name":"North Holland","country_id":156},{"active":false,"Giataid":"7685","cityId":77340,"cityName":"Amsterdam","hotelId":7685,"hotelName":"Botel","address":"NDSM-Pier 3,1033 RG Amsterdam,Netherlands","phones":"+31206264247","fax":"+31206391952","email":"info@amstelbotel.nl","url":"http://www.amstelbotel.com","countryIso2":"NL","countryName":"Netherlands","hotelRating":"3","latitude":"52.4006","longitude":"4.8894","state_id":2612,"state_name":"North Holland","country_id":156},{"active":false,"Giataid":"7686","cityId":77340,"cityName":"Amsterdam","hotelId":7686,"hotelName":"InterContinental Amstel","address":"Professor Tulpplein 1,1018 GX Amsterdam,Netherlands","phones":"+31206226060","fax":"+31206225808","email":"amstel@ihg.com","url":"http://amsterdam.intercontinental.com/","countryIso2":"NL","countryName":"Netherlands","hotelRating":"5","latitude":"52.36","longitude":"4.90538","state_id":2612,"state_name":"North Holland","country_id":156},{"active":false,"Giataid":"7687","cityId":77340,"cityName":"Amsterdam","hotelId":7687,"hotelName":"Amsterdam De Roode Leeuw","address":"Damrak 93-94,1012 LP Amsterdam,Netherlands","phones":"+31205550666","fax":"+31206204716","email":"info@hotelamsterdam.nl","url":"http://www.hotelamsterdam.nl","countryIso2":"NL","countryName":"Netherlands","hotelRating":"4","latitude":"52.3737","longitude":"4.89364","state_id":2612,"state_name":"North Holland","country_id":156},{"active":false,"Giataid":"7963","cityId":77340,"cityName":"Amsterdam","hotelId":7963,"hotelName":"Arena","address":"S-Gravesandestraat 55,1092 AA Amsterdam,Netherlands","phones":"+31208502410","fax":"","email":"events@hotelarena.nl","url":"http://www.hotelarena.nl/nl/","countryIso2":"NL","countryName":"Netherlands","hotelRating":"4","latitude":"52.3612","longitude":"4.91634","state_id":2612,"state_name":"North Holland","country_id":156},{"active":false,"Giataid":"8132","cityId":null,"cityName":"Noordwijk","hotelId":8132,"hotelName":"Astoria","address":"Emmaweg 13,2202 CP Noordwijk,Netherlands","phones":"+31713610014","fax":"+31713616644","email":"info@hotelastoria.nl","url":"http://www.hotelastoria.nl/","countryIso2":"NL","countryName":"Netherlands","hotelRating":"3","latitude":"52.2408","longitude":"4.43364","state_id":null,"state_name":null,"country_id":null},{"active":false,"Giataid":"8243","cityId":78232,"cityName":"Kijkduin","hotelId":8243,"hotelName":"NH Atlantic Den Haag","address":"Deltaplein 200,2554 EJ Den Haag,Kijkduin,Netherlands","phones":"+31704482482","fax":"+31703686721","email":"nhatlanticdenhaag@nh-hotels.com","url":"http://www.nh-hotels.de/nh/de/hotels/holland/den-haag/nh-atlantic-den-haag.html","countryIso2":"NL","countryName":"Netherlands","hotelRating":"4","latitude":"52.07","longitude":"4.22221","state_id":2614,"state_name":"South Holland","country_id":156},{"active":false,"Giataid":"8549","cityId":77340,"cityName":"Amsterdam","hotelId":8549,"hotelName":"NH Collection Amsterdam Barbizon Palace","address":"Prins Hendrikkade 59-72,1012 AD Amsterdam,Netherlands","phones":"+31205564564","fax":"","email":"nhbarbizonpalace@nh-hotels.com","url":"http://www.nh-hotels.com","countryIso2":"NL","countryName":"Netherlands","hotelRating":"5","latitude":"52.3765","longitude":"4.90021","state_id":2612,"state_name":"North Holland","country_id":156},{"active":false,"Giataid":"8670","cityId":77340,"cityName":"Amsterdam","hotelId":8670,"hotelName":"Hotel Beethoven","address":"Beethovenstraat 43,1077 HN Amsterdam,Netherlands","phones":"+31206644816","fax":"+31206621240","email":"office@hotelbeethoven.nl","url":"http://www.hotelbeethoven.nl","countryIso2":"NL","countryName":"Netherlands","hotelRating":"3","latitude":"52.3483","longitude":"4.87729","state_id":2612,"state_name":"North Holland","country_id":156},{"active":false,"Giataid":"8801","cityId":78454,"cityName":"Nijmegen","hotelId":8801,"hotelName":"Amrath Hotel Belvoir","address":"Graadt van Roggenstraat 101,6522 AX Nijmegen,Netherlands","phones":"+31243232344","fax":"","email":"","url":"","countryIso2":"NL","countryName":"Netherlands","hotelRating":"4","latitude":"51.8446","longitude":"5.87533","state_id":2611,"state_name":"Gelderland","country_id":156},{"active":false,"Giataid":"8925","cityId":77340,"cityName":"Amsterdam","hotelId":8925,"hotelName":"Eden Hotel Amsterdam","address":"Amstel 144,1017 AE Amsterdam,Netherlands","phones":"+31205307878","fax":"+31206233267","email":"info.eden@edenhotelgroup.com","url":"http://www.edenhotelamsterdam.com/nl/overview.aspx","countryIso2":"NL","countryName":"Netherlands","hotelRating":"3","latitude":"52.3669","longitude":"4.89873","state_id":2612,"state_name":"North Holland","country_id":156},{"active":false,"Giataid":"9046","cityId":78667,"cityName":"Scheveningen","hotelId":9046,"hotelName":"Bilderberg Europa Hotel","address":"Zwolsestraat 2,2587 VJ Scheveningen,Netherlands","phones":"+31704169595","fax":"+31704169555","email":"europa@bilderberg.nl","url":"http://www.bilderberg.nl/hotels/europa-hotel/","countryIso2":"NL","countryName":"Netherlands","hotelRating":"4","latitude":"52.1145","longitude":"4.28566","state_id":2614,"state_name":"South Holland","country_id":156},{"active":false,"Giataid":"9085","cityId":77340,"cityName":"Amsterdam","hotelId":9085,"hotelName":"The Dylan","address":"Keizersgracht 384,1016 GB Amsterdam,Netherlands","phones":"+31205302010","fax":"+31205302030","email":"hotel@dylanamsterdam.com","url":"http://dylanamsterdam.com/","countryIso2":"NL","countryName":"Netherlands","hotelRating":"5","latitude":"52.3692","longitude":"4.88422","state_id":2612,"state_name":"North Holland","country_id":156},{"active":false,"Giataid":"9216","cityId":null,"cityName":"Terschelling Island","hotelId":9216,"hotelName":"WestCord ApartHotel Boschrijck","address":"Sportlaan 5,8881EP Terschelling,Netherlands","phones":"+31562443311","fax":"","email":"","url":"","countryIso2":"NL","countryName":"Netherlands","hotelRating":"4","latitude":"53.3705","longitude":"5.22083","state_id":null,"state_name":null,"country_id":null},{"active":false,"Giataid":"9636","cityId":77340,"cityName":"Amsterdam","hotelId":9636,"hotelName":"Canal Crown","address":"Herengracht 519 -525,1017 BV Amsterdam,Netherlands","phones":"","fax":"","email":"","url":"","countryIso2":"NL","countryName":"Netherlands","hotelRating":"4","latitude":"52.3657","longitude":"4.88807","state_id":2612,"state_name":"North Holland","country_id":156},{"active":false,"Giataid":"9715","cityId":77340,"cityName":"Amsterdam","hotelId":9715,"hotelName":"Nh Amsterdam Caransa","address":"Rembrandtplein 19,1017CT Amsterdam,Netherlands","phones":"+31205540800","fax":"","email":"nhcaransa@nh-hotels.com","url":"http://www.nh-hotels.nl/nh/nl/hotels/nederland/amsterdam/nh-caransa.html","countryIso2":"NL","countryName":"Netherlands","hotelRating":"4","latitude":"52.3664","longitude":"4.89696","state_id":2612,"state_name":"North Holland","country_id":156},{"active":false,"Giataid":"9762","cityId":78416,"cityName":"Naaldwijk","hotelId":9762,"hotelName":"Fletcher Hotel-Restaurant Carlton","address":"Tiendweg 20,2671 SB Naaldwijk,Netherlands","phones":"+31174272625","fax":"","email":"info@hotelcarlton.nl","url":"http://www.hotelcarlton.nl/","countryIso2":"NL","countryName":"Netherlands","hotelRating":"4","latitude":"51.9914","longitude":"4.22158","state_id":2614,"state_name":"South Holland","country_id":156},{"active":false,"Giataid":"9764","cityId":78667,"cityName":"Scheveningen","hotelId":9764,"hotelName":"Carlton Beach","address":"Gevers Deynootweg 201,2586 HZ Scheveningen,Den Haag,Netherlands","phones":"+31703541414","fax":"+31703520020","email":"info@beach.carlton.nl","url":"http://www.carlton.nl/beach/default-de.html","countryIso2":"NL","countryName":"Netherlands","hotelRating":"4","latitude":"52.1172","longitude":"4.28762","state_id":2614,"state_name":"South Holland","country_id":156},{"active":false,"Giataid":"10573","cityId":77340,"cityName":"Amsterdam","hotelId":10573,"hotelName":"Cok City","address":"NULL","phones":"","fax":"","email":"","url":"","countryIso2":"NL","countryName":"Netherlands","hotelRating":"3","latitude":"52.3657","longitude":"4.88807","state_id":2612,"state_name":"North Holland","country_id":156},{"active":false,"Giataid":"10574","cityId":77340,"cityName":"Amsterdam","hotelId":10574,"hotelName":"Cok Superior Tourist Class","address":"NULL","phones":"","fax":"","email":"","url":"","countryIso2":"NL","countryName":"Netherlands","hotelRating":"3","latitude":"52.3657","longitude":"4.88807","state_id":2612,"state_name":"North Holland","country_id":156},{"active":false,"Giataid":"11054","cityId":78170,"cityName":"Hollum","hotelId":11054,"hotelName":"Fletcher Resort Amelander Kaap","address":"Oosterhiemweg 1,9161 CZ Hollum,Ameland,Netherlands","phones":"+31519554646","fax":"+31519554809","email":"info@hotelamelanderkaap.nl","url":"http://www.hotelamelanderkaap.nl","countryIso2":"NL","countryName":"Netherlands","hotelRating":"4","latitude":"53.4468","longitude":"5.64025","state_id":2622,"state_name":"Friesland","country_id":156},{"active":false,"Giataid":"11210","cityId":77340,"cityName":"Amsterdam","hotelId":11210,"hotelName":"De Compagnie","address":"NULL","phones":"","fax":"","email":"","url":"","countryIso2":"NL","countryName":"Netherlands","hotelRating":"3","latitude":"52.3657","longitude":"4.88807","state_id":2612,"state_name":"North Holland","country_id":156},{"active":false,"Giataid":"11218","cityId":77340,"cityName":"Amsterdam","hotelId":11218,"hotelName":"De L'Europe","address":"Nieuwe Doelenstraat 2-14,1012 CP Amsterdam,Netherlands","phones":"+31205311777","fax":"+31205311778","email":"hotel@leurope.nl","url":"http://www.leurope.nl/","countryIso2":"NL","countryName":"Netherlands","hotelRating":"5","latitude":"52.3676","longitude":"4.8943","state_id":2612,"state_name":"North Holland","country_id":156},{"active":false,"Giataid":"11237","cityId":77340,"cityName":"Amsterdam","hotelId":11237,"hotelName":"De Looier","address":"3e Looiersdwarsstraat 75,1016 VD Amsterdam,Netherlands","phones":"+31206251855","fax":"+31206275320","email":"delooier@worldonline.nl","url":"http://www.hoteldelooier.com/","countryIso2":"NL","countryName":"Netherlands","hotelRating":"3","latitude":"52.3683","longitude":"4.87967","state_id":2612,"state_name":"North Holland","country_id":156},{"active":false,"Giataid":"11253","cityId":null,"cityName":"Oostmahorn","hotelId":11253,"hotelName":"De Schans","address":"Oostmahorn 108,9133DG Oostmahorn,Anjum,Netherlands","phones":"","fax":"","email":"","url":"","countryIso2":"NL","countryName":"Netherlands","hotelRating":"1","latitude":"0","longitude":"0","state_id":null,"state_name":null,"country_id":null},{"active":false,"Giataid":"11336","cityId":77340,"cityName":"Amsterdam","hotelId":11336,"hotelName":"Best Western Delphi Hotel","address":"Apollolaan 101-105,1077 AN Amsterdam,Netherlands","phones":"+31206795152","fax":"+31206752941","email":"","url":"http://www.bestwestern.nl/overview.asp?hotelid=12","countryIso2":"NL","countryName":"Netherlands","hotelRating":"4","latitude":"52.3505","longitude":"4.877","state_id":2612,"state_name":"North Holland","country_id":156},{"active":false,"Giataid":"11341","cityId":77340,"cityName":"Amsterdam","hotelId":11341,"hotelName":"Delta Hotel ","address":"Damrak 42-43,1012 LK Amsterdam,Netherlands","phones":"+31206202626","fax":"+31206203513","email":"delta_amsterdam@hotmail.com","url":"http://delta-hotel.com","countryIso2":"NL","countryName":"Netherlands","hotelRating":"3","latitude":"52.3756","longitude":"4.89615","state_id":2612,"state_name":"North Holland","country_id":156},{"active":false,"Giataid":"11471","cityId":77340,"cityName":"Amsterdam","hotelId":11471,"hotelName":"Die Port van Cleve","address":"Nieuwezijds Voorburgwal 176-180,1012 SJ Amsterdam,Netherlands","phones":"+31207142000","fax":"+31207142001","email":"hotelinfo@dieportvancleve.com","url":"http://www.dieportvancleve.com","countryIso2":"NL","countryName":"Netherlands","hotelRating":"4","latitude":"52.3741","longitude":"4.89057","state_id":2612,"state_name":"North Holland","country_id":156},{"active":false,"Giataid":"11885","cityId":78642,"cityName":"Rotterdam","hotelId":11885,"hotelName":"Savoy Hotel Rotterdam","address":"Hoogstraat 81,3011 PJ Rotterdam,Netherlands","phones":"+31104139280","fax":"+31104045712","email":"info.savoy@hampshire-hotels.com","url":"http://www.hampshire-hotels.com/hotel/114/Hampshire_Hotel_-_Savoy_Rotterdam.html","countryIso2":"NL","countryName":"Netherlands","hotelRating":"4","latitude":"51.9224","longitude":"4.49174","state_id":2614,"state_name":"South Holland","country_id":156},{"active":false,"Giataid":"12504","cityId":null,"cityName":"Noordwijk aan Zee","hotelId":12504,"hotelName":"Fletcher Badhotel Noordwijk","address":"Julianastraat 32,2202 KD Noordwijk aan Zee,Netherlands","phones":"+31347750419","fax":"+31713620370","email":"info@badhotelnoordwijk.nl","url":"http://www.fletcher.nl","countryIso2":"NL","countryName":"Netherlands","hotelRating":"3","latitude":"52.2446","longitude":"4.43627","state_id":null,"state_name":null,"country_id":null},{"active":false,"Giataid":"12959","cityId":77340,"cityName":"Amsterdam","hotelId":12959,"hotelName":"Floris France","address":"Oudezijds Kolk 11,1012 AL Amsterdam,Netherlands","phones":"+31205353777","fax":"+31205353788","email":"reservations@florishotels.com","url":"http://www.florishotels.com/Floris_France_Hotel_Amsterdam","countryIso2":"NL","countryName":"Netherlands","hotelRating":"3","latitude":"52.376","longitude":"4.90117","state_id":2612,"state_name":"North Holland","country_id":156},{"active":false,"Giataid":"13311","cityId":78998,"cityName":"Zandvoort","hotelId":13311,"hotelName":"Nh Zandvoort","address":"Burgemeester van Alphenstraat 63,2041 KG Zandvoort,Netherlands","phones":"+31235760760","fax":"+31235719094","email":"nhzandvoort@nh-hotels.com","url":"http://www.nh-hotels.com/nh/en/hotels/the-netherlands/zandvoort/nh-zandvoort.html","countryIso2":"NL","countryName":"Netherlands","hotelRating":"4","latitude":"52.3843","longitude":"4.53363","state_id":2612,"state_name":"North Holland","country_id":156},{"active":false,"Giataid":"13388","cityId":77333,"cityName":"America","hotelId":13388,"hotelName":"Gran Dorado Loohorst","address":"Peelheideweg 25,5966 PJ America,Netherlands","phones":"","fax":"","email":"","url":"","countryIso2":"NL","countryName":"Netherlands","hotelRating":"1","latitude":"0","longitude":"0","state_id":2615,"state_name":"Limburg","country_id":156},{"active":false,"Giataid":"13388","cityId":77333,"cityName":"America","hotelId":13388,"hotelName":"Gran Dorado Loohorst","address":"Peelheideweg 25,5966 PJ America,Netherlands","phones":"","fax":"","email":"","url":"","countryIso2":"NL","countryName":"Netherlands","hotelRating":"1","latitude":"0","longitude":"0","state_id":2615,"state_name":"Limburg","country_id":156},{"active":false,"Giataid":"13463","cityId":77340,"cityName":"Amsterdam","hotelId":13463,"hotelName":"NH Collection Amsterdam Grand Hotel Krasnapolsky","address":"Dam 9,1012 JS Amsterdam,Netherlands","phones":"+31205549111","fax":"","email":"nhkrasnapolsky@nh-hotels.com","url":"http://www.nh-hotels.nl/nh/nl/hotels/nederland/amsterdam/nh-grand-hotel-krasnapolsky.html","countryIso2":"NL","countryName":"Netherlands","hotelRating":"5","latitude":"52.3727","longitude":"4.89433","state_id":2612,"state_name":"North Holland","country_id":156},{"active":false,"Giataid":"13588","cityId":77549,"cityName":"De Koog","hotelId":13588,"hotelName":"Greenside","address":"Stappeland 6,1796 BS De Koog,Netherlands","phones":"","fax":"","email":"","url":"","countryIso2":"NL","countryName":"Netherlands","hotelRating":"4","latitude":"53.099","longitude":"4.76731","state_id":2612,"state_name":"North Holland","country_id":156},{"active":false,"Giataid":"13948","cityId":78562,"cityName":"Oudemirdum","hotelId":13948,"hotelName":"Het Fonteinbos","address":"NULL","phones":"","fax":"","email":"info@hetFonteinbos.frl","url":"http://www.hetfonteinbos.com/","countryIso2":"NL","countryName":"Netherlands","hotelRating":"1","latitude":"52.8494","longitude":"5.53324","state_id":2622,"state_name":"Friesland","country_id":156},{"active":false,"Giataid":"14116","cityId":78285,"cityName":"Leiden","hotelId":14116,"hotelName":"Holiday Inn Leiden","address":"Haagse Schouwweg 10,2332 KG Leiden,Netherlands","phones":"+31715355555","fax":"+31715355553","email":"hotel@holidayinnleiden.com","url":"http://www.ichotelsgroup.com/h/d/hi/1/en/hotel/ldnnl;jsessionid=TKX5UFNDC3PAUCTGWANCJBQKM0YBWIY4?_requestid=15","countryIso2":"NL","countryName":"Netherlands","hotelRating":"4","latitude":"52.1638","longitude":"4.45643","state_id":2614,"state_name":"South Holland","country_id":156},{"active":false,"Giataid":"14240","cityId":null,"cityName":"IJmuiden","hotelId":14240,"hotelName":"Apollo Hotel IJmuiden Seaport Beach","address":"Kennemerboulevard 250,1976 EG IJmuiden aan Zee,Netherlands","phones":"+31255566999","fax":"+31255566900","email":"info@holidayinn-ijmuiden.nl","url":"http://www.ichotelsgroup.com/h/d/hi/1/en/hotel/ijmke?rpb=hotel&amp;crUrl=/h/d/hi/1/en/hotelsearchresults","countryIso2":"NL","countryName":"Netherlands","hotelRating":"4","latitude":"52.4572","longitude":"4.56378","state_id":null,"state_name":null,"country_id":null},{"active":false,"Giataid":"14814","cityId":77340,"cityName":"Amsterdam","hotelId":14814,"hotelName":"Inntel Hotel Amsterdam Centre ","address":"Nieuwezijds Kolk 19,1012 PV Amsterdam,Netherlands","phones":"+31205301818","fax":"+31204221919","email":"infoamsterdam@goldentuliphotelinntel.com","url":"http://www.goldentulipamsterdamcentre.com","countryIso2":"NL","countryName":"Netherlands","hotelRating":"4","latitude":"52.3762","longitude":"4.89449","state_id":2612,"state_name":"North Holland","country_id":156},{"active":false,"Giataid":"15012","cityId":77340,"cityName":"Amsterdam","hotelId":15012,"hotelName":"Bilderberg Hotel Jan Luyken","address":"Jan Luykenstraat 58,1071 CS Amsterdam,Netherlands","phones":"+31205730730","fax":"+31206763841","email":"jan-luyken.reservation@bilderberg.nl","url":"http://www.bilderberg.nl/hotels/hotel-jan-luyken/","countryIso2":"NL","countryName":"Netherlands","hotelRating":"4","latitude":"52.3598","longitude":"4.88106","state_id":2612,"state_name":"North Holland","country_id":156},{"active":false,"Giataid":"15091","cityId":77340,"cityName":"Amsterdam","hotelId":15091,"hotelName":"Nh Carlton Amsterdam","address":"Vijzelstraat 4,1017 HK Amsterdam,Netherlands","phones":"+31206222266","fax":"+31205216815","email":"nhcarltonamsterdam@nh-hotels.com","url":"http://www.nh-hotels.de/nh/de/hotels/holland/amsterdam/nh-carlton-amsterdam.html","countryIso2":"NL","countryName":"Netherlands","hotelRating":"4","latitude":"52.3664","longitude":"4.893","state_id":2612,"state_name":"North Holland","country_id":156},{"active":false,"Giataid":"15898","cityId":77340,"cityName":"Amsterdam","hotelId":15898,"hotelName":"The Lancaster Hotel Amsterdam","address":"Plantage Middenlaan 48,1018 DH Amsterdam,Netherlands","phones":"+31205356888","fax":"+31205356889","email":"info.lancaster@hampshire-hotels.com","url":"http://www.hampshire-hotels.com/hotel/102/Hampshire_Hotel_-_Lancaster_Amsterdam_.html","countryIso2":"NL","countryName":"Netherlands","hotelRating":"3","latitude":"52.3659","longitude":"4.91288","state_id":2612,"state_name":"North Holland","country_id":156},{"active":false,"Giataid":"16090","cityId":77340,"cityName":"Amsterdam","hotelId":16090,"hotelName":"Apollo Hotel Amsterdam, a Tribute Portfolio Hotel","address":"Apollolaan 2,1077 BA Amsterdam,Netherlands","phones":"+31206735922","fax":"+31205705744","email":"reservations.wyndhamapollo@apollohotelsresorts.com","url":"http://www.apollohotelsresorts.com/hotels-de-DE/niederlandemsterdam-de-DE/wyndham-apollo-hotel-amsterdam-de-DE/","countryIso2":"NL","countryName":"Netherlands","hotelRating":"4","latitude":"52.3485","longitude":"4.88518","state_id":2612,"state_name":"North Holland","country_id":156},{"active":false,"Giataid":"17279","cityId":77340,"cityName":"Amsterdam","hotelId":17279,"hotelName":"Mercure Amsterdam Centre Canal District","address":"Noorderstraat 46,1017 TV Amsterdam,Netherlands","phones":"+31207219175","fax":"+31206203208","email":"H1032@accor.com","url":"http://www.accorhotels.com","countryIso2":"NL","countryName":"Netherlands","hotelRating":"4","latitude":"52.3613","longitude":"4.89356","state_id":2612,"state_name":"North Holland","country_id":156},{"active":false,"Giataid":"17346","cityId":null,"cityName":"Noordwijk","hotelId":17346,"hotelName":"Golden Tulip Noordwijk Beach","address":"Koningin Wilhelmina Boulevard 8,2202 GS Noordwijk,Netherlands","phones":"+31713619205","fax":"+31713616796","email":"info@goldentulipnoordwijkbeach.nl","url":"http://www.goldentulipnoordwijkbeach.nl/","countryIso2":"NL","countryName":"Netherlands","hotelRating":"4","latitude":"52.245","longitude":"4.43039","state_id":null,"state_name":null,"country_id":null},{"active":false,"Giataid":"18031","cityId":78214,"cityName":"Kamperland","hotelId":18031,"hotelName":"Nordseeresidenz De Banjaard","address":"Banjaard Boulevard 1,4493 RZ Kamperland,Netherlands","phones":"","fax":"+31113371095","email":"info@roompotparks.de","url":"http://www.roompotparks.de/ferienparks/552184/noordzee-residence-de-banjaard/default.html","countryIso2":"NL","countryName":"Netherlands","hotelRating":"3","latitude":"51.5917","longitude":"3.67287","state_id":2620,"state_name":"Zeeland","country_id":156},{"active":false,"Giataid":"18051","cityId":77340,"cityName":"Amsterdam","hotelId":18051,"hotelName":"Nova Hotel & Nova Apartments","address":"Nieuwezijds Voorburgwal 276,1012 RS Amsterdam,Netherlands","phones":"+31206230066","fax":"+31206272026","email":"reservations@novahotel.nl","url":"http://www.novahotel.nl/","countryIso2":"NL","countryName":"Netherlands","hotelRating":"3","latitude":"52.3712","longitude":"4.89012","state_id":2612,"state_name":"North Holland","country_id":156},{"active":false,"Giataid":"18249","cityId":77340,"cityName":"Amsterdam","hotelId":18249,"hotelName":"Okura Amsterdam","address":"Ferdinand Bolstraat 333,1072 LH Amsterdam,Netherlands","phones":"+31206787111","fax":"+31206712344","email":"sales@okura.nl","url":"http://www.okura.nl","countryIso2":"NL","countryName":"Netherlands","hotelRating":"5","latitude":"52.3488","longitude":"4.89185","state_id":2612,"state_name":"North Holland","country_id":156},{"active":false,"Giataid":"18323","cityId":null,"cityName":"Noordwijk aan Zee","hotelId":18323,"hotelName":"Hightop","address":"Prins Hendrikweg 19,2202 Noordwijk aan Zee,Netherlands","phones":"+31347750438","fax":"","email":"info@hotelmoment.nl","url":"http://www.hightophotelnoordwijk.nl/","countryIso2":"NL","countryName":"Netherlands","hotelRating":"3","latitude":"52.2392","longitude":"4.43494","state_id":null,"state_name":null,"country_id":null},{"active":false,"Giataid":"18808","cityId":77340,"cityName":"Amsterdam","hotelId":18808,"hotelName":"Park Hotel Amsterdam","address":"Stadhouderskade 25,1071 ZD Amsterdam,Netherlands","phones":"+31206711222","fax":"+31207107277","email":"hello@parkhotel.nl","url":"http://www.parkhotel.nl","countryIso2":"NL","countryName":"Netherlands","hotelRating":"4","latitude":"52.3615","longitude":"4.88264","state_id":2612,"state_name":"North Holland","country_id":156},{"active":false,"Giataid":"19519","cityId":77340,"cityName":"Amsterdam","hotelId":19519,"hotelName":"Pulitzer Amsterdam","address":"Prinsengracht 323,1016 GZ Amsterdam,Netherlands","phones":"+31205235235","fax":"+31206276753","email":"pulitzer.amsterdam@luxurycollection.com","url":"http://www.pulitzeramsterdam.com/","countryIso2":"NL","countryName":"Netherlands","hotelRating":"5","latitude":"52.3728","longitude":"4.8833","state_id":2612,"state_name":"North Holland","country_id":156},{"active":false,"Giataid":"19783","cityId":77340,"cityName":"Amsterdam","hotelId":19783,"hotelName":"Radisson Blu Amsterdam","address":"Rusland 17,1012 CK Amsterdam,Netherlands","phones":"+31206231231","fax":"+31205208200","email":"reservations.amsterdam@radissonblu.com","url":"https://www.radissonblu.com/en/hotel-amsterdam","countryIso2":"NL","countryName":"Netherlands","hotelRating":"4","latitude":"52.3702","longitude":"4.89665","state_id":2612,"state_name":"North Holland","country_id":156},{"active":false,"Giataid":"20124","cityId":77340,"cityName":"Amsterdam","hotelId":20124,"hotelName":"The Hoxton Amsterdam","address":"Herengracht 255,1016 BJ Amsterdam,Netherlands","phones":"+31208885555","fax":"+31206250630","email":"reservations@rembrandtclassic.com","url":"http://www.rembrandtresidenceamsterdam.com/","countryIso2":"NL","countryName":"Netherlands","hotelRating":"3","latitude":"52.3718","longitude":"4.88736","state_id":2612,"state_name":"North Holland","country_id":156},{"active":false,"Giataid":"20311","cityId":77340,"cityName":"Amsterdam","hotelId":20311,"hotelName":"Rho","address":"Nes 05-23,1012  KC Amsterdam,Netherlands","phones":"+31206207371","fax":"+31206207826","email":"reception@rhohotel.com","url":"http://www.rhohotel.com/","countryIso2":"NL","countryName":"Netherlands","hotelRating":"3","latitude":"52.3721","longitude":"4.89392","state_id":2612,"state_name":"North Holland","country_id":156},{"active":false,"Giataid":"21219","cityId":77340,"cityName":"Amsterdam","hotelId":21219,"hotelName":"Nh Amsterdam Schiller","address":"Rembrandtplein 26,1017 CV Amsterdam,Netherlands","phones":"+31205540700","fax":"","email":"nhschiller@nh-hotels.com","url":"http://www.nh-hotels.nl/nh/nl/hotels/nederland/amsterdam/nh-schiller.html","countryIso2":"NL","countryName":"Netherlands","hotelRating":"4","latitude":"52.3657","longitude":"4.8967","state_id":2612,"state_name":"North Holland","country_id":156},{"active":false,"Giataid":"21359","cityId":null,"cityName":"Vlieland Island","hotelId":21359,"hotelName":"Westcord Strandhotel Seeduyn","address":"Badweg 3,8899 BV Vlieland,Netherlands","phones":"+31562451560","fax":"+31562451115","email":"seeduyn@westcordhotels.nl","url":"http://www.hotel-seeduyn-vlieland.nl/content/contact","countryIso2":"NL","countryName":"Netherlands","hotelRating":"4","latitude":"53.3039","longitude":"5.05233","state_id":null,"state_name":null,"country_id":null},{"active":false,"Giataid":"21686","cityId":77340,"cityName":"Amsterdam","hotelId":21686,"hotelName":"Singel","address":"Singel 13-17,1012 VC Amsterdam,Netherlands","phones":"+31206263108","fax":"+31206203777","email":"reservations@singelhotel.nl","url":"http://singelhotel.nl/welcome/","countryIso2":"NL","countryName":"Netherlands","hotelRating":"3","latitude":"52.3778","longitude":"4.8933","state_id":2612,"state_name":"North Holland","country_id":156},{"active":false,"Giataid":"21781","cityId":77340,"cityName":"Amsterdam","hotelId":21781,"hotelName":"Ink Hotel Amsterdam - MGallery by Sofitel","address":"Nieuwezijds Voorburgwal 67,1012 RE Amsterdam,Netherlands","phones":"+31206275900","fax":"+31206238932","email":"H1159@accor.com","url":"http://www.accorhotels.com/de/hotel-1159-the-convent-hotel-amsterdam-mgallery-collection/index.shtml","countryIso2":"NL","countryName":"Netherlands","hotelRating":"4","latitude":"52.3755","longitude":"4.89281","state_id":2612,"state_name":"North Holland","country_id":156},{"active":false,"Giataid":"22619","cityId":77340,"cityName":"Amsterdam","hotelId":22619,"hotelName":"XO Hotels City Centre","address":"Beursstraat 11-19,1012 JT Amsterdam,Netherlands","phones":"+31206220535","fax":"+31206272216","email":"sales@tulipinnamsterdamcentre.nl","url":"http://www.tulipinnamsterdamcentre.com/","countryIso2":"NL","countryName":"Netherlands","hotelRating":"3","latitude":"52.375","longitude":"4.89698","state_id":2612,"state_name":"North Holland","country_id":156},{"active":false,"Giataid":"22774","cityId":77340,"cityName":"Amsterdam","hotelId":22774,"hotelName":"Sofitel Legend The Grand Amsterdam","address":"Oudezijds Voorburgwal 197,1012 EX Amsterdam,Netherlands","phones":"+31205553111","fax":"+31205553222","email":"H2783-re@sofitel.com","url":"http://www.sofitel.com/gb/hotel-2783-sofitel-legend-the-grand-amsterdam/index.shtml","countryIso2":"NL","countryName":"Netherlands","hotelRating":"5","latitude":"52.3712","longitude":"4.89546","state_id":2612,"state_name":"North Holland","country_id":156},{"active":false,"Giataid":"23064","cityId":78642,"cityName":"Rotterdam","hotelId":23064,"hotelName":"Rotterdam Marriott Hotel","address":"Weena 686,3012 CN Rotterdam,Netherlands","phones":"+31104302000","fax":"","email":"","url":"http://www.marriott.com/hotels/travel/rtmmn-rotterdam-marriott-hotel/","countryIso2":"NL","countryName":"Netherlands","hotelRating":"5","latitude":"51.9227","longitude":"4.47148","state_id":2614,"state_name":"South Holland","country_id":156},{"active":false,"Giataid":"23286","cityId":77340,"cityName":"Amsterdam","hotelId":23286,"hotelName":"Travel","address":"Beurstraat 23,1012 JV Amsterdam,Netherlands","phones":"+31206266532","fax":"+31206271250","email":"info@travelhotel.nl","url":"http://www.travelhotel.nl/","countryIso2":"NL","countryName":"Netherlands","hotelRating":"2","latitude":"52.3748","longitude":"4.89668","state_id":2612,"state_name":"North Holland","country_id":156},{"active":false,"Giataid":"23432","cityId":77340,"cityName":"Amsterdam","hotelId":23432,"hotelName":"WestCord Art Hotel Amsterdam 3***","address":"Spaarndammerdijk 302,1013 ZX Amsterdam,Netherlands","phones":"+31204109670","fax":"+31206810802","email":"art@westcordhotels.nl","url":"http://www.tulipinnamsterdamart.nl","countryIso2":"NL","countryName":"Netherlands","hotelRating":"3","latitude":"52.3928","longitude":"4.86879","state_id":2612,"state_name":"North Holland","country_id":156},{"active":false,"Giataid":"23433","cityId":77340,"cityName":"Amsterdam","hotelId":23433,"hotelName":"Westcord City Centre Hotel Amsterdam","address":"Nieuwezijds Voorburgwal 50,1012 SC Amsterdam,Netherlands","phones":"+31204220011","fax":"+31204200357","email":"centre@westcordhotels.nl","url":"http://www.westcordhotels.nl/hotels/city-centre-hotel-amsterdam","countryIso2":"NL","countryName":"Netherlands","hotelRating":"3","latitude":"52.3765","longitude":"4.89365","state_id":2612,"state_name":"North Holland","country_id":156},{"active":false,"Giataid":"23579","cityId":null,"cityName":"Noordwijk","hotelId":23579,"hotelName":"Hotel Van Oranje, Autograph Collection","address":"Koningin Wilhelmina Boulevard 20,2202 GV Noordwijk aan Zee,Zuid-Holland,Netherlands","phones":"+31713676869","fax":"+31713676800","email":"l.al@hotelsvanoranje.nl","url":"http://www.hotelsvanoranje.nl/","countryIso2":"NL","countryName":"Netherlands","hotelRating":"5","latitude":"52.2471","longitude":"4.43283","state_id":null,"state_name":null,"country_id":null},{"active":false,"Giataid":"23680","cityId":77340,"cityName":"Amsterdam","hotelId":23680,"hotelName":"Park Plaza Victoria Amsterdam","address":"Damrak 1-5,1012 LG Amsterdam,Netherlands","phones":"+31206234255","fax":"+31206551080","email":"ppvares@pphe.com","url":"http://www.parkplaza.de/amsterdam-hotel-nl-1012lg/netamst/home","countryIso2":"NL","countryName":"Netherlands","hotelRating":"4","latitude":"52.3772","longitude":"4.89797","state_id":2612,"state_name":"North Holland","country_id":156},{"active":false,"Giataid":"24422","cityId":77340,"cityName":"Amsterdam","hotelId":24422,"hotelName":"Hampshire Hotel - Theatre District Amsterdam","address":"Nassaukade 387-390,1054 AE Amsterdam,Netherlands","phones":"+31206077900","fax":"+31206184508","email":"info.leidsesquare@edenhotelgroup.com","url":"http://www.edenleidsesquarehotel.com/nl/overview.aspx","countryIso2":"NL","countryName":"Netherlands","hotelRating":"3","latitude":"52.3642","longitude":"4.8784","state_id":2612,"state_name":"North Holland","country_id":156},{"active":false,"Giataid":"24621","cityId":78953,"cityName":"Wijk aan Zee","hotelId":24621,"hotelName":"Fletcher HoteL-Restaurant Zeeduin","address":"Relweg 59,1949 EC  Wijk aan Zee,Netherlands","phones":"+31347750415","fax":"+31251376100","email":"info@hotelzeeduin.nl","url":"http://www.hotelzeeduin.nl/","countryIso2":"NL","countryName":"Netherlands","hotelRating":"4","latitude":"52.4975","longitude":"4.58923","state_id":2612,"state_name":"North Holland","country_id":156},{"active":false,"Giataid":"25790","cityId":77340,"cityName":"Amsterdam","hotelId":25790,"hotelName":"Swissotel Amsterdam","address":"Damrak 96,1012 LP Amsterdam,Netherlands","phones":"+31205223000","fax":"+31205223223","email":"amsterdam@swissotel.com","url":"http://www.swissotel.com","countryIso2":"NL","countryName":"Netherlands","hotelRating":"4","latitude":"52.3736","longitude":"4.89332","state_id":2612,"state_name":"North Holland","country_id":156},{"active":false,"Giataid":"25791","cityId":77340,"cityName":"Amsterdam","hotelId":25791,"hotelName":"New West Inn","address":"Reimerswaalstraat 5,1069 AE Amsterdam,Netherlands","phones":"+31204108000","fax":"+31204108030","email":"res@hacw.nl","url":"http://www.hotelamsterdamwest.nl/","countryIso2":"NL","countryName":"Netherlands","hotelRating":"3","latitude":"52.3624","longitude":"4.79471","state_id":2612,"state_name":"North Holland","country_id":156},{"active":false,"Giataid":"28251","cityId":null,"cityName":"Noordwijk","hotelId":28251,"hotelName":"Golfzicht","address":"Golfweg 15,2202 JG Noordwijk,S?dholland,Netherlands","phones":"+31713619208","fax":"","email":"","url":"http://www.golfzicht.nl/","countryIso2":"NL","countryName":"Netherlands","hotelRating":"3","latitude":"52.2464","longitude":"4.43486","state_id":null,"state_name":null,"country_id":null},{"active":false,"Giataid":"28536","cityId":77509,"cityName":"Callantsoog","hotelId":28536,"hotelName":"Buitenplaats","address":"Abbestederweg 26B,1795 NB Callantsoog,Netherlands","phones":"+31224584040","fax":"","email":"info@bungalowparkdebuitenplaats.nl","url":"http://www.bungalowparkdebuitenplaats.nl/","countryIso2":"NL","countryName":"Netherlands","hotelRating":"4","latitude":"52.8444","longitude":"4.70862","state_id":2612,"state_name":"North Holland","country_id":156},{"active":false,"Giataid":"28954","cityId":78847,"cityName":"Venlo","hotelId":28954,"hotelName":"Bilderberg Hotel De Bovenste Molen","address":"Bovenste Molenweg 12,5912 TV Venlo,Netherlands","phones":"","fax":"","email":"","url":"","countryIso2":"NL","countryName":"Netherlands","hotelRating":"4","latitude":"51.3495","longitude":"6.17538","state_id":2615,"state_name":"Limburg","country_id":156},{"active":false,"Giataid":"28956","cityId":78823,"cityName":"Vaals","hotelId":28956,"hotelName":"Bilderberg Kasteel Vaalsbroek","address":"Vaalsbroek 1,6291 NH Vaals,Netherlands","phones":"+31433089308","fax":"+31433089333","email":"vaalsbroek@bilderberg.nl","url":"http://www.bilderberg.nl/de/hotels/kasteel-vaalsbroek/","countryIso2":"NL","countryName":"Netherlands","hotelRating":"4","latitude":"50.768","longitude":"5.99597","state_id":2615,"state_name":"Limburg","country_id":156},{"active":false,"Giataid":"31701","cityId":78779,"cityName":"The Hague","hotelId":31701,"hotelName":"Grand Hotel Amrath Kurhaus Den Haag","address":"Gevers Deynootplein 30,2586 CK Den Haag,Netherlands","phones":"+31704162636","fax":"+31704162646","email":"info@kurhaus.nl","url":"http://www.kurhaus.nl","countryIso2":"NL","countryName":"Netherlands","hotelRating":"5","latitude":"52.113","longitude":"4.28212","state_id":2614,"state_name":"South Holland","country_id":156},{"active":false,"Giataid":"31715","cityId":77340,"cityName":"Amsterdam","hotelId":31715,"hotelName":"Nh City Centre Amsterdam","address":"Spuistraat 288-292,1012VX Amsterdam,Netherlands","phones":"+31204204545","fax":"+31204204300","email":"nhcitycentre@nh-hotels.com","url":"http://www.nh-hotels.com","countryIso2":"NL","countryName":"Netherlands","hotelRating":"3","latitude":"52.3698","longitude":"4.8887","state_id":2612,"state_name":"North Holland","country_id":156},{"active":false,"Giataid":"31716","cityId":77340,"cityName":"Amsterdam","hotelId":31716,"hotelName":"Park Plaza Vondelpark Amsterdam","address":"Koningslaan 3,1075 AA Amsterdam,Netherlands","phones":"+31206646111","fax":"+31206551080","email":"","url":"http://www.parkplaza.com/hotels/netvonde","countryIso2":"NL","countryName":"Netherlands","hotelRating":"4","latitude":"52.3543","longitude":"4.86646","state_id":2612,"state_name":"North Holland","country_id":156},{"active":false,"Giataid":"32638","cityId":77340,"cityName":"Amsterdam","hotelId":32638,"hotelName":"Mercure Hotel Amsterdam City","address":"Joan Muyskenweg 10,1096 CJ Amsterdam,Netherlands","phones":"+31207219176","fax":"+31206948735","email":"H1244@accor.com","url":"http://www.accorhotels.com/de/hotel-1244-mercure-hotel-amsterdam-aan-de-amstel/index.shtml","countryIso2":"NL","countryName":"Netherlands","hotelRating":"4","latitude":"52.3352","longitude":"4.91374","state_id":2612,"state_name":"North Holland","country_id":156},{"active":false,"Giataid":"32683","cityId":null,"cityName":"Hoevelaken","hotelId":32683,"hotelName":"Bilderberg Hotel De Kleppermann","address":"Oosterdorpsstraat 11,3871 AA Hoevelaken,Netherlands","phones":"","fax":"","email":"","url":"","countryIso2":"NL","countryName":"Netherlands","hotelRating":"4","latitude":"52.1761","longitude":"5.45949","state_id":null,"state_name":null,"country_id":null},{"active":false,"Giataid":"32751","cityId":77340,"cityName":"Amsterdam","hotelId":32751,"hotelName":"Bilderberg Garden","address":"Dijsselhofplantsoen 7,1077 BJ Amsterdam,Netherlands","phones":"+31205705600","fax":"+31205705654","email":"garden.reservation@bilderberg.nl","url":"http://www.bilderberg.nl/hotels/garden-hotel/","countryIso2":"NL","countryName":"Netherlands","hotelRating":"5","latitude":"52.3513","longitude":"4.8741","state_id":2612,"state_name":"North Holland","country_id":156},{"active":false,"Giataid":"32894","cityId":null,"cityName":"Ameland","hotelId":32894,"hotelName":"WestCord Hotel Noordsee","address":"Strandweg 42,9163 GN Ameland,Friesland,Netherlands","phones":"+31519546600","fax":"+31519546700","email":"noordsee@westcordhotels.nl","url":"http://www.hotel-noordsee-ameland.nl/","countryIso2":"NL","countryName":"Netherlands","hotelRating":"4","latitude":"53.4506","longitude":"5.77522","state_id":null,"state_name":null,"country_id":null},{"active":false,"Giataid":"32904","cityId":78862,"cityName":"Vlissingen","hotelId":32904,"hotelName":"Golden Tulip Strandhotel Westduin","address":"Westduin 1,4371 PE Vlissingen,Zeeland,Netherlands","phones":"+31118552510","fax":"+31118552776","email":"receptie@goldentulipwestduin.nl","url":"http://www.goldentulipwestduin.nl","countryIso2":"NL","countryName":"Netherlands","hotelRating":"4","latitude":"51.4642","longitude":"3.52868","state_id":2620,"state_name":"Zeeland","country_id":156},{"active":false,"Giataid":"32907","cityId":78542,"cityName":"Oranjewoud","hotelId":32907,"hotelName":"Golden Tulip Tjaarda Oranjewoud","address":"Koningin Julianaweg 98,8453 WH Oranjewoud,Netherlands","phones":"+31513433533","fax":"","email":"","url":"","countryIso2":"NL","countryName":"Netherlands","hotelRating":"4","latitude":"52.9449","longitude":"5.9666","state_id":2622,"state_name":"Friesland","country_id":156},{"active":false,"Giataid":"33510","cityId":78998,"cityName":"Zandvoort","hotelId":33510,"hotelName":"Palace Hotel","address":"Burg. van Fenemaplein 2,2042 TA Zandvoort,Netherlands","phones":"+31235712911","fax":"+31235720131","email":"info@palace-hotel.nl","url":"http://www.palace-hotel.nl/algemeen-de.html","countryIso2":"NL","countryName":"Netherlands","hotelRating":"4","latitude":"52.3763","longitude":"4.52788","state_id":2612,"state_name":"North Holland","country_id":156},{"active":false,"Giataid":"33511","cityId":null,"cityName":"Noordwijk","hotelId":33511,"hotelName":"Radisson Blu Palace Hotel","address":"Pick?plein 8,2202 CL Noordwijk aan Zee,Netherlands","phones":"+31713653000","fax":"+31713653001","email":"info@palacehotel.nl","url":"http://www.palacehotel.nl","countryIso2":"NL","countryName":"Netherlands","hotelRating":"4","latitude":"52.2417","longitude":"4.43169","state_id":null,"state_name":null,"country_id":null},{"active":false,"Giataid":"35207","cityId":77477,"cityName":"Breskens","hotelId":35207,"hotelName":"Strandpark Breskens","address":"NULL","phones":"","fax":"","email":"","url":"http://strandpark-breskens.de/","countryIso2":"NL","countryName":"Netherlands","hotelRating":"3","latitude":"51.3945","longitude":"3.55588","state_id":2620,"state_name":"Zeeland","country_id":156},{"active":false,"Giataid":"35208","cityId":78527,"cityName":"Oostkapelle","hotelId":35208,"hotelName":"Bos & Duin","address":"Duinweg 82,4356 GD Oostkapelle,Netherlands","phones":"","fax":"","email":"","url":"","countryIso2":"NL","countryName":"Netherlands","hotelRating":"4","latitude":"51.5779","longitude":"3.54699","state_id":2620,"state_name":"Zeeland","country_id":156},{"active":false,"Giataid":"35214","cityId":null,"cityName":"Noordwijk","hotelId":35214,"hotelName":"Zonne","address":"Rembrandtweg 17,2202 AT Noordwijk aan Zee,Netherlands","phones":"+31713619600","fax":"+31713620602","email":"info@hotelzonne.nl","url":"http://www.hotelzonne.nl/","countryIso2":"NL","countryName":"Netherlands","hotelRating":"3","latitude":"52.2366","longitude":"4.42743","state_id":null,"state_name":null,"country_id":null},{"active":false,"Giataid":"35217","cityId":78870,"cityName":"Volendam","hotelId":35217,"hotelName":"Art Hotel Spaander","address":"Haven 15-19,1131 EP Volendam,Nordholland,Netherlands","phones":"+31299363595","fax":"+31299369615","email":"book@spaander.com","url":"http://www.hotelspaander.nl/nl/","countryIso2":"NL","countryName":"Netherlands","hotelRating":"3","latitude":"52.4951","longitude":"5.07726","state_id":2612,"state_name":"North Holland","country_id":156},{"active":false,"Giataid":"35219","cityId":78599,"cityName":"Purmerend","hotelId":35219,"hotelName":"Hampshire Golfhotel - Waterland","address":"Westerweg 60,1445 AD Purmerend,Netherlands","phones":"+31299481666","fax":"+31299481697","email":"info@waterland.hampshire-hotels.com","url":"http://www.hampshire-hotels.com/hotel/41/Hampshire_Golfhotel_-_Waterland.html","countryIso2":"NL","countryName":"Netherlands","hotelRating":"4","latitude":"52.5007","longitude":"4.99334","state_id":2612,"state_name":"North Holland","country_id":156},{"active":false,"Giataid":"35225","cityId":null,"cityName":"Enter","hotelId":35225,"hotelName":"Landal Landgoed De Elsgraven","address":"Eversdijk 6 A,7468 PV Enter,Netherlands","phones":"","fax":"","email":"","url":"","countryIso2":"NL","countryName":"Netherlands","hotelRating":"1","latitude":"0","longitude":"0","state_id":null,"state_name":null,"country_id":null},{"active":false,"Giataid":"35478","cityId":77340,"cityName":"Amsterdam","hotelId":35478,"hotelName":"The Albus Design Boutique Hotel Amsterdam","address":"Vijzelstraat 49,1017 HE Amsterdam,Netherlands","phones":"+31205306215","fax":"+31205306299","email":"info@albushotel.com","url":"http://www.albusgrandhotel.com/?l1=home&amp;la=nl","countryIso2":"NL","countryName":"Netherlands","hotelRating":"4","latitude":"52.3658","longitude":"4.89321","state_id":2612,"state_name":"North Holland","country_id":156},{"active":false,"Giataid":"35479","cityId":77340,"cityName":"Amsterdam","hotelId":35479,"hotelName":"Kimpton De Witt Hotel","address":"Nieuwezijds Voorburgwal 5,1012 RC Amsterdam,Netherlands","phones":"+31206200500","fax":"+31206201173","email":"info@crowneplaza.nl","url":"http://www.amsterdam-citycentre.crowneplaza.com","countryIso2":"NL","countryName":"Netherlands","hotelRating":"4","latitude":"52.3772","longitude":"4.8955","state_id":2612,"state_name":"North Holland","country_id":156},{"active":false,"Giataid":"35480","cityId":77340,"cityName":"Amsterdam","hotelId":35480,"hotelName":"NH Collection Amsterdam Doelen","address":"Nieuwe Doelenstraat 26,1012 CP Amsterdam,Netherlands","phones":"+31205540600","fax":"+31206221084","email":"nhdoelen@nh-hotels.com","url":"http://www.nh-hotels.com/nh/en/hotels/the-netherlands/amsterdam/nh-doelen.html?action=search","countryIso2":"NL","countryName":"Netherlands","hotelRating":"4","latitude":"52.3682","longitude":"4.89571","state_id":2612,"state_name":"North Holland","country_id":156},{"active":false,"Giataid":"36473","cityId":78779,"cityName":"The Hague","hotelId":36473,"hotelName":"Badhotel Scheveningen","address":"Gevers Deynootweg 15,2586 BB Den Haag,Scheveningen,Netherlands","phones":"+31703512221","fax":"+31703555870","email":"info@badhotelscheveningen.nl","url":"http://www.badhotelscheveningen.nl/?pagecat=1","countryIso2":"NL","countryName":"Netherlands","hotelRating":"3","latitude":"52.1087","longitude":"4.27743","state_id":2614,"state_name":"South Holland","country_id":156},{"active":false,"Giataid":"36474","cityId":24035,"cityName":"Bergen","hotelId":36474,"hotelName":"Fletcher HoteL-Restaurant Marijke","address":"Dorpstraat 23-25,1861 KT Bergen,Netherlands","phones":"+31725812381","fax":"+31725897771","email":"info@hotelmarijke.com","url":"http://www.hotelmarijke.com/","countryIso2":"NL","countryName":"Netherlands","hotelRating":"4","latitude":"52.6681","longitude":"4.7038","state_id":3009,"state_name":"Bavaria","country_id":82},{"active":false,"Giataid":"36548","cityId":77340,"cityName":"Amsterdam","hotelId":36548,"hotelName":"Nh Amsterdam Centre","address":"Stadhouderskade 7,1054ES Amsterdam,Netherlands","phones":"+31206851351","fax":"","email":"nhamsterdamcentre@nh-hotels.com","url":"http://www.nh-hotels.de/nh/de/hotels/niederlande/amsterdam/nh-amsterdam-centre.html","countryIso2":"NL","countryName":"Netherlands","hotelRating":"4","latitude":"52.3631","longitude":"4.87947","state_id":2612,"state_name":"North Holland","country_id":156},{"active":false,"Giataid":"36549","cityId":77340,"cityName":"Amsterdam","hotelId":36549,"hotelName":"Omega","address":"Jacob Obrechtstraat 33,1071 KG Amsterdam,Netherlands","phones":"+31206645182","fax":"+31206640809","email":"info@hotel-omega.com","url":"http://www.hotel-omega.com/","countryIso2":"NL","countryName":"Netherlands","hotelRating":"3","latitude":"52.3558","longitude":"4.87572","state_id":2612,"state_name":"North Holland","country_id":156},{"active":false,"Giataid":"37752","cityId":null,"cityName":"Noordwijk","hotelId":37752,"hotelName":"Fletcher HoteL-Restaurant De Witte Raaf","address":"Duinweg 117,2204 AT Noordwijk,Netherlands","phones":"+31252242900","fax":"+31252377578","email":"info@fletcherhoteldewitteraaf.nl","url":"http://www.fletcherhoteldewitteraaf.nl/","countryIso2":"NL","countryName":"Netherlands","hotelRating":"4","latitude":"52.2691","longitude":"4.46604","state_id":null,"state_name":null,"country_id":null},{"active":false,"Giataid":"37755","cityId":77477,"cityName":"Breskens","hotelId":37755,"hotelName":"Zeebad","address":"Nieuwesluisweg 1,4511 RG Breskens,Zeeland,Netherlands","phones":"+31113374200","fax":"","email":"","url":"","countryIso2":"NL","countryName":"Netherlands","hotelRating":"3","latitude":"51.3984","longitude":"3.54572","state_id":2620,"state_name":"Zeeland","country_id":156},{"active":false,"Giataid":"37757","cityId":78742,"cityName":"Stadskanaal","hotelId":37757,"hotelName":"Het Pagedal","address":"Hoveniersweg 1,9502 BW Stadskanaal,Netherlands","phones":"","fax":"","email":"","url":"","countryIso2":"NL","countryName":"Netherlands","hotelRating":"1","latitude":"52.9945","longitude":"6.94342","state_id":2617,"state_name":"Groningen","country_id":156},{"active":false,"Giataid":"39183","cityId":77340,"cityName":"Amsterdam","hotelId":39183,"hotelName":"Hotel City Garden Amsterdam","address":"Pieter Cornelisz Hooftstraat 162,1071 CH Amsterdam,Netherlands","phones":"+31206727919","fax":"+31206708739","email":"info@hotelcitygarden.nl","url":"http://www.win-hotels.com/Hotel_City_Garden_Amsterdam","countryIso2":"NL","countryName":"Netherlands","hotelRating":"3","latitude":"52.3592","longitude":"4.87633","state_id":2612,"state_name":"North Holland","country_id":156},{"active":false,"Giataid":"39184","cityId":77340,"cityName":"Amsterdam","hotelId":39184,"hotelName":"Avenue Hotel","address":"Nieuwezijds Voorburgwal 33,1012 RD Amsterdam,Netherlands","phones":"+31205309530","fax":"+31205309599","email":"info@avenue-hotel.nl","url":"http://www.embhotels.nl/evenue-hotel/algemeen/home.html","countryIso2":"NL","countryName":"Netherlands","hotelRating":"3","latitude":"52.3766","longitude":"4.89467","state_id":2612,"state_name":"North Holland","country_id":156},{"active":false,"Giataid":"39255","cityId":78779,"cityName":"The Hague","hotelId":39255,"hotelName":"Crowne Plaza Den Haag - Promenade","address":"Van Stolkweg 1,2585 JL Den Haag,Netherlands","phones":"+31703525161","fax":"+31703541046","email":"info@crowneplazadenhaag.nl","url":"http://www.ichotelsgroup.com/h/d/cp/1/en/hotel/dnhpr;jsessionid=YPGRVPX1A4NZSCTGWAISJ0QKM0YBEIY4?_reques","countryIso2":"NL","countryName":"Netherlands","hotelRating":"5","latitude":"52.097","longitude":"4.28715","state_id":2614,"state_name":"South Holland","country_id":156},{"active":false,"Giataid":"39256","cityId":78779,"cityName":"The Hague","hotelId":39256,"hotelName":"Movenpick Voorburg","address":"Stationsplein 8,2275 AZ Voorburg,Den Haag,Netherlands","phones":"+31703373737","fax":"","email":"hotel.voorburg@moevenpick.com","url":"http://moevenpick-hotels.com/en/europe/netherlands/voorburg/hotel-voorburg/overview/","countryIso2":"NL","countryName":"Netherlands","hotelRating":"4","latitude":"52.0659","longitude":"4.35927","state_id":2614,"state_name":"South Holland","country_id":156},{"active":false,"Giataid":"39257","cityId":78779,"cityName":"The Hague","hotelId":39257,"hotelName":"Novotel Den Haag City Centre","address":"Hofweg 5-7,2511 AA Den Haag,Netherlands","phones":"+31702039003","fax":"+31703562889","email":"H1180-RE@ACCOR.COM","url":"http://www.accorhotels.com/nl/hotel-1180-novotel-den-haag-city-centre/index.shtml","countryIso2":"NL","countryName":"Netherlands","hotelRating":"4","latitude":"52.0783","longitude":"4.31212","state_id":2614,"state_name":"South Holland","country_id":156},{"active":false,"Giataid":"39258","cityId":null,"cityName":"Maastrich","hotelId":39258,"hotelName":"Crowne Plaza Maasricht","address":"De Ruiterij 1,6221 EW Maastricht,Netherlands","phones":"+31433509191","fax":"+31433509192","email":"cpmaastricht@bilderberg.nl","url":"http://www.ichotelsgroup.com/crowneplaza/hotels/us/en/maastricht/mstnl/hoteldetail","countryIso2":"NL","countryName":"Netherlands","hotelRating":"4","latitude":"50.847","longitude":"5.69843","state_id":null,"state_name":null,"country_id":null},{"active":false,"Giataid":"39259","cityId":null,"cityName":"Maastrich","hotelId":39259,"hotelName":"Novotel Maastricht","address":"Sibemaweg 10,6227 AH Maastricht,Netherlands","phones":"+31433611811","fax":"+31433616044","email":"H0991@accor.com","url":"http://www.novotel.com/de/hotel-0991-novotel-maastricht/index.shtml","countryIso2":"NL","countryName":"Netherlands","hotelRating":"4","latitude":"50.8451","longitude":"5.71838","state_id":null,"state_name":null,"country_id":null},{"active":false,"Giataid":"39606","cityId":78667,"cityName":"Scheveningen","hotelId":39606,"hotelName":"Hotel ibis Den Haag Scheveningen","address":"Gevers Deynootweg 63,2586BJ Scheveningen,Netherlands","phones":"+31703543300","fax":"+31703523916","email":"h1153@accor.com","url":"http://www.ibis.com/de/hotel-1153-ibis-den-haag-scheveningen/index.shtml","countryIso2":"NL","countryName":"Netherlands","hotelRating":"3","latitude":"52.1112","longitude":"4.28114","state_id":2614,"state_name":"South Holland","country_id":156},{"active":false,"Giataid":"39607","cityId":78862,"cityName":"Vlissingen","hotelId":39607,"hotelName":"De Gulden Stroom","address":"Boulevard Bankert 634,4382 AC Vlissingen,Netherlands","phones":"","fax":"","email":"","url":"","countryIso2":"NL","countryName":"Netherlands","hotelRating":"4","latitude":"51.4478","longitude":"3.56223","state_id":2620,"state_name":"Zeeland","country_id":156},{"active":false,"Giataid":"39608","cityId":null,"cityName":"Nieuwvliet-Bad","hotelId":39608,"hotelName":"Fletcher HoteL-Restaurant Nieuwvliet Bad","address":"Zouterik 2,4504 RX Nieuwvliet-Bad,Netherlands","phones":"+31117372020","fax":"+31117372007","email":"","url":"http://book.bestwestern.com/bestwestern/productInfo.do?propertyCode=92698&amp;srcPage=SelectHotel&amp;isMapOpen=true&amp;selectedHotels=","countryIso2":"NL","countryName":"Netherlands","hotelRating":"3","latitude":"51.3897","longitude":"3.45047","state_id":null,"state_name":null,"country_id":null},{"active":false,"Giataid":"39609","cityId":78774,"cityName":"Terneuzen","hotelId":39609,"hotelName":"Hampshire Churchill","address":"Churchilllaan 700,4532 JB Terneuzen,Netherlands","phones":"+31115621120","fax":"","email":"","url":"","countryIso2":"NL","countryName":"Netherlands","hotelRating":"4","latitude":"51.3346","longitude":"3.84691","state_id":2620,"state_name":"Zeeland","country_id":156},{"active":false,"Giataid":"39610","cityId":null,"cityName":"Loosdrecht","hotelId":39610,"hotelName":"Fletcher Hotel-Restaurant Loosdrecht-Amsterdam ","address":"Oud Loosdrechtsedijk 253,1231 LZ Loosdrecht,Netherlands","phones":"+31355824904","fax":"+31355824874","email":"info@goldentuliploosdrecht.nl","url":"http://www.goldentuliploosdrecht.nl","countryIso2":"NL","countryName":"Netherlands","hotelRating":"4","latitude":"52.2064","longitude":"5.07301","state_id":null,"state_name":null,"country_id":null},{"active":false,"Giataid":"39881","cityId":78829,"cityName":"Valkenburg","hotelId":39881,"hotelName":"Thermae 2000","address":"Cauberg 25-27,6301 BT Valkenburg aan de Geul,Limburg,Netherlands","phones":"+31436092000","fax":"","email":"","url":"","countryIso2":"NL","countryName":"Netherlands","hotelRating":"4","latitude":"50.8599","longitude":"5.82376","state_id":2615,"state_name":"Limburg","country_id":156},{"active":false,"Giataid":"39881","cityId":78829,"cityName":"Valkenburg","hotelId":39881,"hotelName":"Thermae 2000","address":"Cauberg 25-27,6301 BT Valkenburg aan de Geul,Limburg,Netherlands","phones":"+31436092000","fax":"","email":"","url":"","countryIso2":"NL","countryName":"Netherlands","hotelRating":"4","latitude":"50.8599","longitude":"5.82376","state_id":2615,"state_name":"Limburg","country_id":156},{"active":false,"Giataid":"39882","cityId":78454,"cityName":"Nijmegen","hotelId":39882,"hotelName":"Sanadome Hotel & Spa Nijmegen","address":"Weg door Jonkerbos 90,6532 SZ Nijmegen,Netherlands","phones":"+31243597200","fax":"+31243597294","email":"info@sanadome.nl","url":"http://www.sanadome.nl/de/startseite/","countryIso2":"NL","countryName":"Netherlands","hotelRating":"4","latitude":"51.8204","longitude":"5.83188","state_id":2611,"state_name":"Gelderland","country_id":156},{"active":false,"Giataid":"39915","cityId":null,"cityName":"Aldtsjerk","hotelId":39915,"hotelName":"De Klinze","address":"Van Sminiaweg 36,9064 KC Aldtsjerk,Netherlands","phones":"+31582561050","fax":"","email":"","url":"","countryIso2":"NL","countryName":"Netherlands","hotelRating":"4","latitude":"53.2672","longitude":"5.89505","state_id":null,"state_name":null,"country_id":null},{"active":false,"Giataid":"39916","cityId":78530,"cityName":"Ootmarsum","hotelId":39916,"hotelName":"Parkhotel De Wiemsel","address":"Winhofflaan 2,7631 HX Ootmarsum,Netherlands","phones":"","fax":"","email":"","url":"","countryIso2":"NL","countryName":"Netherlands","hotelRating":"4","latitude":"52.4076","longitude":"6.91141","state_id":2618,"state_name":"Overijssel","country_id":156},{"active":false,"Giataid":"39917","cityId":null,"cityName":"De Lutte","hotelId":39917,"hotelName":"Hampshire Landhuishotel & Restaurant De Bloemenbeek","address":"Beuningerstraat 6,7587 LD De Lutte,Netherlands","phones":"","fax":"","email":"","url":"","countryIso2":"NL","countryName":"Netherlands","hotelRating":"4","latitude":"52.3201","longitude":"6.99873","state_id":null,"state_name":null,"country_id":null},{"active":false,"Giataid":"39918","cityId":null,"cityName":"Boekelo","hotelId":39918,"hotelName":"Resort Bad Boekelo","address":"Oude Deldenerweg 203,7548 PM Enschede,Netherlands","phones":"+31534283005","fax":"+31534283035","email":"boekelo@sandton.eu","url":"http://www.sandton.eu/nl/boekelo","countryIso2":"NL","countryName":"Netherlands","hotelRating":"4","latitude":"52.1945","longitude":"6.78137","state_id":null,"state_name":null,"country_id":null},{"active":false,"Giataid":"39919","cityId":null,"cityName":"Bergambacht","hotelId":39919,"hotelName":"De Arendshoeve","address":"Molen?laan 14,2861 LB Bergam?bacht,Netherlands","phones":"+31182303100","fax":"","email":"","url":"","countryIso2":"NL","countryName":"Netherlands","hotelRating":"4","latitude":"51.937","longitude":"4.7808","state_id":null,"state_name":null,"country_id":null},{"active":false,"Giataid":"40360","cityId":78786,"cityName":"Tilburg","hotelId":40360,"hotelName":"ibis Tilburg","address":"Doctor Hub Van Doorneweg 105,5026 RB Tilburg,Netherlands","phones":"+31134636465","fax":"","email":"","url":"","countryIso2":"NL","countryName":"Netherlands","hotelRating":"3","latitude":"51.5419","longitude":"5.05075","state_id":2623,"state_name":"North Brabant","country_id":156},{"active":false,"Giataid":"40361","cityId":78786,"cityName":"Tilburg","hotelId":40361,"hotelName":"Mercure Tilburg Centrum","address":"Heuvelpoort 300,5038 DT Tilburg,Netherlands","phones":"+31135354675","fax":"+31135355875","email":"info@mercure-tilburg.nl","url":"http://www.mercure-tilburg.nl/","countryIso2":"NL","countryName":"Netherlands","hotelRating":"4","latitude":"51.5571","longitude":"5.09089","state_id":2623,"state_name":"North Brabant","country_id":156},{"active":false,"Giataid":"40362","cityId":136292,"cityName":"Breda","hotelId":40362,"hotelName":"Novotel Breda","address":"Dr Batenburglaan 74,4837 BR Breda,Netherlands","phones":"+31762029000","fax":"+31765658758","email":"H0516@accor.com","url":"http://www.novotel.com/gb/hotel-0516-novotel-breda/index.shtml","countryIso2":"NL","countryName":"Netherlands","hotelRating":"4","latitude":"51.5663","longitude":"4.74479","state_id":1753,"state_name":"Veneto","country_id":107},{"active":false,"Giataid":"40506","cityId":null,"cityName":"Texel","hotelId":40506,"hotelName":"Prins Hendrik","address":"Stuifweg 13,1794 HA Oosterend,Netherlands","phones":"","fax":"","email":"","url":"","countryIso2":"NL","countryName":"Netherlands","hotelRating":"3","latitude":"53.1148","longitude":"4.89718","state_id":null,"state_name":null,"country_id":null},{"active":false,"Giataid":"40530","cityId":77340,"cityName":"Amsterdam","hotelId":40530,"hotelName":"De Paris","address":"Marnixstraat 372,1016 XX Amsterdam,Netherlands","phones":"+31206225587","fax":"+31206269516","email":"reservation@hoteldeparis.nl","url":"http://www.hoteldeparis.nl/index.php","countryIso2":"NL","countryName":"Netherlands","hotelRating":"3","latitude":"52.3658","longitude":"4.87978","state_id":2612,"state_name":"North Holland","country_id":156},{"active":false,"Giataid":"40588","cityId":77477,"cityName":"Breskens","hotelId":40588,"hotelName":"Strandpark Scheldeveste","address":"NULL","phones":"","fax":"","email":"info@scheldeveste.nl","url":"http://www.strandparkscheldeveste.nl/index.php/de/","countryIso2":"NL","countryName":"Netherlands","hotelRating":"3","latitude":"51.4019","longitude":"3.54298","state_id":2620,"state_name":"Zeeland","country_id":156},{"active":false,"Giataid":"41311","cityId":77408,"cityName":"Bergen op Zoom","hotelId":41311,"hotelName":"Grand Hotel De Draak & Residence Dagmara","address":"Grote Markt 30/36-38,4611 NT Bergen op Zoom,Netherlands","phones":"+31164252050","fax":"+31164257001","email":"info@hoteldedraak.nl","url":"http://www.hoteldedraak.nl/","countryIso2":"NL","countryName":"Netherlands","hotelRating":"4","latitude":"51.4947","longitude":"4.28636","state_id":2623,"state_name":"North Brabant","country_id":156},{"active":false,"Giataid":"41313","cityId":78613,"cityName":"Renesse","hotelId":41313,"hotelName":"Badhotel Renesse","address":"Laone 2-6,4325 EK Renesse,Netherlands","phones":"+31111462500","fax":"","email":"","url":"","countryIso2":"NL","countryName":"Netherlands","hotelRating":"3","latitude":"51.7338","longitude":"3.77601","state_id":2620,"state_name":"Zeeland","country_id":156},{"active":false,"Giataid":"47099","cityId":78642,"cityName":"Rotterdam","hotelId":47099,"hotelName":"Hilton Rotterdam","address":"Weena 10,Rotterdam 3012 CM,Netherlands","phones":"+31107108000","fax":"","email":"","url":"http://www.hilton.de/rotterdam","countryIso2":"NL","countryName":"Netherlands","hotelRating":"5","latitude":"51.9236","longitude":"4.47713","state_id":2614,"state_name":"South Holland","country_id":156},{"active":false,"Giataid":"47100","cityId":78642,"cityName":"Rotterdam","hotelId":47100,"hotelName":"Bastion Hotel Rotterdam Zuid","address":"Driemanssteeweg 5,3084 CA Rotterdam,Zuid-Holland,Netherlands","phones":"+31104101000","fax":"+31104103194","email":"","url":"https://www.bastionhotels.nl/nl/onzehotels/rotterdam","countryIso2":"NL","countryName":"Netherlands","hotelRating":"3","latitude":"51.8689","longitude":"4.45235","state_id":2614,"state_name":"South Holland","country_id":156},{"active":false,"Giataid":"47101","cityId":78642,"cityName":"Rotterdam","hotelId":47101,"hotelName":"Holiday Inn Rotterdam ","address":"Schouwburgplein 1,3012 CK Rotterdam,Netherlands","phones":"","fax":"","email":"","url":"","countryIso2":"NL","countryName":"Netherlands","hotelRating":"4","latitude":"51.9207","longitude":"4.47248","state_id":2614,"state_name":"South Holland","country_id":156},{"active":false,"Giataid":"47102","cityId":78642,"cityName":"Rotterdam","hotelId":47102,"hotelName":"Nh Atlanta Rotterdam","address":"Coolsingel/Aert van Nesstraat 4,3012 CA Rotterdam,Netherlands","phones":"+31102067800","fax":"+31104135320","email":"nhatlantarotterdam@nh-hotels.com","url":"http://www.nh-hotels.de/nh/de/hotels/holland/rotterdam/nh-atlanta-rotterdam.html?nhagentid=10168&amp;nhsubagentid=101680000001&amp;gclid=CNOVzKm_hJICFQw1aAodySx7-w","countryIso2":"NL","countryName":"Netherlands","hotelRating":"4","latitude":"51.9211","longitude":"4.47911","state_id":2614,"state_name":"South Holland","country_id":156},{"active":false,"Giataid":"47129","cityId":77340,"cityName":"Amsterdam","hotelId":47129,"hotelName":"Sheraton Amsterdam Airport","address":"Schiphol Boulevard 101,1118 BG Amsterdam,Netherlands","phones":"+31203164300","fax":"+31203164399","email":"","url":"http://www.sheraton.nl/","countryIso2":"NL","countryName":"Netherlands","hotelRating":"4","latitude":"52.309","longitude":"4.75972","state_id":2612,"state_name":"North Holland","country_id":156},{"active":false,"Giataid":"47130","cityId":null,"cityName":"Schiphol","hotelId":47130,"hotelName":"Steigenberger Airport Hotel Amsterdam","address":"Stationplein ZW 951,1117 CE Schiphol-Oost,Amsterdam,Netherlands","phones":"+31205400777","fax":"+31205400700","email":"info.amsterdam@dorint.com","url":"http://hotel-amsterdam.dorint.com/","countryIso2":"NL","countryName":"Netherlands","hotelRating":"4","latitude":"52.3086","longitude":"4.81061","state_id":null,"state_name":null,"country_id":null},{"active":false,"Giataid":"47134","cityId":77340,"cityName":"Amsterdam","hotelId":47134,"hotelName":"Gr8 Hotel Amsterdam Riverside","address":"Provincialeweg 38,1108 AB Amsterdam,Netherlands","phones":"+31 (0)88 45 40 631","fax":"+31203121465","email":"amsterdam@autogrill.net","url":"http://www.tulipinnamsterdamriverside.nl/","countryIso2":"NL","countryName":"Netherlands","hotelRating":"3","latitude":"52.3152","longitude":"4.99593","state_id":2612,"state_name":"North Holland","country_id":156},{"active":false,"Giataid":"47135","cityId":77340,"cityName":"Amsterdam","hotelId":47135,"hotelName":"Radisson Blu Amsterdam Airport","address":"Boeing Avenue 2,1119 PB,Schiphol-Rijk,Netherlands","phones":"+31206553131","fax":"+31206553100","email":"Reservations.Amsterdam.Airport@Radissonblu.com","url":"http://www.radissonblu.com/hotel-amsterdamairport","countryIso2":"NL","countryName":"Netherlands","hotelRating":"4","latitude":"52.2789","longitude":"4.74997","state_id":2612,"state_name":"North Holland","country_id":156},{"active":false,"Giataid":"47136","cityId":77340,"cityName":"Amsterdam","hotelId":47136,"hotelName":"Mercure Hotel Amsterdam West","address":"Oude Haagseweg 20,1066 BW Amsterdam,Netherlands","phones":"+31205126767","fax":"+31206159027","email":"H1315@accor.com","url":"http://www.mercure.com/gb/hotel-1315-mercure-amsterdam-airport/index.shtml","countryIso2":"NL","countryName":"Netherlands","hotelRating":"4","latitude":"52.3373","longitude":"4.81711","state_id":2612,"state_name":"North Holland","country_id":156},{"active":false,"Giataid":"47137","cityId":77340,"cityName":"Amsterdam","hotelId":47137,"hotelName":"Novotel Amsterdam City","address":"Europaboulevard 10,1083 AD Amsterdam,Netherlands","phones":"+31207219179","fax":"+31206462823","email":"H0515@accor.com","url":"http://www.novotel.com/de/hotel-0515-novotel-amsterdam-city/index.shtml","countryIso2":"NL","countryName":"Netherlands","hotelRating":"4","latitude":"52.3337","longitude":"4.88888","state_id":2612,"state_name":"North Holland","country_id":156},{"active":false,"Giataid":"47138","cityId":78175,"cityName":"Hoofddorp","hotelId":47138,"hotelName":"Crowne Plaza Amsterdam Schiphol","address":"Planeetbaan 2,Hoofddorp,2132 HZ Amsterdam,Netherlands","phones":"+31235650000","fax":"+31235650521","email":"reservations.amsap@whgeu.com","url":"http://www.ichotelsgroup.com/crowneplaza/hotels/us/emsterdam/amsap/hoteldetail","countryIso2":"NL","countryName":"Netherlands","hotelRating":"4","latitude":"52.2961","longitude":"4.70816","state_id":2612,"state_name":"North Holland","country_id":156},{"active":false,"Giataid":"47139","cityId":77340,"cityName":"Amsterdam","hotelId":47139,"hotelName":"Renaissance Amsterdam","address":"Kattengat 1,1012 SZ Amsterdam,Netherlands","phones":"+31206212223","fax":"+31206275245","email":"","url":"http://www.marriott.com/hotels/travel/amsrd-renaissance-amsterdam-hotel/","countryIso2":"NL","countryName":"Netherlands","hotelRating":"5","latitude":"52.3782","longitude":"4.89437","state_id":2612,"state_name":"North Holland","country_id":156},{"active":false,"Giataid":"47140","cityId":null,"cityName":"Badhoevedorp","hotelId":47140,"hotelName":"Ibis Schiphol Amsterdam Airport","address":"Schipholweg 181,1171 PK Badhoevedorp,Netherlands","phones":"+31207219171","fax":"+31206570199","email":"H0649@ACCOR.COM","url":"http://www.ibishotel.com/de/hotel-0649-ibis-amsterdam-airport/index.shtml","countryIso2":"NL","countryName":"Netherlands","hotelRating":"3","latitude":"52.3249","longitude":"4.79389","state_id":null,"state_name":null,"country_id":null},{"active":false,"Giataid":"47142","cityId":77340,"cityName":"Amsterdam","hotelId":47142,"hotelName":"Bastion Amsterdam/Centrum-Zuidwest","address":"Hendrikje Stoffelstraat 60,Nachtwachtlaan 11,1058 EV Amsterdam,Noord-Holland,Netherlands","phones":"+31206691621","fax":"+31206691631","email":"","url":"https://www.bastionhotels.nl/en/ourhotels/amsterdamzuidwest","countryIso2":"NL","countryName":"Netherlands","hotelRating":"3","latitude":"52.3575","longitude":"4.84361","state_id":2612,"state_name":"North Holland","country_id":156},{"active":false,"Giataid":"47143","cityId":77340,"cityName":"Amsterdam","hotelId":47143,"hotelName":"Hilton Amsterdam","address":"Apollolaan 138,Amsterdam 1077 BG,Netherlands","phones":"+31207106000","fax":"","email":"","url":"http://www.hilton.de/amsterdam","countryIso2":"NL","countryName":"Netherlands","hotelRating":"5","latitude":"52.3515","longitude":"4.87204","state_id":2612,"state_name":"North Holland","country_id":156},{"active":false,"Giataid":"47144","cityId":77340,"cityName":"Amsterdam","hotelId":47144,"hotelName":"Bastion Amsterdam/Amstel","address":"Verlengde Van Marwijk Kooystraat 30,1114 AC Amsterdam,Duivendrecht,Noord-Holland,Netherlands","phones":"+31206634567","fax":"+31206633116","email":"","url":"https://www.bastionhotels.nl/nl/onzehotels/amsterdam","countryIso2":"NL","countryName":"Netherlands","hotelRating":"3","latitude":"52.3337","longitude":"4.92784","state_id":2612,"state_name":"North Holland","country_id":156},{"active":false,"Giataid":"47235","cityId":77340,"cityName":"Amsterdam","hotelId":47235,"hotelName":"American Hotel Amsterdam","address":"Leidsekade 97,1017 PN Amsterdam,Netherlands","phones":"+31205563000","fax":"+31205563001","email":"info.american@edenhotelgroup.com","url":"http://www.edenamsterdamamericanhotel.com/nl/overview.aspx","countryIso2":"NL","countryName":"Netherlands","hotelRating":"4","latitude":"52.3638","longitude":"4.88094","state_id":2612,"state_name":"North Holland","country_id":156},{"active":false,"Giataid":"47343","cityId":null,"cityName":"Maastrich","hotelId":47343,"hotelName":"Bastion Maastricht Centrum","address":"Boschstraat 27,6211 AS Maastricht,Limburg,Netherlands","phones":"+31433212222","fax":"+31433213432","email":"","url":"https://www.bastionhotels.nl/nl/onzehotels/maastricht","countryIso2":"NL","countryName":"Netherlands","hotelRating":"4","latitude":"50.8552","longitude":"5.69016","state_id":null,"state_name":null,"country_id":null},{"active":false,"Giataid":"47344","cityId":null,"cityName":"Maastrich","hotelId":47344,"hotelName":"Nh Maastricht","address":"Forum 110,6229 GV Maastricht,Randwyck,Netherlands","phones":"+31433838281","fax":"+31433615862","email":"nhmaastricht@nh-hotels.com","url":"http://www.nh-hotels.de/nh/de/hotels/holland/maastricht/nh-maastricht.html","countryIso2":"NL","countryName":"Netherlands","hotelRating":"4","latitude":"50.8378","longitude":"5.71386","state_id":null,"state_name":null,"country_id":null},{"active":false,"Giataid":"47777","cityId":78398,"cityName":"Mierlo","hotelId":47777,"hotelName":"Carlton De Brug","address":"Arkweg 3 -17,5731 PD Mierlo,Netherlands","phones":"+31492678911","fax":"+31492664895","email":"info@debrug.carlton.nl","url":"http://www.carlton.nl/deBrug/default-nl.html","countryIso2":"NL","countryName":"Netherlands","hotelRating":"4","latitude":"51.4509","longitude":"5.62949","state_id":2623,"state_name":"North Brabant","country_id":156},{"active":false,"Giataid":"48415","cityId":78779,"cityName":"The Hague","hotelId":48415,"hotelName":"Hotel Des Indes, a Luxury Collection Hotel, The Hague","address":"Lange Voorhout 54-56,Den Haag 2514 EG,Netherlands","phones":"+31703612345","fax":"+31703612350","email":"info.desindes@luxurycollection.com","url":"http://www.desindes.nl/","countryIso2":"NL","countryName":"Netherlands","hotelRating":"5","latitude":"52.0838","longitude":"4.3134","state_id":2614,"state_name":"South Holland","country_id":156},{"active":false,"Giataid":"48417","cityId":78779,"cityName":"The Hague","hotelId":48417,"hotelName":"Mercure Hotel Den Haag Central","address":"Spui 180,2511 BW Den Haag,Netherlands","phones":"+31702039002","fax":"+31703639398","email":"H1317@accor.com","url":"http://www.mercure.com/de/hotel-1317-mercure-hotel-den-haag-central/index.shtml","countryIso2":"NL","countryName":"Netherlands","hotelRating":"4","latitude":"52.0763","longitude":"4.31781","state_id":2614,"state_name":"South Holland","country_id":156},{"active":false,"Giataid":"49824","cityId":78779,"cityName":"The Hague","hotelId":49824,"hotelName":"The Hague Marriott","address":"Johan de Wittlaan 30,2517 JR Den Haag,Netherlands","phones":"+31703525354","fax":"+31703525385","email":"reserveringen@belairhotel.nl","url":"http://www.belairhotel.nl/","countryIso2":"NL","countryName":"Netherlands","hotelRating":"4","latitude":"52.09","longitude":"4.28255","state_id":2614,"state_name":"South Holland","country_id":156},{"active":false,"Giataid":"49825","cityId":77642,"cityName":"Eindhoven","hotelId":49825,"hotelName":"Pullman Eindhoven Cocagne","address":"Vestdijk 47,5611 CA Eindhoven,Netherlands","phones":"+31402326111","fax":"+31402440148","email":"H5374@accor.com","url":"http://www.accorhotels.com/de/hotel-5374-pullman-eindhoven-cocagne/index.shtml","countryIso2":"NL","countryName":"Netherlands","hotelRating":"4","latitude":"51.4388","longitude":"5.48204","state_id":2623,"state_name":"North Brabant","country_id":156},{"active":false,"Giataid":"49826","cityId":78822,"cityName":"Utrecht","hotelId":49826,"hotelName":"Nh Utrecht","address":"Jaarbeursplein 24,3521 AR Utrecht,Netherlands","phones":"+31302977977","fax":"","email":"nhutrecht@nh-hotels.com","url":"http://www.nh-hotels.de/nh/de/hotels/niederlande/utrecht/nh-utrecht.html","countryIso2":"NL","countryName":"Netherlands","hotelRating":"4","latitude":"52.0901","longitude":"5.10594","state_id":2610,"state_name":"Utrecht","country_id":156},{"active":false,"Giataid":"49838","cityId":78175,"cityName":"Hoofddorp","hotelId":49838,"hotelName":"Nh Amsterdam Schiphol Airport","address":"Kruisweg 495,Hoofddorp,2132 NA Amsterdam,Netherlands","phones":"+31206550550","fax":"+31206534888","email":"nhschipholairport@nh-hotels.com","url":"http://www.nh-hotels.com/nh/en/hotels/the-netherlands/amsterdam/nh-schiphol-airport.html","countryIso2":"NL","countryName":"Netherlands","hotelRating":"4","latitude":"52.2897","longitude":"4.72494","state_id":2612,"state_name":"North Holland","country_id":156},{"active":false,"Giataid":"49839","cityId":null,"cityName":"Schiphol","hotelId":49839,"hotelName":"Schiphol Hotel-Hilton Amsterdam Airport Schiphol","address":"Schipol Boulevard 701,1118 BN Schiphol,Netherlands","phones":"+31207104000","fax":"","email":"","url":"http://www.hilton.de/amsterdamairport?WT.srch=1","countryIso2":"NL","countryName":"Netherlands","hotelRating":"4","latitude":"52.3069","longitude":"4.75599","state_id":null,"state_name":null,"country_id":null},{"active":false,"Giataid":"50128","cityId":78779,"cityName":"The Hague","hotelId":50128,"hotelName":"Parkhotel Den Haag","address":"Molenstraat 53,2513 BJ Den Haag,Netherlands","phones":"+31703624371","fax":"+31703614525","email":"info@parkhoteldenhaag.nl","url":"http://parkhoteldenhaag.nl/","countryIso2":"NL","countryName":"Netherlands","hotelRating":"4","latitude":"52.0796","longitude":"4.30531","state_id":2614,"state_name":"South Holland","country_id":156},{"active":false,"Giataid":"50129","cityId":78779,"cityName":"The Hague","hotelId":50129,"hotelName":"Paleis","address":"Molenstraat 26,2513 BL Den Haag,Netherlands","phones":"+31703624621","fax":"+31703614533","email":"info@paleishotel.nl","url":"http://www.paleishotel.nl/","countryIso2":"NL","countryName":"Netherlands","hotelRating":"4","latitude":"52.0798","longitude":"4.30639","state_id":2614,"state_name":"South Holland","country_id":156},{"active":false,"Giataid":"50130","cityId":77642,"cityName":"Eindhoven","hotelId":50130,"hotelName":"Park Plaza Eindhoven","address":"Geldropseweg 17,5611 SC Eindhoven,Netherlands","phones":"+31402146500","fax":"+31402121555","email":"ppmeres@pphe.com","url":"http://www.parkplaza.com/eindhovennl","countryIso2":"NL","countryName":"Netherlands","hotelRating":"4","latitude":"51.435","longitude":"5.48518","state_id":2623,"state_name":"North Brabant","country_id":156},{"active":false,"Giataid":"50131","cityId":null,"cityName":"Maastrich","hotelId":50131,"hotelName":"Amrath Grand Hotel de lEmpereur","address":"Stationsstraat 2,6221 BP Maastricht,Netherlands","phones":"+31433213838","fax":"+31433216819","email":"info@hotel-empereur.nl","url":"http://www.amrathhotels.nl/hotel/lempereur/home","countryIso2":"NL","countryName":"Netherlands","hotelRating":"4","latitude":"50.85","longitude":"5.70444","state_id":null,"state_name":null,"country_id":null},{"active":false,"Giataid":"50132","cityId":78822,"cityName":"Utrecht","hotelId":50132,"hotelName":"Park Plaza Utrecht","address":"Westplein 50,3531 BL Utrecht,Netherlands","phones":"+31302925200","fax":"+31302925199","email":"ppufo@pphe.com","url":"http://www.parkplaza.com/utrechtnl","countryIso2":"NL","countryName":"Netherlands","hotelRating":"4","latitude":"52.0915","longitude":"5.10673","state_id":2610,"state_name":"Utrecht","country_id":156},{"active":false,"Giataid":"50133","cityId":78441,"cityName":"Nieuwegein","hotelId":50133,"hotelName":"Fletcher Hotel-Restaurant Nieuwegein-Utrecht","address":"Buizerdlaan 10,3435 SB Nieuwegein,Netherlands","phones":"+31306044844","fax":"+31306038374","email":"H1164@accor.com","url":"http://www.accorhotels.com/de/hotel-1164-mercure-utrecht-nieuwegein/index.shtml","countryIso2":"NL","countryName":"Netherlands","hotelRating":"4","latitude":"52.027","longitude":"5.06747","state_id":2610,"state_name":"Utrecht","country_id":156},{"active":false,"Giataid":"50661","cityId":77511,"cityName":"Capelle aan den IJssel","hotelId":50661,"hotelName":"Nh Capelle","address":"Barbizonlaan 2,2908 MA Capelle a/d IJssel,Netherlands","phones":"+31104564455","fax":"","email":"nhcapelle@nh-hotels.com","url":"http://www.nh-hotels.de/nh/de/hotels/niederlande/capelle-a-d-ijssel/nh-capelle.html","countryIso2":"NL","countryName":"Netherlands","hotelRating":"4","latitude":"51.9577","longitude":"4.56341","state_id":2614,"state_name":"South Holland","country_id":156},{"active":false,"Giataid":"50728","cityId":77340,"cityName":"Amsterdam","hotelId":50728,"hotelName":"Bastion Amsterdam/Centrum-Noord","address":"Rode Kruisstraat 28,1025 KN Amsterdam,Noord-Holland,Netherlands","phones":"+31206323131","fax":"+31206344496","email":"","url":"https://www.bastionhotels.nl/en/ourhotels/amsterdamnoord","countryIso2":"NL","countryName":"Netherlands","hotelRating":"3","latitude":"52.3959","longitude":"4.92887","state_id":2612,"state_name":"North Holland","country_id":156},{"active":false,"Giataid":"50729","cityId":77340,"cityName":"Amsterdam","hotelId":50729,"hotelName":"Citadel","address":"Nieuwezijdsvoorburgwal 98-100,1012 SG Amsterdam,Netherlands","phones":"+31206273882","fax":"+31206274684","email":"hotel.citadel.ams@wxs.nl","url":"http://www.centrehotels.nl/nl/hotels/citadel/het-hotel","countryIso2":"NL","countryName":"Netherlands","hotelRating":"3","latitude":"52.3756","longitude":"4.89238","state_id":2612,"state_name":"North Holland","country_id":156},{"active":false,"Giataid":"50730","cityId":78779,"cityName":"The Hague","hotelId":50730,"hotelName":"Babylon Hotel Den Haag","address":"Bezuidenhoutseweg 53,corner Koningin Julianaplein,next to the Hauptbahnhof von Den Haag,2594 AC Den Haag (s-Gravenhage),Niederlande,S?dholland,Netherlands","phones":"+31703814901","fax":"+31703825927","email":"info.babylon@edenhotelgroup.com","url":"http://www.edenhotelgroup.com/nl/hotels/den-haag/eden-babylon-hotel-den-haag.aspx?linkTarget=overview","countryIso2":"NL","countryName":"Netherlands","hotelRating":"4","latitude":"52.0826","longitude":"4.32397","state_id":2614,"state_name":"South Holland","country_id":156},{"active":false,"Giataid":"50732","cityId":77503,"cityName":"Bunnik","hotelId":50732,"hotelName":"Postillion Hotel Utrecht Bunnik","address":"Baan van Fectio 1,3981 HZ Bunnik,Netherlands","phones":"+31306569222","fax":"+31306564074","email":"hotel.bunnik@postillionhotels.com","url":"http://www.postillionhotels.com/Default.aspx?PageID=22","countryIso2":"NL","countryName":"Netherlands","hotelRating":"3","latitude":"52.0617","longitude":"5.20588","state_id":2610,"state_name":"Utrecht","country_id":156},{"active":false,"Giataid":"50733","cityId":78822,"cityName":"Utrecht","hotelId":50733,"hotelName":"Nh Centre Utrecht","address":"Janskerkhof 10,3512BL Utrecht,Netherlands","phones":"+31302313169","fax":"+31302310148","email":"nhcentreutrecht@nh-hotels.com","url":"http://www.nh-hotels.de/nh/de/hotels/holland/utrecht/nh-centre-utrecht.html","countryIso2":"NL","countryName":"Netherlands","hotelRating":"3","latitude":"52.0931","longitude":"5.12232","state_id":2610,"state_name":"Utrecht","country_id":156},{"active":false,"Giataid":"50813","cityId":78779,"cityName":"The Hague","hotelId":50813,"hotelName":"Novotel Den Haag World Forum","address":"Johan de Wittlaan 42-44,2517 JR Den Haag,Netherlands","phones":"+31702039004","fax":"+31704169133","email":"H5389-RE@accor.com","url":"http://www.novotel.com/de/hotel-5389-novotel-den-haag-world-forum/index.shtml","countryIso2":"NL","countryName":"Netherlands","hotelRating":"4","latitude":"52.093","longitude":"4.28383","state_id":2614,"state_name":"South Holland","country_id":156},{"active":false,"Giataid":"51240","cityId":77350,"cityName":"Apeldoorn","hotelId":51240,"hotelName":"Bilderberg Hotel De Keizerskroon","address":"Koningstraat 7,7315 HR Apeldoorn,Netherlands","phones":"+31555217744","fax":"+31555214737","email":"keizerskroon.reservation@bilderberg.nl","url":"http://www.bilderberg.nl/hotels/hotel-de-keizerskroon/","countryIso2":"NL","countryName":"Netherlands","hotelRating":"4","latitude":"52.2341","longitude":"5.9495","state_id":2611,"state_name":"Gelderland","country_id":156},{"active":false,"Giataid":"76215","cityId":77340,"cityName":"Amsterdam","hotelId":76215,"hotelName":"Movenpick Amsterdam City Centre","address":"Piet Heinkade 11,1019 BR Amsterdam,Netherlands","phones":"+31205191200","fax":"+31205191249","email":"hotel.amsterdam@moevenpick.com","url":"http://www.moevenpick-hotels.com/hote","countryIso2":"NL","countryName":"Netherlands","hotelRating":"4","latitude":"52.3779","longitude":"4.91406","state_id":2612,"state_name":"North Holland","country_id":156},{"active":false,"Giataid":"125967","cityId":77340,"cityName":"Amsterdam","hotelId":125967,"hotelName":"Ajax","address":"Rokin 104,1012 KZ Amsterdam,Netherlands","phones":"","fax":"","email":"","url":"","countryIso2":"NL","countryName":"Netherlands","hotelRating":"2","latitude":"52.3693","longitude":"4.89179","state_id":2612,"state_name":"North Holland","country_id":156},{"active":false,"Giataid":"127323","cityId":78774,"cityName":"Terneuzen","hotelId":127323,"hotelName":"Hampshire Hotel - City Terneuzen","address":"Peter van Anrooijlaan 2,4536 CE Terneuzen,Netherlands","phones":"+31115696660","fax":"","email":"","url":"","countryIso2":"NL","countryName":"Netherlands","hotelRating":"3","latitude":"51.318","longitude":"3.85281","state_id":2620,"state_name":"Zeeland","country_id":156},{"active":false,"Giataid":"127336","cityId":78829,"cityName":"Valkenburg","hotelId":127336,"hotelName":"Fletcher Hotel Valkenburg","address":"Bosstraat 2,6301 HM Valkenburg,Netherlands","phones":"","fax":"","email":"","url":"","countryIso2":"NL","countryName":"Netherlands","hotelRating":"3","latitude":"50.871","longitude":"5.82312","state_id":2615,"state_name":"Limburg","country_id":156},{"active":false,"Giataid":"127337","cityId":78829,"cityName":"Valkenburg","hotelId":127337,"hotelName":"Fletcher HoteL-Restaurant De Burghoeve","address":"Broekhem 134,6301 HL Valkenburg,Netherlands","phones":"+31436012962","fax":"","email":"","url":"","countryIso2":"NL","countryName":"Netherlands","hotelRating":"3","latitude":"50.8712","longitude":"5.81571","state_id":2615,"state_name":"Limburg","country_id":156},{"active":false,"Giataid":"127342","cityId":null,"cityName":"De Lutte","hotelId":127342,"hotelName":"Fletcher HoteL-Restaurant De Grote Zwaan","address":"Bentheimerstraat 21,7587 ND De Lutte,Netherlands","phones":"","fax":"","email":"","url":"","countryIso2":"NL","countryName":"Netherlands","hotelRating":"3","latitude":"52.3205","longitude":"6.97065","state_id":null,"state_name":null,"country_id":null},{"active":false,"Giataid":"127413","cityId":77642,"cityName":"Eindhoven","hotelId":127413,"hotelName":"Sandton Eindhoven Centre","address":"Stratumsedijk 23d,5611 NA Eindhoven,Netherlands","phones":"+31402121330","fax":"+31402116593","email":"eindhoven@sandton.eu","url":"http://www.sandton.eu/eindhoven","countryIso2":"NL","countryName":"Netherlands","hotelRating":"3","latitude":"51.4339","longitude":"5.4842","state_id":2623,"state_name":"North Brabant","country_id":156},{"active":false,"Giataid":"127412","cityId":1693,"cityName":"Asten","hotelId":127412,"hotelName":"Best Western Hotel Nobis Asten","address":"Nobisweg 1,5721 VA Asten,Netherlands","phones":"+31493681300","fax":"","email":"","url":"","countryIso2":"NL","countryName":"Netherlands","hotelRating":"4","latitude":"51.4167","longitude":"5.75584","state_id":2058,"state_name":"Upper Austria","country_id":15},{"active":false,"Giataid":"127625","cityId":77568,"cityName":"Delft","hotelId":127625,"hotelName":"Leeuwenbrug","address":"Koornmarkt 16,2611 EE Delft,Netherlands","phones":"","fax":"","email":"","url":"","countryIso2":"NL","countryName":"Netherlands","hotelRating":"3","latitude":"52.0088","longitude":"4.35973","state_id":2614,"state_name":"South Holland","country_id":156},{"active":false,"Giataid":"127687","cityId":78388,"cityName":"Middelburg","hotelId":127687,"hotelName":"Fletcher HoteL-Restaurant Du Commerce","address":"Loskade 1,4331 HV Middelburg,Netherlands","phones":"+31347750405","fax":"+31118626400","email":"info@hotelducommerce.nl","url":"http://www.hotelducommerce.nl/?LANGUAGE=DU","countryIso2":"NL","countryName":"Netherlands","hotelRating":"3","latitude":"51.4964","longitude":"3.61735","state_id":2620,"state_name":"Zeeland","country_id":156},{"active":false,"Giataid":"127734","cityId":78267,"cityName":"Landgraaf","hotelId":127734,"hotelName":"Snowworld Landgraaf Sporthotel","address":"Witte Wereld 1,6372 VG Landgraaf,Netherlands","phones":"+31455470700","fax":"+31455470629","email":"landgraaf@snowworld.com","url":"http://www.snowworld.nl/","countryIso2":"NL","countryName":"Netherlands","hotelRating":"4","latitude":"50.8747","longitude":"6.0198","state_id":2615,"state_name":"Limburg","country_id":156},{"active":false,"Giataid":"127749","cityId":null,"cityName":"Noorbeek","hotelId":127749,"hotelName":"Fletcher Hotel Bon Repos","address":"Bovenstraat 17,6255 AT Noorbeek,Netherlands","phones":"+31434571338","fax":"","email":"","url":"","countryIso2":"NL","countryName":"Netherlands","hotelRating":"4","latitude":"50.7701","longitude":"5.81475","state_id":null,"state_name":null,"country_id":null},{"active":false,"Giataid":"127750","cityId":77570,"cityName":"Den Burg","hotelId":127750,"hotelName":"Fletcher HoteL-Restaurant Koogerend","address":"Kogerstraat 94,1791 EV Den Burg,Netherlands","phones":"+31347750401","fax":"+31222315902","email":"info@hotelkoogerend.nl","url":"http://www.hotelkoogerend.nl/","countryIso2":"NL","countryName":"Netherlands","hotelRating":"3","latitude":"53.0596","longitude":"4.79128","state_id":2612,"state_name":"North Holland","country_id":156},{"active":false,"Giataid":"127794","cityId":77620,"cityName":"Dwingeloo","hotelId":127794,"hotelName":"Wesseling","address":"Brink 26,7991 CH Dwingeloo,Netherlands","phones":"","fax":"","email":"","url":"","countryIso2":"NL","countryName":"Netherlands","hotelRating":"4","latitude":"52.8343","longitude":"6.36594","state_id":2613,"state_name":"Drenthe","country_id":156},{"active":false,"Giataid":"127899","cityId":null,"cityName":"Hellendoorn","hotelId":127899,"hotelName":"Fletcher HoteL-Restaurant Hellendoorn","address":"Johanna van Burenstraat 9,7447 HB Hellendoorn,Netherlands","phones":"","fax":"","email":"","url":"","countryIso2":"NL","countryName":"Netherlands","hotelRating":"3","latitude":"52.3884","longitude":"6.44524","state_id":null,"state_name":null,"country_id":null},{"active":false,"Giataid":"127977","cityId":78181,"cityName":"Hoogeveen","hotelId":127977,"hotelName":"Oranje","address":"","phones":"","fax":"","email":"","url":"","countryIso2":"NL","countryName":"Netherlands","hotelRating":"1","latitude":"52.7352","longitude":"6.46354","state_id":2613,"state_name":"Drenthe","country_id":156},{"active":false,"Giataid":"128776","cityId":78135,"cityName":"Helmond","hotelId":128776,"hotelName":"Golden Tulip West Ende","address":"Steenweg 1,5707 CD Helmond,Netherlands","phones":"+31492524151","fax":"","email":"","url":"","countryIso2":"NL","countryName":"Netherlands","hotelRating":"4","latitude":"51.4792","longitude":"5.65062","state_id":2623,"state_name":"North Brabant","country_id":156},{"active":false,"Giataid":"128777","cityId":null,"cityName":"Skarsterl?n","hotelId":128777,"hotelName":"Hampshire Hotel St. Nicolaasga","address":"Legemeersterweg 1a,8527 DS Legemeer,Netherlands","phones":"+31513432999","fax":"","email":"","url":"","countryIso2":"NL","countryName":"Netherlands","hotelRating":"4","latitude":"52.9374","longitude":"5.72538","state_id":null,"state_name":null,"country_id":null},{"active":false,"Giataid":"128778","cityId":null,"cityName":"Nieuwerkerk aan den IJssel","hotelId":128778,"hotelName":"Van Der Valk Hotel Rotterdam - Nieuwerkerk","address":"Parallelweg Zuid 185,2914 LE Nieuwerkerk aan den IJssel,Netherlands","phones":"+31180321103","fax":"","email":"","url":"","countryIso2":"NL","countryName":"Netherlands","hotelRating":"4","latitude":"51.9785","longitude":"4.61874","state_id":null,"state_name":null,"country_id":null},{"active":false,"Giataid":"128779","cityId":null,"cityName":"Ooij en Persingen","hotelId":128779,"hotelName":"Fletcher HoteL-Restaurant De Gelderse Poort","address":"Koningin Julianalaan 32,6576 AS Ooij,Netherlands","phones":"","fax":"","email":"","url":"","countryIso2":"NL","countryName":"Netherlands","hotelRating":"3","latitude":"51.8572","longitude":"5.93857","state_id":null,"state_name":null,"country_id":null},{"active":false,"Giataid":"128781","cityId":78849,"cityName":"Vianen","hotelId":128781,"hotelName":"Van der Valk Hotel Vianen","address":"Prins Bernhardstraat 75,4132 XE Vianen,Netherlands","phones":"+31347325959","fax":"","email":"","url":"","countryIso2":"NL","countryName":"Netherlands","hotelRating":"4","latitude":"51.9898","longitude":"5.08423","state_id":2610,"state_name":"Utrecht","country_id":156},{"active":false,"Giataid":"128782","cityId":null,"cityName":"Vierhouten","hotelId":128782,"hotelName":"Fletcher HoteL-Restaurant De Mallejan","address":"Nunspeterweg 70,8076 PD Vierhouten,Netherlands","phones":"","fax":"","email":"","url":"","countryIso2":"NL","countryName":"Netherlands","hotelRating":"4","latitude":"52.3344","longitude":"5.81709","state_id":null,"state_name":null,"country_id":null},{"active":false,"Giataid":"128783","cityId":null,"cityName":"Vlijmen","hotelId":128783,"hotelName":"Fletcher Hotel Restaurant Prinsen","address":"Julianastraat 21,5251 EC Vlijmen,Netherlands","phones":"+31735119131","fax":"","email":"","url":"","countryIso2":"NL","countryName":"Netherlands","hotelRating":"3","latitude":"51.698","longitude":"5.22385","state_id":null,"state_name":null,"country_id":null},{"active":false,"Giataid":"128784","cityId":78996,"cityName":"Zaltbommel","hotelId":128784,"hotelName":"Apollo 's-Hertogenbosch - Zaltbommel","address":"Hogeweg 75,5301 LK Zaltbommel,Netherlands","phones":"","fax":"","email":"","url":"","countryIso2":"NL","countryName":"Netherlands","hotelRating":"4","latitude":"51.7957","longitude":"5.25409","state_id":2611,"state_name":"Gelderland","country_id":156},{"active":false,"Giataid":"129049","cityId":77340,"cityName":"Amsterdam","hotelId":129049,"hotelName":"Stayokay Amsterdam Zeeburg","address":"Timorplein 21,1094 CC Amsterdam,Netherlands","phones":"","fax":"","email":"","url":"","countryIso2":"NL","countryName":"Netherlands","hotelRating":"2","latitude":"52.3655","longitude":"4.93558","state_id":2612,"state_name":"North Holland","country_id":156},{"active":false,"Giataid":"9636","cityId":77340,"cityName":"Amsterdam","hotelId":132776,"hotelName":"Banks Mansion","address":"Herengracht 519 -525,1017 BV Amsterdam,Netherlands","phones":"+31204200055","fax":"+31204200993","email":"desk@banksmansion.nl","url":"http://www.carlton.nl/banksMansion/default-nl.html","countryIso2":"NL","countryName":"Netherlands","hotelRating":"4","latitude":"52.3654","longitude":"4.89312","state_id":2612,"state_name":"North Holland","country_id":156},{"active":false,"Giataid":"132777","cityId":77340,"cityName":"Amsterdam","hotelId":132777,"hotelName":"Sander","address":"Jacob Obrechtstraat 69,1071 KJ Amsterdam,Netherlands","phones":"+31206627574","fax":"+31206796067","email":"info@hotel-sander.nl","url":"http://www.hotel-sander.nl/","countryIso2":"NL","countryName":"Netherlands","hotelRating":"3","latitude":"52.3541","longitude":"4.87672","state_id":2612,"state_name":"North Holland","country_id":156},{"active":false,"Giataid":"132778","cityId":77340,"cityName":"Amsterdam","hotelId":132778,"hotelName":"Season Star","address":"Martelaarsgracht 18,1012 AS Amsterdam,Netherlands","phones":"+31206239208","fax":"","email":"","url":"","countryIso2":"NL","countryName":"Netherlands","hotelRating":"3","latitude":"52.378","longitude":"4.89621","state_id":2612,"state_name":"North Holland","country_id":156},{"active":false,"Giataid":"132779","cityId":77340,"cityName":"Amsterdam","hotelId":132779,"hotelName":"A-Train","address":"Prins Hendrikkade 23,1012 TM Amsterdam,Netherlands","phones":"+31206241942","fax":"+31206227759","email":"info@atrainhotel.com","url":"http://www.atrainhotel.com/","countryIso2":"NL","countryName":"Netherlands","hotelRating":"3","latitude":"52.3784","longitude":"4.89642","state_id":2612,"state_name":"North Holland","country_id":156},{"active":false,"Giataid":"132783","cityId":77340,"cityName":"Amsterdam","hotelId":132783,"hotelName":"Belfort","address":"Surinameplein 53,1058 GN Amsterdam,Netherlands","phones":"+31206174333","fax":"+31206174335","email":"info@belforthotel.nl","url":"http://www.belforthotel.nl","countryIso2":"NL","countryName":"Netherlands","hotelRating":"3","latitude":"52.3576","longitude":"4.85045","state_id":2612,"state_name":"North Holland","country_id":156},{"active":false,"Giataid":"132784","cityId":77340,"cityName":"Amsterdam","hotelId":132784,"hotelName":"XO Hotel Inner","address":"Wanningstraat 1,1071 LA Amsterdam,Netherlands","phones":"+31206625792","fax":"+31206750268","email":"info@innerhotel.nl","url":"http://www.innerhotel.nl","countryIso2":"NL","countryName":"Netherlands","hotelRating":"2","latitude":"52.357","longitude":"4.87744","state_id":2612,"state_name":"North Holland","country_id":156},{"active":false,"Giataid":"132785","cityId":77350,"cityName":"Apeldoorn","hotelId":132785,"hotelName":"Bastion Deluxe Hotel Apeldoorn het Loo","address":"Loolaan 556,7315 AG Apeldoorn,Gelderland,Netherlands","phones":"+31555791255","fax":"+31555763249","email":"","url":"http://www.bastionhotels.nl/en/ourhotels/hetloo","countryIso2":"NL","countryName":"Netherlands","hotelRating":"4","latitude":"52.2274","longitude":"5.94718","state_id":2611,"state_name":"Gelderland","country_id":156},{"active":false,"Giataid":"132786","cityId":77394,"cityName":"Beetsterzwaag","hotelId":132786,"hotelName":"Bilderberg Landgoed Lauswolt","address":"Van Harinxmaweg 10,9244 CJ Beetsterzwaag,Netherlands","phones":"","fax":"","email":"","url":"","countryIso2":"NL","countryName":"Netherlands","hotelRating":"4","latitude":"53.0588","longitude":"6.0905","state_id":2622,"state_name":"Friesland","country_id":156},{"active":false,"Giataid":"132787","cityId":77642,"cityName":"Eindhoven","hotelId":132787,"hotelName":"Van der Valk Eindhoven","address":"Aalsterweg 322,5644 RL Eindhoven,Netherlands","phones":"","fax":"","email":"","url":"","countryIso2":"NL","countryName":"Netherlands","hotelRating":"4","latitude":"51.4065","longitude":"5.48033","state_id":2623,"state_name":"North Brabant","country_id":156},{"active":false,"Giataid":"132788","cityId":77666,"cityName":"Ermelo","hotelId":132788,"hotelName":"Golden Tulip Heerlickheijd Van Ermelo","address":"Staringlaan 1,3852 LA Ermelo,Netherlands","phones":"","fax":"","email":"","url":"","countryIso2":"NL","countryName":"Netherlands","hotelRating":"4","latitude":"52.3092","longitude":"5.63396","state_id":2611,"state_name":"Gelderland","country_id":156},{"active":false,"Giataid":"132789","cityId":78041,"cityName":"Gorinchem","hotelId":132789,"hotelName":"Campanile Gorinchem","address":"Franklinweg 1,Oost II,4207 HX Gorinchem,Netherlands","phones":"","fax":"","email":"","url":"","countryIso2":"NL","countryName":"Netherlands","hotelRating":"3","latitude":"51.8409","longitude":"5.00468","state_id":2614,"state_name":"South Holland","country_id":156},{"active":false,"Giataid":"132790","cityId":25732,"cityName":"Groningen","hotelId":132790,"hotelName":"Hampshire Plaza Groningen","address":"Laan Corpus Den Hoorn 300,9728 JT Groningen,Netherlands","phones":"+31505248000","fax":"+31505248001","email":"info@hampshire-plazagroningen.nl","url":"http://www.hampshire-plazagroningen.nl/","countryIso2":"NL","countryName":"Netherlands","hotelRating":"3","latitude":"53.1871","longitude":"6.56372","state_id":3011,"state_name":"Saxony-Anhalt","country_id":82},{"active":false,"Giataid":"132791","cityId":78081,"cityName":"Haarlem","hotelId":132791,"hotelName":"Van Der Valk Hotel Haarlem","address":"Toekanweg 2,2035 LC Haarlem,Netherlands","phones":"+31235367500","fax":"+31235367980","email":"haarlemzuid@valk.com","url":"http://www.valk.com/pages/?ID=3376&amp;propertyCode=HAA2&amp;i=0","countryIso2":"NL","countryName":"Netherlands","hotelRating":"4","latitude":"52.3693","longitude":"4.64729","state_id":2612,"state_name":"North Holland","country_id":156},{"active":false,"Giataid":"132792","cityId":78109,"cityName":"Heelsum","hotelId":132792,"hotelName":"Bilderberg Hotel Klein Zwitserland","address":"Klein Zwitserlandlaan 5,6866 DS Heelsum,Netherlands","phones":"+31317319104","fax":"+31317313943","email":"klein-zwitserland@bilderberg.nl","url":"http://www.bilderberg.nl/hotels/hotel-klein-zwitserland/","countryIso2":"NL","countryName":"Netherlands","hotelRating":"4","latitude":"51.9839","longitude":"5.75877","state_id":2611,"state_name":"Gelderland","country_id":156},{"active":false,"Giataid":"132793","cityId":null,"cityName":"Rosmalen","hotelId":132793,"hotelName":"Hotel-Restaurant 's-Hertogenbosch","address":"Burgemeester Burgerslaan 50,5245 NH Rosmalen,Netherlands","phones":"","fax":"","email":"","url":"","countryIso2":"NL","countryName":"Netherlands","hotelRating":"4","latitude":"51.7192","longitude":"5.33571","state_id":null,"state_name":null,"country_id":null},{"active":false,"Giataid":"132795","cityId":78285,"cityName":"Leiden","hotelId":132795,"hotelName":"ibis Leiderdorp","address":"Elisabethhof 50,2353 EZ Leiderdorp,Netherlands","phones":"+31715414141","fax":"","email":"","url":"","countryIso2":"NL","countryName":"Netherlands","hotelRating":"3","latitude":"52.1594","longitude":"4.54751","state_id":2614,"state_name":"South Holland","country_id":156},