[{"active":false,"Giataid":"12879","cityId":109031,"cityName":"Taipei","hotelId":12879,"hotelName":"Fortuna","address":"","phones":"","fax":"","email":"","url":"","countryIso2":"TW","countryName":"Taiwan","hotelRating":"3","latitude":"25.062","longitude":"121.524","state_id":3422,"state_name":"Taipei","country_id":216},{"active":false,"Giataid":"13401","cityId":109031,"cityName":"Taipei","hotelId":13401,"hotelName":"Grand Hyatt Taipei","address":"2 SongShou Road,Taipei 11051,Taiwan","phones":"+886227201234","fax":"+886227201111","email":"taipei.grand@hyatt.com","url":"http://taipei.grand.hyatt.com/hyatt/hotels-taipei-grand/index.jsp?null","countryIso2":"TW","countryName":"Taiwan","hotelRating":"5","latitude":"25.0356","longitude":"121.563","state_id":3422,"state_name":"Taipei","country_id":216},{"active":false,"Giataid":"18670","cityId":109031,"cityName":"Taipei","hotelId":18670,"hotelName":"Onetel Hotel","address":"24 Xining South Road,Wanhua District,108 Taipei,Taiwan","phones":"+886223141181","fax":"+886223147873","email":"","url":"http://www.paradisetaipei.com/","countryIso2":"TW","countryName":"Taiwan","hotelRating":"3","latitude":"25.0461","longitude":"121.507","state_id":3422,"state_name":"Taipei","country_id":216},{"active":false,"Giataid":"31790","cityId":109031,"cityName":"Taipei","hotelId":31790,"hotelName":"Leo Foo Hotel","address":"168 Chang Chun Road,Taipei,Taiwan","phones":"+886225073211","fax":"","email":"","url":"","countryIso2":"TW","countryName":"Taiwan","hotelRating":"3","latitude":"25.0547","longitude":"121.533","state_id":3422,"state_name":"Taipei","country_id":216},{"active":false,"Giataid":"40612","cityId":109031,"cityName":"Taipei","hotelId":40612,"hotelName":"Agora Garden","address":"","phones":"","fax":"","email":"","url":"","countryIso2":"TW","countryName":"Taiwan","hotelRating":"4","latitude":"25.0388","longitude":"121.57","state_id":3422,"state_name":"Taipei","country_id":216},{"active":false,"Giataid":"40613","cityId":109031,"cityName":"Taipei","hotelId":40613,"hotelName":"Golden China","address":"306 Sungchiang Road,Taipei City,Taiwan","phones":"+886225215151","fax":"+886225312914","email":"service@mail.golden-china.com.tw","url":"http://www.golden-china.com.tw","countryIso2":"TW","countryName":"Taiwan","hotelRating":"4","latitude":"25.0602","longitude":"121.533","state_id":3422,"state_name":"Taipei","country_id":216},{"active":false,"Giataid":"40614","cityId":109031,"cityName":"Taipei","hotelId":40614,"hotelName":"Santos","address":"Cheng De Road No. 49  Sec. 3,Taipei,Taiwan","phones":"+886225963111","fax":"+886225963120","email":"santos@santoshotel.com","url":"http://www.santoshotel.com/web/en/","countryIso2":"TW","countryName":"Taiwan","hotelRating":"4","latitude":"25.0649","longitude":"121.519","state_id":3422,"state_name":"Taipei","country_id":216},{"active":false,"Giataid":"129834","cityId":109004,"cityName":"Chiayi","hotelId":129834,"hotelName":"Chiayi King Hotel","address":"234 Xingrong Road,600 Chiayi,Taiwan","phones":"+88652238977","fax":"","email":"","url":"","countryIso2":"TW","countryName":"Taiwan","hotelRating":"3","latitude":"23.48","longitude":"120.444","state_id":3408,"state_name":"Chiayi","country_id":216},{"active":false,"Giataid":"129835","cityId":109010,"cityName":"Hsinchu","hotelId":129835,"hotelName":"Lakeshore","address":"773 Ming-Hu Road,Hsinchu 30065,Taiwan","phones":"+88635203181","fax":"+88635203189","email":"","url":"http://www.lakeshore.com.tw/en/index.htm","countryIso2":"TW","countryName":"Taiwan","hotelRating":"4","latitude":"24.7748","longitude":"120.968","state_id":3423,"state_name":"Hsinchu","country_id":216},{"active":false,"Giataid":"129836","cityId":null,"cityName":"Yuchi Township","hotelId":129836,"hotelName":"The Crystal Resort Sun Moon Lake","address":"No.3 Shueishalian St.,Jihyue Village,Yuchi Township,Nantou,Taiwan","phones":"+886497008188","fax":"","email":"","url":"http://www.slh.com/destinations/asia/taiwan/yuchih/crystal-the-sun-moon-lake-hotel/","countryIso2":"TW","countryName":"Taiwan","hotelRating":"5","latitude":"23.8492","longitude":"120.931","state_id":null,"state_name":null,"country_id":null},{"active":false,"Giataid":"129837","cityId":null,"cityName":"Yuchi Township","hotelId":129837,"hotelName":"Del Lago","address":"101 Zhongshan Rd.,Yuchi Shiang,Sun Moon Lake,Nantou,Taiwan","phones":"+886492856688","fax":"+886492856463","email":"","url":"http://www.dellago.com.tw","countryIso2":"TW","countryName":"Taiwan","hotelRating":"4","latitude":"23.8654","longitude":"120.912","state_id":null,"state_name":null,"country_id":null},{"active":false,"Giataid":"129839","cityId":109028,"cityName":"Taichung","hotelId":129839,"hotelName":"One","address":"532 Ying Tsai Road,Taichung 403,Taiwan","phones":"+886423031234","fax":"+886437026666","email":"service@hotelone.com.tw","url":"http://taichung.hotelone.com.tw","countryIso2":"TW","countryName":"Taiwan","hotelRating":"5","latitude":"24.1501","longitude":"120.665","state_id":3406,"state_name":"Taichung","country_id":216},{"active":false,"Giataid":"129840","cityId":109028,"cityName":"Taichung","hotelId":129840,"hotelName":"52 Hotel","address":"No. 52 Jhong-Ming Road,West District,Taichung City 403,Taiwan","phones":"+886423175000","fax":"+886423175001","email":"service@52hotel.com.tw","url":"http://www.52hotel.com.tw/en/","countryIso2":"TW","countryName":"Taiwan","hotelRating":"4","latitude":"24.1587","longitude":"120.661","state_id":3406,"state_name":"Taichung","country_id":216},{"active":false,"Giataid":"129841","cityId":109031,"cityName":"Taipei","hotelId":129841,"hotelName":"Pacific Business Center","address":"11 Floor,495 Guang-fu South Road,Taipei,Taiwan","phones":"+886287808000","fax":"+886287805000","email":"","url":"http://www.businesscenter.com.tw","countryIso2":"TW","countryName":"Taiwan","hotelRating":"4","latitude":"25.0326","longitude":"121.558","state_id":3422,"state_name":"Taipei","country_id":216},{"active":false,"Giataid":"129842","cityId":109031,"cityName":"Taipei","hotelId":129842,"hotelName":"The Westin Taipei","address":"133 Nanjing East Road,Section 3,104 Taipei,Taiwan","phones":"+886287706565","fax":"+886287706555","email":"service.express@westin.com.tw","url":"http://www.westin.com.tw/","countryIso2":"TW","countryName":"Taiwan","hotelRating":"5","latitude":"25.0522","longitude":"121.541","state_id":3422,"state_name":"Taipei","country_id":216},{"active":false,"Giataid":"129843","cityId":109031,"cityName":"Taipei","hotelId":129843,"hotelName":"Dolamanco","address":"Section 3,73 Xinyi Road,Daan,Taipei 106,Taiwan","phones":"+886227001200","fax":"+886227092649","email":"","url":"http://www.dolamanco.com.tw/en/index.php","countryIso2":"TW","countryName":"Taiwan","hotelRating":"3","latitude":"25.0337","longitude":"121.537","state_id":3422,"state_name":"Taipei","country_id":216},{"active":false,"Giataid":"129844","cityId":109031,"cityName":"Taipei","hotelId":129844,"hotelName":"Friends Yo Yo Regency","address":"24 Chang Chun Road,Taipei,Taiwan","phones":"+886225316767","fax":"+886225119637","email":"yoyo@ffh.com.tw","url":"http://en.yoyohotel.tw/","countryIso2":"TW","countryName":"Taiwan","hotelRating":"3","latitude":"25.0549","longitude":"121.524","state_id":3422,"state_name":"Taipei","country_id":216},{"active":false,"Giataid":"129845","cityId":109031,"cityName":"Taipei","hotelId":129845,"hotelName":"Royal Seasons Hotel - Taipei Nanjing West","address":"326-330 Nanjing West Road,Taipei 103,Taiwan","phones":"+886225556488","fax":"+886225586499","email":"rsvn.taipei@royalseasons.com","url":"http://www.taiwanseasonshotel.com/","countryIso2":"TW","countryName":"Taiwan","hotelRating":"4","latitude":"25.0538","longitude":"121.513","state_id":3422,"state_name":"Taipei","country_id":216},{"active":false,"Giataid":"129846","cityId":109031,"cityName":"Taipei","hotelId":129846,"hotelName":"Friends Yo Xing Regency","address":"11 Ho-Ping West Road,Sector 1,Taipei,Taiwan","phones":"+886223943121","fax":"","email":"","url":"","countryIso2":"TW","countryName":"Taiwan","hotelRating":"3","latitude":"25.027","longitude":"121.521","state_id":3422,"state_name":"Taipei","country_id":216},{"active":false,"Giataid":"129847","cityId":109031,"cityName":"Taipei","hotelId":129847,"hotelName":"Wonstar Hotel Songshan","address":"153 Songshan Road,Xinyi District,Taipei,Taiwan","phones":"+886227636660","fax":"+886227636622","email":"service@wonstar.com.tw","url":"http://www.wonstar.com.tw/wonstar/home/data/wonstar_Songshan/en/","countryIso2":"TW","countryName":"Taiwan","hotelRating":"3","latitude":"25.0465","longitude":"121.578","state_id":3422,"state_name":"Taipei","country_id":216},{"active":false,"Giataid":"129848","cityId":109031,"cityName":"Taipei","hotelId":129848,"hotelName":"Sunrise Business Hotel","address":"18, Section 1, Chongcing South Road,Jhongjheng District,100 Taipei,Taiwan","phones":"+886223821066","fax":"+886223882983","email":"seeyou.taipei@msa.hinet.net","url":"http://www.taipeiseeyouhotel.com.tw/english/intro.html","countryIso2":"TW","countryName":"Taiwan","hotelRating":"3","latitude":"25.0463","longitude":"121.513","state_id":3422,"state_name":"Taipei","country_id":216},{"active":false,"Giataid":"129849","cityId":109031,"cityName":"Taipei","hotelId":129849,"hotelName":"Delight","address":"432 Changchun Road,Songshan District,Taipei,Taiwan","phones":"+886227160011","fax":"+886227132008","email":"delight.hotel@msa.hinet.net","url":"http://www.delighthotel.com.tw/about_en.php","countryIso2":"TW","countryName":"Taiwan","hotelRating":"3","latitude":"25.0544","longitude":"121.545","state_id":3422,"state_name":"Taipei","country_id":216},{"active":false,"Giataid":"129850","cityId":109031,"cityName":"Taipei","hotelId":129850,"hotelName":"Sunroute","address":"9 Minquan East Road Section 1,Zhongshan District,10452 Taipei,Taiwan","phones":"+886225973610","fax":"+886225976523","email":"","url":"http://www.sunroute.jp/HotelInfo/htpe/HotelInfohtpeHL.html","countryIso2":"TW","countryName":"Taiwan","hotelRating":"3","latitude":"25.063","longitude":"121.523","state_id":3422,"state_name":"Taipei","country_id":216},{"active":false,"Giataid":"133233","cityId":109010,"cityName":"Hsinchu","hotelId":133233,"hotelName":"Forte Hotel","address":"3 Fuqun Street,30067 Hsinchu City,Taiwan","phones":"","fax":"","email":"","url":"","countryIso2":"TW","countryName":"Taiwan","hotelRating":"4","latitude":"24.8065","longitude":"120.966","state_id":3423,"state_name":"Hsinchu","country_id":216},{"active":false,"Giataid":"133236","cityId":109013,"cityName":"Hualien City","hotelId":133236,"hotelName":"Marshal Hotel","address":"36 Kung Yuan Road,970 Hualien City,Taiwan","phones":"+88638326123","fax":"+88638326140","email":"","url":"http://marshalhotel.ezhotel.tw/","countryIso2":"TW","countryName":"Taiwan","hotelRating":"3","latitude":"23.9773","longitude":"121.612","state_id":3411,"state_name":"Hualien","country_id":216},{"active":false,"Giataid":"133237","cityId":109013,"cityName":"Hualien City","hotelId":133237,"hotelName":"CJ Hotel","address":"Fuk Road No. 122,970 Hualien,Taiwan","phones":"+88638331388","fax":"+88638331389","email":"cj-hotel@cj-hotel.com","url":"http://www.cj-hotel.com/eng/page/about_us.htm","countryIso2":"TW","countryName":"Taiwan","hotelRating":"3","latitude":"23.9719","longitude":"121.602","state_id":3411,"state_name":"Hualien","country_id":216},{"active":false,"Giataid":"133238","cityId":null,"cityName":"Shoufeng","hotelId":133238,"hotelName":"Promised Land Resort & Lagoon","address":"Li Hsiang Road 1,Shoufeng Township,97447 Hualien,Taiwan","phones":"+88638656789","fax":"","email":"services@promisedland.com.tw","url":"http://www.plcresort.com.tw/eng/about_plc-1-en.htm","countryIso2":"TW","countryName":"Taiwan","hotelRating":"5","latitude":"23.8657","longitude":"121.527","state_id":null,"state_name":null,"country_id":null},{"active":false,"Giataid":"392079","cityId":109016,"cityName":"Kaohsiung","hotelId":133239,"hotelName":"85 Sky Tower Hotel","address":"1 Tzu-chiang 3rd rd,Kaohsiung,Taiwan","phones":"+88675668000","fax":"+88675668080","email":"","url":"http://www.thesplendor.com/_eng/index.php?language=_eng","countryIso2":"TW","countryName":"Taiwan","hotelRating":"4","latitude":"22.612","longitude":"120.3","state_id":3412,"state_name":"Kaohsiung","country_id":216},{"active":false,"Giataid":"133240","cityId":109016,"cityName":"Kaohsiung","hotelId":133240,"hotelName":"Kingdom","address":"42 Wufu 4th Road,Yancheng,803 Kaohsiung,Taiwan","phones":"+88675518211","fax":"+88675210403","email":"service@hotelkingdom.com.tw","url":"http://www.hotelkingdom.com.tw/ebout.php","countryIso2":"TW","countryName":"Taiwan","hotelRating":"4","latitude":"22.6216","longitude":"120.288","state_id":3412,"state_name":"Kaohsiung","country_id":216},{"active":false,"Giataid":"133242","cityId":109016,"cityName":"Kaohsiung","hotelId":133242,"hotelName":"Lees Boutique Hotel","address":"106 Wufu 1st Road,Xinxing,800 Kaohsiung,Taiwan","phones":"+88672295000","fax":"+88672263000","email":"pr@theleeshotel.com","url":"http://www.theleeshotel.com/Home/ContactUs","countryIso2":"TW","countryName":"Taiwan","hotelRating":"4","latitude":"22.6274","longitude":"120.313","state_id":3412,"state_name":"Kaohsiung","country_id":216},{"active":false,"Giataid":"133243","cityId":109016,"cityName":"Kaohsiung","hotelId":133243,"hotelName":"National Citizen","address":"134 Chung Chen 1 Road,802 Kaohsiung,Taiwan","phones":"+88677252918","fax":"","email":"","url":"http://www.ncznhotel.com.tw/intro.php","countryIso2":"TW","countryName":"Taiwan","hotelRating":"3","latitude":"22.6375","longitude":"120.344","state_id":3412,"state_name":"Kaohsiung","country_id":216},{"active":false,"Giataid":"133244","cityId":109016,"cityName":"Kaohsiung","hotelId":133244,"hotelName":"Evergreen","address":"No.219 Ho Ping 1St. Road,Kaohsiung,Taiwan","phones":"+88672220222","fax":"+88672232251","email":"","url":"http://www.trivago.de/kaohsiung-408046/hotel/evergreen-816826","countryIso2":"TW","countryName":"Taiwan","hotelRating":"3","latitude":"22.6315","longitude":"120.317","state_id":3412,"state_name":"Kaohsiung","country_id":216},{"active":false,"Giataid":"133245","cityId":109016,"cityName":"Kaohsiung","hotelId":133245,"hotelName":"Wen Pin Hotel","address":"22 Dayong Road,Yancheng District,803 Kaohsiung,Taiwan","phones":"+88675612346","fax":"","email":"","url":"","countryIso2":"TW","countryName":"Taiwan","hotelRating":"3","latitude":"22.6211","longitude":"120.283","state_id":3412,"state_name":"Kaohsiung","country_id":216},{"active":false,"Giataid":"133246","cityId":109016,"cityName":"Kaohsiung","hotelId":133246,"hotelName":"Toong Mao CU Hotel","address":"No. 453 Jhunghua 1st. Road,804 Gushan District,Taiwan","phones":"+88675525388","fax":"","email":"","url":"","countryIso2":"TW","countryName":"Taiwan","hotelRating":"3","latitude":"22.6553","longitude":"120.293","state_id":3412,"state_name":"Kaohsiung","country_id":216},{"active":false,"Giataid":"133248","cityId":109028,"cityName":"Taichung","hotelId":133248,"hotelName":"Ku Kuan","address":"6 Wen Chuan Lane,Tong Kuan Road 424,Section 1,Taichung,Taiwan","phones":"+886425951355","fax":"+886425951359","email":"","url":"http://www.kukuan.com.tw/","countryIso2":"TW","countryName":"Taiwan","hotelRating":"3","latitude":"24.2029","longitude":"121.009","state_id":3406,"state_name":"Taichung","country_id":216},{"active":false,"Giataid":"133249","cityId":109028,"cityName":"Taichung","hotelId":133249,"hotelName":"The Galerie Hotel","address":"242-33 Qinghai Road Section 2,Xitun District,407 Taichung,Taiwan","phones":"+886427089000","fax":"","email":"","url":"","countryIso2":"TW","countryName":"Taiwan","hotelRating":"4","latitude":"24.1717","longitude":"120.644","state_id":3406,"state_name":"Taichung","country_id":216},{"active":false,"Giataid":"133250","cityId":109028,"cityName":"Taichung","hotelId":133250,"hotelName":"Zhong ke","address":"256 Sec 2 Chung-de Road,Taichung,Taiwan","phones":"+886422465599","fax":"+886422461368","email":"zk.hotel@msa.hinet.net","url":"http://www.zkhotel.com.tw/","countryIso2":"TW","countryName":"Taiwan","hotelRating":"3","latitude":"24.1748","longitude":"120.686","state_id":3406,"state_name":"Taichung","country_id":216},{"active":false,"Giataid":"133251","cityId":109028,"cityName":"Taichung","hotelId":133251,"hotelName":"Ground","address":"58 Guangfu Road,Central District,Taichung City,Taiwan","phones":"+886422267589","fax":"+886422262709","email":"","url":"http://www.goodground.com.tw/taichung/index.php","countryIso2":"TW","countryName":"Taiwan","hotelRating":"3","latitude":"24.1421","longitude":"120.683","state_id":3406,"state_name":"Taichung","country_id":216},{"active":false,"Giataid":"133253","cityId":109031,"cityName":"Taipei","hotelId":133253,"hotelName":"Eastern Star","address":"11F., No.209, Sec. 4 Jhongsiao E. Road,Da-an,Taipei City 106,Taiwan","phones":"+886287736638","fax":"+886287736569","email":"east.hotel@msa.hinet.net","url":"http://www.eaststarhotel.com.tw/","countryIso2":"TW","countryName":"Taiwan","hotelRating":"3","latitude":"25.0417","longitude":"121.552","state_id":3422,"state_name":"Taipei","country_id":216},{"active":false,"Giataid":"133254","cityId":109031,"cityName":"Taipei","hotelId":133254,"hotelName":"Urtrip Hotel","address":"12F Section 2,219 Chang-an East Road,Jhonhshan Dictrict,Taipei,Taiwan","phones":"+886227752277","fax":"+886227520757","email":"service@hotelnews.com.tw","url":"http://www.onestartaipei.com.tw/","countryIso2":"TW","countryName":"Taiwan","hotelRating":"3","latitude":"25.0484","longitude":"121.545","state_id":3422,"state_name":"Taipei","country_id":216},{"active":false,"Giataid":"133255","cityId":109031,"cityName":"Taipei","hotelId":133255,"hotelName":"Gala","address":"186 Songjiang Road,Zhongshan District,Taipei City,Taiwan","phones":"+886225416888","fax":"+886225313831","email":"galahtl@ms18.hinet.net","url":"http://www.galahotel.com.tw/","countryIso2":"TW","countryName":"Taiwan","hotelRating":"4","latitude":"25.0566","longitude":"121.533","state_id":3422,"state_name":"Taipei","country_id":216},{"active":false,"Giataid":"133256","cityId":109031,"cityName":"Taipei","hotelId":133256,"hotelName":"Brother","address":"255 Nanjing East Road,Sec. 3,Taipei,Taiwan","phones":"+886227123456","fax":"+886227173334","email":"","url":"http://www.brotherhotel.com.tw/english/index01.htm","countryIso2":"TW","countryName":"Taiwan","hotelRating":"4","latitude":"25.052","longitude":"121.545","state_id":3422,"state_name":"Taipei","country_id":216},{"active":false,"Giataid":"133257","cityId":109031,"cityName":"Taipei","hotelId":133257,"hotelName":"Howard Serviced Suites Taipei","address":"343 Changchun Road,105 Taipei City,Taiwan","phones":"+886227187323","fax":"","email":"","url":"","countryIso2":"TW","countryName":"Taiwan","hotelRating":"4","latitude":"25.0548","longitude":"121.545","state_id":3422,"state_name":"Taipei","country_id":216},{"active":false,"Giataid":"133261","cityId":109031,"cityName":"Taipei","hotelId":133261,"hotelName":"Silken Hotel","address":"76-1 Xinsheng North Road Section 3,Zhongshan District,104 Taipei,Taiwan","phones":"+886225855000","fax":"","email":"","url":"","countryIso2":"TW","countryName":"Taiwan","hotelRating":"3","latitude":"25.0668","longitude":"121.527","state_id":3422,"state_name":"Taipei","country_id":216},{"active":false,"Giataid":"133262","cityId":109031,"cityName":"Taipei","hotelId":133262,"hotelName":"Royal Inn Nanxi","address":"8-11FI, No. 1 Nanking West Road,Taipei,Taiwan","phones":"+886225316171","fax":"+886225316179","email":"reservation@royal-inn-taipei.com.tw","url":"http://www.royal-inn-taipei.com.tw/","countryIso2":"TW","countryName":"Taiwan","hotelRating":"3","latitude":"25.0524","longitude":"121.522","state_id":3422,"state_name":"Taipei","country_id":216},{"active":false,"Giataid":"133263","cityId":109031,"cityName":"Taipei","hotelId":133263,"hotelName":"Welcome","address":"12 Beiping East Road,Taipei City,Taiwan","phones":"+886223581234","fax":"+886223914500","email":"reservation@welcomehotel.com.tw","url":"http://www.welcomehotel.com.tw/welcome_en.htm","countryIso2":"TW","countryName":"Taiwan","hotelRating":"3","latitude":"25.0461","longitude":"121.524","state_id":3422,"state_name":"Taipei","country_id":216},{"active":false,"Giataid":"133264","cityId":109031,"cityName":"Taipei","hotelId":133264,"hotelName":"Regal Executive Suites","address":"No.307 Fusing N. Road,Songshan District,Taipei City 105,Taiwan","phones":"+886227138600","fax":"+886227131598","email":"regal8@ms27.hinet.net","url":"http://www.highness.com.tw/english/regal/aboutus.php","countryIso2":"TW","countryName":"Taiwan","hotelRating":"3","latitude":"25.0585","longitude":"121.544","state_id":3422,"state_name":"Taipei","country_id":216},{"active":false,"Giataid":"133265","cityId":109031,"cityName":"Taipei","hotelId":133265,"hotelName":"Just Sleep @ NTU","address":"Section 4,83 Roosevelt Road,Taipei 10673,Taiwan","phones":"+886277355088","fax":"+886283692859","email":"ntu@leaderhotel.com","url":"http://www.leaderhotel.com/taipei/en/content/intro.htm","countryIso2":"TW","countryName":"Taiwan","hotelRating":"3","latitude":"25.0133","longitude":"121.536","state_id":3422,"state_name":"Taipei","country_id":216},{"active":false,"Giataid":"133266","cityId":109031,"cityName":"Taipei","hotelId":133266,"hotelName":"Pretty","address":"93 Sec.2 Chien Kou North Road,104 Taipei City,Taiwan","phones":"+886225066768","fax":"+886225066755","email":"prettyhotel@yahoo.com.tw","url":"http://www.prettyhotel.com.tw/","countryIso2":"TW","countryName":"Taiwan","hotelRating":"3","latitude":"25.0587","longitude":"121.537","state_id":3422,"state_name":"Taipei","country_id":216},{"active":false,"Giataid":"133267","cityId":109031,"cityName":"Taipei","hotelId":133267,"hotelName":"Royal Castle","address":"115 Cheng Du Road,Taipei,Taiwan","phones":"+886223831123","fax":"+886223715511","email":"hotel23831123@yahoo.com.tw","url":"http://www.royalcastle-tpe.com.tw","countryIso2":"TW","countryName":"Taiwan","hotelRating":"3","latitude":"25.0434","longitude":"121.504","state_id":3422,"state_name":"Taipei","country_id":216},{"active":false,"Giataid":"133268","cityId":109031,"cityName":"Taipei","hotelId":133268,"hotelName":"Empress","address":"14 Teh-Whei Street,Zongshan District,Taipei,Taiwan","phones":"+886225913261","fax":"+886225922922","email":"empressh@ms27.hinet.net","url":"http://www.empress.com.tw/","countryIso2":"TW","countryName":"Taiwan","hotelRating":"3","latitude":"25.0666","longitude":"121.524","state_id":3422,"state_name":"Taipei","country_id":216},{"active":false,"Giataid":"133269","cityId":109031,"cityName":"Taipei","hotelId":133269,"hotelName":"Mai","address":"No.15, Ln. 105, Sec. 1,Zhongshan N. Rd.,Zhongshan Dist.,Taipei City 104,Taiwan","phones":"+886225429511","fax":"","email":"","url":"","countryIso2":"TW","countryName":"Taiwan","hotelRating":"3","latitude":"25.0511","longitude":"121.524","state_id":3422,"state_name":"Taipei","country_id":216},{"active":false,"Giataid":"133270","cityId":109031,"cityName":"Taipei","hotelId":133270,"hotelName":"Liz Hotel","address":"Lane 107,16 Linsen North Road,104 Taipei,Taiwan","phones":"+886225619713","fax":"","email":"","url":"","countryIso2":"TW","countryName":"Taiwan","hotelRating":"3","latitude":"25.0502","longitude":"121.526","state_id":3422,"state_name":"Taipei","country_id":216},{"active":false,"Giataid":"133271","cityId":109031,"cityName":"Taipei","hotelId":133271,"hotelName":"San Sui","address":"No. 181 Sec. 2 Chung Shan N. Road,Taipei,Taiwan","phones":"+886225971281","fax":"+886225971288","email":"sansuihotel@gmail.com","url":"http://www.sansuihotel.com.tw","countryIso2":"TW","countryName":"Taiwan","hotelRating":"3","latitude":"25.0633","longitude":"121.523","state_id":3422,"state_name":"Taipei","country_id":216},{"active":false,"Giataid":"133273","cityId":109031,"cityName":"Taipei","hotelId":133273,"hotelName":"Danshin Hotel","address":"2-2 Lane 27 Section 2 Zhongshan North Road,Zhongshan District,104 Taipei,Taiwan","phones":"+886225652155","fax":"","email":"","url":"","countryIso2":"TW","countryName":"Taiwan","hotelRating":"3","latitude":"25.0531","longitude":"121.523","state_id":3422,"state_name":"Taipei","country_id":216},{"active":false,"Giataid":"133274","cityId":109031,"cityName":"Taipei","hotelId":133274,"hotelName":"Friends Yo Lai Regency","address":"No. 23-1 Shuang Cheng Street,Taipei,Taiwan","phones":"+886225978800","fax":"+886225951115","email":"yolai@ffh.com.tw","url":"http://www.ffh.com.tw/","countryIso2":"TW","countryName":"Taiwan","hotelRating":"3","latitude":"25.0659","longitude":"121.524","state_id":3422,"state_name":"Taipei","country_id":216},{"active":false,"Giataid":"133276","cityId":109031,"cityName":"Taipei","hotelId":133276,"hotelName":"Rainbow Hotel","address":"36 Hanzhong Street,Wanhua District,Taipei City,Taiwan","phones":"+886223119193","fax":"+886223885011","email":"rainbow2009@kimo.com","url":"http://www.rainbowhoteltaipei.com.tw/en/index.php","countryIso2":"TW","countryName":"Taiwan","hotelRating":"3","latitude":"25.0445","longitude":"121.507","state_id":3422,"state_name":"Taipei","country_id":216},{"active":false,"Giataid":"133277","cityId":109031,"cityName":"Taipei","hotelId":133277,"hotelName":"Friends Yo Chun Regency","address":"No.55 Min Quan W. Road,Taipei,Taiwan","phones":"+886225972588","fax":"+886225986664","email":"","url":"http://www.ffh.com.tw/index_eng_menu.htm","countryIso2":"TW","countryName":"Taiwan","hotelRating":"3","latitude":"25.063","longitude":"121.52","state_id":3422,"state_name":"Taipei","country_id":216},{"active":false,"Giataid":"133279","cityId":109031,"cityName":"Taipei","hotelId":133279,"hotelName":"Puri","address":"6 Lane 27,Chengdu Road,Taipei 108,Taiwan","phones":"+886223718616","fax":"+886223619197","email":"resv@hotel-puri.com.tw","url":"http://www.hotel-puri.com","countryIso2":"TW","countryName":"Taiwan","hotelRating":"3","latitude":"25.043","longitude":"121.507","state_id":3422,"state_name":"Taipei","country_id":216},{"active":false,"Giataid":"133280","cityId":109031,"cityName":"Taipei","hotelId":133280,"hotelName":"Royal Biz","address":"71 Sector 1,Jinshan South Road,Taipei,Taiwan","phones":"+886223979399","fax":"+886223971399","email":"gm@royalbiz.com.tw","url":"http://www.royalbiz.com.tw/en/index.htm","countryIso2":"TW","countryName":"Taiwan","hotelRating":"4","latitude":"25.0373","longitude":"121.528","state_id":3422,"state_name":"Taipei","country_id":216},{"active":false,"Giataid":"133281","cityId":109031,"cityName":"Taipei","hotelId":133281,"hotelName":"Hotel Royal Nikko Taipei","address":"37-1 Chung Shan North Road,Section 2,104 Taipei,Taiwan","phones":"+886 2 2542 3266","fax":"","email":"","url":"http://www.royal-taipei.com.tw/","countryIso2":"TW","countryName":"Taiwan","hotelRating":"5","latitude":"25.0537","longitude":"121.523","state_id":3422,"state_name":"Taipei","country_id":216},{"active":false,"Giataid":"134112","cityId":109031,"cityName":"Taipei","hotelId":134112,"hotelName":"Wonstar Zhonghua","address":"Section 1,Zhonghua Road 82,Wanhua District,108 Taipei,Taiwan","phones":"+886223820889","fax":"+886223820719","email":"service@wonstar.com.tw","url":"http://www.wonstar.com.tw/wonstar/home/data/wonstar_Zhonghua/en/","countryIso2":"TW","countryName":"Taiwan","hotelRating":"3","latitude":"25.0454","longitude":"121.509","state_id":3422,"state_name":"Taipei","country_id":216},{"active":false,"Giataid":"134219","cityId":109031,"cityName":"Taipei","hotelId":134219,"hotelName":"San Want Residences","address":"128 Nanjing East Road,Section 1,Taipei,Taiwan","phones":"+886225115185","fax":"+886225111585","email":"","url":"http://www.swresidences.com/index_trans.htm","countryIso2":"TW","countryName":"Taiwan","hotelRating":"5","latitude":"25.052","longitude":"121.527","state_id":3422,"state_name":"Taipei","country_id":216},{"active":false,"Giataid":"284263","cityId":null,"cityName":"Jiaoxi","hotelId":137018,"hotelName":"Shandori Hotel","address":"1 Xingnong Road,Lane 291,Jiaoxi Township,Yilan County,Taiwan","phones":"+88639888288","fax":"","email":"","url":"","countryIso2":"TW","countryName":"Taiwan","hotelRating":"3","latitude":"24.8178","longitude":"121.781","state_id":null,"state_name":null,"country_id":null},{"active":false,"Giataid":"137041","cityId":null,"cityName":"Kenting","hotelId":137041,"hotelName":"Kenting House","address":"101 Gong Yuan Road,Kenting Village,946 Hengchun,Pingtung County,Taiwan","phones":"","fax":"","email":"","url":"","countryIso2":"TW","countryName":"Taiwan","hotelRating":"3","latitude":"21.9546","longitude":"120.799","state_id":null,"state_name":null,"country_id":null},{"active":false,"Giataid":"137044","cityId":109031,"cityName":"Taipei","hotelId":137044,"hotelName":"Kilin","address":"103 Kangding Road,Taipei,Taiwan","phones":"","fax":"","email":"","url":"","countryIso2":"TW","countryName":"Taiwan","hotelRating":"3","latitude":"25.0368","longitude":"121.503","state_id":3422,"state_name":"Taipei","country_id":216},{"active":false,"Giataid":"137051","cityId":109035,"cityName":"Taoyuan","hotelId":137051,"hotelName":"Chateau de Chine Taoyuan","address":"107 Minsheng Road,Taoyuan District,33041 Taoyun City,Taiwan","phones":"+88633370888","fax":"+88633368111","email":"","url":"http://taoyuan.chinatrust-hotel.com/","countryIso2":"TW","countryName":"Taiwan","hotelRating":"4","latitude":"24.9926","longitude":"121.313","state_id":3419,"state_name":"Taoyuan","country_id":216},{"active":false,"Giataid":"137060","cityId":null,"cityName":"Wanli ","hotelId":137060,"hotelName":"Howard Beach Resort Green Bay","address":"17 Fei Tsui Road,Wanli District,Neu-Taipeh,Taiwan","phones":"+886224926565","fax":"+886224926588","email":"","url":"http://greenbay.howard-hotels.com/?Lsn=2","countryIso2":"TW","countryName":"Taiwan","hotelRating":"4","latitude":"25.1886","longitude":"121.684","state_id":null,"state_name":null,"country_id":null},{"active":false,"Giataid":"137070","cityId":109016,"cityName":"Kaohsiung","hotelId":137070,"hotelName":"Citizen","address":"11-2 Hsin Chung 2nd Road,Kaohsiung,Taiwan","phones":"","fax":"","email":"","url":"","countryIso2":"TW","countryName":"Taiwan","hotelRating":"3","latitude":"22.6151","longitude":"120.303","state_id":3412,"state_name":"Kaohsiung","country_id":216},{"active":false,"Giataid":"137154","cityId":109035,"cityName":"Taoyuan","hotelId":137154,"hotelName":"Howard Lake Resort Shihmen Dam","address":"176 Min Fu Street,Da Ping Village,Lung Tan,Tao Yuan Hsieng,Taiwan","phones":"+88634112323","fax":"+88634111212","email":"","url":"http://shihmen.howard-hotels.com/","countryIso2":"TW","countryName":"Taiwan","hotelRating":"4","latitude":"24.8172","longitude":"121.243","state_id":3419,"state_name":"Taoyuan","country_id":216},{"active":false,"Giataid":"137154","cityId":109035,"cityName":"Taoyuan","hotelId":137154,"hotelName":"Howard Lake Resort Shihmen Dam","address":"176 Min Fu Street,Da Ping Village,Lung Tan,Tao Yuan Hsieng,Taiwan","phones":"+88634112323","fax":"+88634111212","email":"","url":"http://shihmen.howard-hotels.com/","countryIso2":"TW","countryName":"Taiwan","hotelRating":"4","latitude":"24.8172","longitude":"121.243","state_id":3419,"state_name":"Taoyuan","country_id":216},{"active":false,"Giataid":"137166","cityId":109013,"cityName":"Hualien City","hotelId":137166,"hotelName":"Charming City","address":"19 Guoshing 2nd Street,Hualien,Taiwan","phones":"+88638353355","fax":"+88638347890","email":"Hotel_n@hotmail.com","url":"http://www.city-hotel.com.tw/leisure/c1/c1-tw.htm","countryIso2":"TW","countryName":"Taiwan","hotelRating":"3","latitude":"23.9926","longitude":"121.604","state_id":3411,"state_name":"Hualien","country_id":216},{"active":false,"Giataid":"137173","cityId":null,"cityName":"Kenting","hotelId":137173,"hotelName":"Howard Beach Resort Kenting","address":"2 Kending Road,946 Kenting,Hengchun Township,Pingtung County,Taiwan","phones":"+88688862323","fax":"+88688862359","email":"","url":"http://kenting.howard-hotels.com/","countryIso2":"TW","countryName":"Taiwan","hotelRating":"5","latitude":"21.9419","longitude":"120.808","state_id":null,"state_name":null,"country_id":null},{"active":false,"Giataid":"137254","cityId":null,"cityName":"Tamsui District","hotelId":137254,"hotelName":"Fullon Hot Spring Resort","address":"2F 6 Danjin Road,Danshui District,New Taipei City 251,Taiwan,Taiwan","phones":"+886286263939","fax":"+886286262211","email":"","url":"http://fullon-hotspring.hotel.com.tw/eng/location.asp","countryIso2":"TW","countryName":"Taiwan","hotelRating":"4","latitude":"25.1595","longitude":"121.458","state_id":null,"state_name":null,"country_id":null},{"active":false,"Giataid":"137276","cityId":109031,"cityName":"Taipei","hotelId":137276,"hotelName":"Rebar Crowne Plaza","address":"","phones":"","fax":"","email":"","url":"","countryIso2":"TW","countryName":"Taiwan","hotelRating":"4","latitude":"25.0512","longitude":"121.559","state_id":3422,"state_name":"Taipei","country_id":216},{"active":false,"Giataid":"137311","cityId":109016,"cityName":"Kaohsiung","hotelId":137311,"hotelName":"Sumitomo","address":"","phones":"","fax":"","email":"","url":"","countryIso2":"TW","countryName":"Taiwan","hotelRating":"3","latitude":"22.6402","longitude":"120.305","state_id":3412,"state_name":"Kaohsiung","country_id":216},{"active":false,"Giataid":"137350","cityId":109030,"cityName":"Tainan","hotelId":137350,"hotelName":"Dynasty","address":"46 Chengkung Road,Tainan,Taiwan","phones":"+88662258121","fax":"+88662216711","email":"","url":"http://www.trivago.de/tainan-405666/hotel/dynasty-tainan-796456","countryIso2":"TW","countryName":"Taiwan","hotelRating":"3","latitude":"22.9982","longitude":"120.208","state_id":3421,"state_name":"Tainan","country_id":216},{"active":false,"Giataid":"137371","cityId":109031,"cityName":"Taipei","hotelId":137371,"hotelName":"Castle","address":"52, Sec. 1 Chang An E. Road,Zhongzheng District,Taipei 104,Taiwan","phones":"+886225312121","fax":"+886225629735","email":"","url":"","countryIso2":"TW","countryName":"Taiwan","hotelRating":"3","latitude":"25.0482","longitude":"121.528","state_id":3422,"state_name":"Taipei","country_id":216},{"active":false,"Giataid":"137406","cityId":null,"cityName":"Keelung","hotelId":137406,"hotelName":"Evergreen Laurel","address":"62-1 Zhongzheng Road,Keelung 202,Taiwan","phones":"+886224279988","fax":"+886224228642","email":"elhklg@evergreen-hotels.com","url":"http://www.evergreen-hotels.com/branch/Index.aspx?checkcode=RNARN&amp;tempdbsn=4&amp;debug=1","countryIso2":"TW","countryName":"Taiwan","hotelRating":"5","latitude":"25.1351","longitude":"121.746","state_id":null,"state_name":null,"country_id":null},{"active":false,"Giataid":"137411","cityId":109033,"cityName":"Taitung","hotelId":137411,"hotelName":"Formosan Naruwan","address":"Lien Hang Rord 66,Taitung,Taiwan","phones":"+88689239666","fax":"+88689239777","email":"naruwan@naruwan-hotel.com.tw","url":"http://www.naruwan-hotel.com.tw","countryIso2":"TW","countryName":"Taiwan","hotelRating":"4","latitude":"22.77","longitude":"121.122","state_id":3410,"state_name":"Taitung","country_id":216},{"active":false,"Giataid":"137439","cityId":109030,"cityName":"Tainan","hotelId":137439,"hotelName":"ECFA Hotel - Tainan","address":"8F 145 Section 2,Zhongyi RoadTainan,700 Tainan City,Taiwan","phones":"+88662275566","fax":"+88662277799","email":"","url":"http://www.puyumahotel.com.tw/","countryIso2":"TW","countryName":"Taiwan","hotelRating":"3","latitude":"22.9953","longitude":"120.204","state_id":3421,"state_name":"Tainan","country_id":216},{"active":false,"Giataid":"137469","cityId":109040,"cityName":"Yunlin","hotelId":137469,"hotelName":"Metro Hotel","address":"9F 156 Minsheng Road,640 Douliou,Yunlin County,Taiwan","phones":"+88655361001","fax":"+88655349523","email":"rv-mt@howard-hotels.com.tw","url":"http://metro.howard-hotels.com.tw/CT_Metro1.php","countryIso2":"TW","countryName":"Taiwan","hotelRating":"3","latitude":"23.7115","longitude":"120.542","state_id":3416,"state_name":"Yunlin","country_id":216},{"active":false,"Giataid":"137473","cityId":109031,"cityName":"Taipei","hotelId":137473,"hotelName":"Green Garden Apartments","address":"9 Lane 199, Dunhua North Road,10548 Taipei City,Taiwan","phones":"+886225459888","fax":"","email":"","url":"http://green-garden.howard-hotels.com/","countryIso2":"TW","countryName":"Taiwan","hotelRating":"4","latitude":"25.0568","longitude":"121.552","state_id":3422,"state_name":"Taipei","country_id":216},{"active":false,"Giataid":"137882","cityId":109009,"cityName":"Hengchun","hotelId":137882,"hotelName":"Caesar Park Kenting","address":"6 Kenting Road,94644 Hengchun Town,Pingtung County,Taiwan","phones":"+88688861888","fax":"+88688861818","email":"cs@caesarpark.com.tw","url":"http://www.caesarpark.com.tw/en/kenting.php","countryIso2":"TW","countryName":"Taiwan","hotelRating":"4","latitude":"21.9425","longitude":"120.805","state_id":3405,"state_name":"Pingtung","country_id":216},{"active":false,"Giataid":"137883","cityId":109031,"cityName":"Taipei","hotelId":137883,"hotelName":"Tai Hope","address":"137 Shingan Street,Taipei,Taiwan","phones":"+886227195152","fax":"+886227195156","email":"service@city-hotel.com.tw","url":"http://www.city-hotel.com.tw/bussiness/b5/b5-en.htm","countryIso2":"TW","countryName":"Taiwan","hotelRating":"3","latitude":"25.0562","longitude":"121.545","state_id":3422,"state_name":"Taipei","country_id":216},{"active":false,"Giataid":"137884","cityId":109031,"cityName":"Taipei","hotelId":137884,"hotelName":"Happiness","address":"No. 18 Lane 97 Sungjiang Rd.,Taipei,Taiwan","phones":"+886225177272","fax":"+886225166595","email":"service@city-hotel.com.tw","url":"http://www.city-hotel.com.tw/bussiness/a3/a3-en.htm","countryIso2":"TW","countryName":"Taiwan","hotelRating":"3","latitude":"25.0509","longitude":"121.534","state_id":3422,"state_name":"Taipei","country_id":216},{"active":false,"Giataid":"137885","cityId":109035,"cityName":"Taoyuan","hotelId":137885,"hotelName":"Pleasant Hotels International","address":"No. 269 Daxing Road,Taoyuan District,Taoyuan City,Taoyuan County 33050,Taiwan","phones":"+88633255688","fax":"+88633554481","email":"","url":"http://www.taoyuanhotel.com.tw/","countryIso2":"TW","countryName":"Taiwan","hotelRating":"4","latitude":"25.0167","longitude":"121.316","state_id":3419,"state_name":"Taoyuan","country_id":216},{"active":false,"Giataid":"137886","cityId":109035,"cityName":"Taoyuan","hotelId":137886,"hotelName":"Yaward","address":"No. 39, 23 Lin,Jiu Long Village,Longtan,Taoyuan County,Taiwan","phones":"+88634803388","fax":"+88634894350","email":"","url":"http://yaward.hotel.com.tw/","countryIso2":"TW","countryName":"Taiwan","hotelRating":"4","latitude":"24.8695","longitude":"121.248","state_id":3419,"state_name":"Taoyuan","country_id":216},{"active":false,"Giataid":"137887","cityId":109030,"cityName":"Tainan","hotelId":137887,"hotelName":"Wei-Yat Toong Mao Grand","address":"539 Cingping Road,Tainan,Taiwan","phones":"+88662950888","fax":"+88662950222","email":"monkey513513@yahoo.com.tw","url":"http://www.toongmao.com.tw/eng/tw.htm","countryIso2":"TW","countryName":"Taiwan","hotelRating":"4","latitude":"22.9972","longitude":"120.172","state_id":3421,"state_name":"Tainan","country_id":216},{"active":false,"Giataid":"137892","cityId":109031,"cityName":"Taipei","hotelId":137892,"hotelName":"Grace Hotel","address":"2 Lane 1 Nan-Men Street,Panchiao,220 Taipei,Taiwan","phones":"+886222729331","fax":"","email":"","url":"","countryIso2":"TW","countryName":"Taiwan","hotelRating":"3","latitude":"25.0085","longitude":"121.458","state_id":3422,"state_name":"Taipei","country_id":216},{"active":false,"Giataid":"137893","cityId":null,"cityName":"Yuchi Township","hotelId":137893,"hotelName":"Fenisia","address":"","phones":"","fax":"","email":"","url":"","countryIso2":"TW","countryName":"Taiwan","hotelRating":"5","latitude":"23.8665","longitude":"120.928","state_id":null,"state_name":null,"country_id":null},{"active":false,"Giataid":"137901","cityId":null,"cityName":"Wanli ","hotelId":137901,"hotelName":"Pacific Hot Spring","address":"1 Haijing Road,Wanli District,207 Xinbei,Taiwan","phones":"+886224928080","fax":"+886224925511","email":"","url":"http://www.pacificgreenbay.com.tw/","countryIso2":"TW","countryName":"Taiwan","hotelRating":"4","latitude":"25.1886","longitude":"121.684","state_id":null,"state_name":null,"country_id":null},{"active":false,"Giataid":"137903","cityId":109031,"cityName":"Taipei","hotelId":137903,"hotelName":"Taipei Garden Hotel","address":"1 Section 2 Zhonghua Road,Zhongzheng District,10065 Taipei City,Taiwan","phones":"+886223146611","fax":"","email":"","url":"http://www.taipeigarden.com.tw/indexmap_en.php","countryIso2":"TW","countryName":"Taiwan","hotelRating":"4","latitude":"25.0364","longitude":"121.507","state_id":3422,"state_name":"Taipei","country_id":216},{"active":false,"Giataid":"137907","cityId":null,"cityName":"Lugu, Nantou","hotelId":137907,"hotelName":"Leader","address":"No. 10 San-lin Lane,Lugu Township,Nantou County,Taiwan","phones":"+88682492612588","fax":"+88682492612577","email":"","url":"http://www.leaderhotel.com/chi-tou/news.html","countryIso2":"TW","countryName":"Taiwan","hotelRating":"3","latitude":"23.7348","longitude":"120.784","state_id":null,"state_name":null,"country_id":null},{"active":false,"Giataid":"137910","cityId":109030,"cityName":"Tainan","hotelId":137910,"hotelName":"Hibiscus Resort","address":"102-5 Mizhi Village,Nanshi,715 Tainan,Taiwan","phones":"","fax":"","email":"","url":"","countryIso2":"TW","countryName":"Taiwan","hotelRating":"4","latitude":"22.9997","longitude":"120.227","state_id":3421,"state_name":"Tainan","country_id":216},{"active":false,"Giataid":"137925","cityId":109031,"cityName":"Taipei","hotelId":137925,"hotelName":"Triple Beds","address":"16, Section 4, Bade Road,Songshan District,Taipei 10563,Taiwan","phones":"","fax":"","email":"","url":"","countryIso2":"TW","countryName":"Taiwan","hotelRating":"3","latitude":"25.0481","longitude":"121.559","state_id":3422,"state_name":"Taipei","country_id":216},{"active":false,"Giataid":"137928","cityId":null,"cityName":"Jinshan District","hotelId":137928,"hotelName":"Yangmingshan Tien Lai Resort & Spa","address":"1-7 Mingliu Road,Jinshan District,208 New Taipei City,Taiwan","phones":"+886224080000","fax":"+886224080999","email":"","url":"http://www.tienlai.com.tw/ebout-1.htm","countryIso2":"TW","countryName":"Taiwan","hotelRating":"4","latitude":"25.2019","longitude":"121.595","state_id":null,"state_name":null,"country_id":null},{"active":false,"Giataid":"137929","cityId":109031,"cityName":"Taipei","hotelId":137929,"hotelName":"Spring City Resort","address":"18 Youya L?,Beit?u Qu,112 T?ibei,Taiwan","phones":"+886228972345","fax":"","email":"","url":"","countryIso2":"TW","countryName":"Taiwan","hotelRating":"5","latitude":"25.1376","longitude":"121.514","state_id":3422,"state_name":"Taipei","country_id":216},{"active":false,"Giataid":"137933","cityId":109030,"cityName":"Tainan","hotelId":137933,"hotelName":"Taipung Suites","address":"199 Yonghua 2nd Street,Anping District,708 Tainan,Taiwan","phones":"+88662931888","fax":"","email":"","url":"","countryIso2":"TW","countryName":"Taiwan","hotelRating":"4","latitude":"22.9887","longitude":"120.184","state_id":3421,"state_name":"Tainan","country_id":216},{"active":false,"Giataid":"137936","cityId":109035,"cityName":"Taoyuan","hotelId":137936,"hotelName":"Fullon Taoyuan","address":"No. 200 Sec. 1 Dasing W. Road,Taoyuan City,Taoyuan County 330,Taiwan","phones":"+88633265800","fax":"+88633265900","email":"ty@fullon-hotels.com.tw","url":"http://taoyuan.fullon-hotels.com/","countryIso2":"TW","countryName":"Taiwan","hotelRating":"4","latitude":"25.0139","longitude":"121.303","state_id":3419,"state_name":"Taoyuan","country_id":216},{"active":false,"Giataid":"137938","cityId":null,"cityName":"Wujie","hotelId":137938,"hotelName":"Forte Dong Shan Villa","address":"Sector 2,Wubin Road 201,Wujie Township,Yilan County 268,Taiwan","phones":"","fax":"","email":"","url":"","countryIso2":"TW","countryName":"Taiwan","hotelRating":"4","latitude":"24.6874","longitude":"121.822","state_id":null,"state_name":null,"country_id":null},{"active":false,"Giataid":"137942","cityId":109030,"cityName":"Tainan","hotelId":137942,"hotelName":"Lincoln","address":"9F 230 Section 3 Jinhua Road,Tainan,Taiwan","phones":"+88662295777","fax":"+88662290166","email":"","url":"http://www.lincolnhotel.com.tw/lincoln_eng/","countryIso2":"TW","countryName":"Taiwan","hotelRating":"3","latitude":"22.995","longitude":"120.194","state_id":3421,"state_name":"Tainan","country_id":216},{"active":false,"Giataid":"137945","cityId":109031,"cityName":"Taipei","hotelId":137945,"hotelName":"Holiday Inn East Taipei","address":"265 Beishen Road Section 3,Shenkeng Shiang,222 Taipei,Taiwan","phones":"+886226628000","fax":"+886226627428","email":"fo@hietpe.com","url":"http://www.holidayinn.com/hotels/us/en/taipei/tpebr/hoteldetail","countryIso2":"TW","countryName":"Taiwan","hotelRating":"4","latitude":"25.0043","longitude":"121.599","state_id":3422,"state_name":"Taipei","country_id":216},{"active":false,"Giataid":"137946","cityId":109031,"cityName":"Taipei","hotelId":137946,"hotelName":"Fullon Taipei","address":"No.266, Sec. 1, Jianguo S. Rd,Taipei City 106,Taiwan","phones":"+886227019266","fax":"+886227555005","email":"tp@fullon-hotels.com.tw","url":"http://taipei.fullon-hotels.com/","countryIso2":"TW","countryName":"Taiwan","hotelRating":"4","latitude":"25.0413","longitude":"121.537","state_id":3422,"state_name":"Taipei","country_id":216},{"active":false,"Giataid":"137956","cityId":109031,"cityName":"Taipei","hotelId":137956,"hotelName":"Eastern Beauty","address":"No. 33 Yi Jiang St.,Taipei,Taiwan","phones":"+886225638866","fax":"+886225631998","email":"","url":"http://www.easternbeauty.tw/eng/home.htm","countryIso2":"TW","countryName":"Taiwan","hotelRating":"3","latitude":"25.0535","longitude":"121.532","state_id":3422,"state_name":"Taipei","country_id":216},{"active":false,"Giataid":"137960","cityId":null,"cityName":"Jiaoxi","hotelId":137960,"hotelName":"Sun Spring Resort","address":"36, Sector 6,Jiaoxi Road,Jiaoxi Township,Yilan County 262,Taiwan,Taiwan","phones":"+88639887979","fax":"+88639880066","email":"sun6.spring@msa.hinet.net","url":"http://www.yh.org.tw/en/hostel_info_in.asp?ID=17","countryIso2":"TW","countryName":"Taiwan","hotelRating":"4","latitude":"24.8306","longitude":"121.778","state_id":null,"state_name":null,"country_id":null},{"active":false,"Giataid":"137964","cityId":109035,"cityName":"Taoyuan","hotelId":137964,"hotelName":"City Suites Gateway","address":"Jhongjheng East Road 442,Dayuan Township,Taoyuan County 337,Taiwan","phones":"+88633853017","fax":"+88633853031","email":"marketinggateway@citysuites.com.tw","url":"http://www.citysuites.com.tw/en/%E6%A1%83%E5%9C%92%E8%88%AA%E7%A9%BA%E9%A4%A8","countryIso2":"TW","countryName":"Taiwan","hotelRating":"4","latitude":"25.0585","longitude":"121.212","state_id":3419,"state_name":"Taoyuan","country_id":216},{"active":false,"Giataid":"137967","cityId":109030,"cityName":"Tainan","hotelId":137967,"hotelName":"Young Soarlan Boutique Hotel","address":"487 Section 2 Jiankang Road,702 Tainan,Taiwan","phones":"+88662640999","fax":"+88662640111","email":"","url":"http://www.cambridge-hotel.com.tw/chienkang/index.php","countryIso2":"TW","countryName":"Taiwan","hotelRating":"3","latitude":"22.9822","longitude":"120.184","state_id":3421,"state_name":"Tainan","country_id":216},{"active":false,"Giataid":"137971","cityId":109031,"cityName":"Taipei","hotelId":137971,"hotelName":"Golden","address":"No.538, Sec. 2, Chung-Shan Road,Chung-Ho City,Taipei 235,Taiwan","phones":"+886222229898","fax":"+886222223399","email":"service@golden-hotel.com.tw","url":"http://www.golden-hotel.com.tw/","countryIso2":"TW","countryName":"Taiwan","hotelRating":"4","latitude":"25.0052","longitude":"121.485","state_id":3422,"state_name":"Taipei","country_id":216},{"active":false,"Giataid":"137973","cityId":109030,"cityName":"Tainan","hotelId":137973,"hotelName":"Justwin Grand","address":"56-20 Zhongzheng North Road,Yongkang District,71072 Tainan,Taiwan","phones":"+88662426677","fax":"","email":"","url":"","countryIso2":"TW","countryName":"Taiwan","hotelRating":"4","latitude":"23.0413","longitude":"120.24","state_id":3421,"state_name":"Tainan","country_id":216},{"active":false,"Giataid":"137974","cityId":null,"cityName":"Lukang","hotelId":137974,"hotelName":"Leader Landmark","address":"588, Chung Cheng Road,Lukang,Changhua,Taiwan","phones":"+88647786699","fax":"+88647741558","email":"ntu@leaderhotel.com","url":"http://www.leaderhotel.com.tw/eng/lukang/","countryIso2":"TW","countryName":"Taiwan","hotelRating":"4","latitude":"24.0632","longitude":"120.436","state_id":null,"state_name":null,"country_id":null},{"active":false,"Giataid":"137977","cityId":null,"cityName":"Sanxia","hotelId":137977,"hotelName":"Fullon Sanyin","address":"63 Dasyue Road,Sansia District,New Taipei City 237,Taiwan,Taiwan","phones":"+886286721234","fax":"+886286720036","email":"","url":"http://sanyin.fullon-hotels.com.tw/","countryIso2":"TW","countryName":"Taiwan","hotelRating":"4","latitude":"24.9405","longitude":"121.377","state_id":null,"state_name":null,"country_id":null},{"active":false,"Giataid":"137980","cityId":null,"cityName":"Jiaoxi","hotelId":137980,"hotelName":"Hotel Royal Chiaohsi","address":"69 Wufeng Road,Yilan,262 Jiaoxi,Taiwan","phones":"+88639881511","fax":"","email":"","url":"","countryIso2":"TW","countryName":"Taiwan","hotelRating":"5","latitude":"24.8277","longitude":"121.756","state_id":null,"state_name":null,"country_id":null},{"active":false,"Giataid":"137984","cityId":109035,"cityName":"Taoyuan","hotelId":137984,"hotelName":"Fullon Jhongli","address":"89 Jhongiheng Rd,Jhongli City,Taoyuan County 320,Taiwan","phones":"+88634270900","fax":"+88634270611","email":"jl@fullon-hotels.com.tw","url":"http://jhongli.fullon-hotels.com/","countryIso2":"TW","countryName":"Taiwan","hotelRating":"4","latitude":"24.9545","longitude":"121.223","state_id":3419,"state_name":"Taoyuan","country_id":216},{"active":false,"Giataid":"137984","cityId":109035,"cityName":"Taoyuan","hotelId":137984,"hotelName":"Fullon Jhongli","address":"89 Jhongiheng Rd,Jhongli City,Taoyuan County 320,Taiwan","phones":"+88634270900","fax":"+88634270611","email":"jl@fullon-hotels.com.tw","url":"http://jhongli.fullon-hotels.com/","countryIso2":"TW","countryName":"Taiwan","hotelRating":"4","latitude":"24.9545","longitude":"121.223","state_id":3419,"state_name":"Taoyuan","country_id":216},{"active":false,"Giataid":"137990","cityId":null,"cityName":"Yongkang, Tainan","hotelId":137990,"hotelName":"Queena Plaza Hotel Tainan","address":"99 Yong'an 1st Street,Yongkang District,710 Tainan,Taiwan","phones":"+88662438999","fax":"","email":"","url":"","countryIso2":"TW","countryName":"Taiwan","hotelRating":"4","latitude":"23.0441","longitude":"120.243","state_id":null,"state_name":null,"country_id":null},{"active":false,"Giataid":"137991","cityId":109030,"cityName":"Tainan","hotelId":137991,"hotelName":"Cambridge Yongkang","address":"128 Shin-Hang street,Yongkang,Tainan,Taiwan","phones":"+88662426666","fax":"+88662422299","email":"","url":"http://www.cambridge-hotel.com.tw/yungkang/index.php","countryIso2":"TW","countryName":"Taiwan","hotelRating":"3","latitude":"23.0413","longitude":"120.242","state_id":3421,"state_name":"Tainan","country_id":216},{"active":false,"Giataid":"138362","cityId":null,"cityName":"Wanli ","hotelId":138362,"hotelName":"Aegean Sea Hot Spring","address":"","phones":"","fax":"","email":"","url":"","countryIso2":"TW","countryName":"Taiwan","hotelRating":"4","latitude":"25.1903","longitude":"121.682","state_id":null,"state_name":null,"country_id":null},{"active":false,"Giataid":"138375","cityId":null,"cityName":"Zhongli","hotelId":138375,"hotelName":"Kuva Chateau","address":"398 Min Chiuan Road,320 Chungli,Taiwan","phones":"+88632811818","fax":"+88632811616","email":"","url":"http://www.kuva-chateau.com.tw/en_index.asp","countryIso2":"TW","countryName":"Taiwan","hotelRating":"4","latitude":"24.9649","longitude":"121.217","state_id":null,"state_name":null,"country_id":null},{"active":false,"Giataid":"138375","cityId":109035,"cityName":"Taoyuan","hotelId":138375,"hotelName":"Kuva Chateau","address":"398 Min Chiuan Road,320 Chungli,Taiwan","phones":"+88632811818","fax":"+88632811616","email":"","url":"http://www.kuva-chateau.com.tw/en_index.asp","countryIso2":"TW","countryName":"Taiwan","hotelRating":"4","latitude":"24.9649","longitude":"121.217","state_id":3419,"state_name":"Taoyuan","country_id":216},{"active":false,"Giataid":"138459","cityId":109003,"cityName":"Changhua","hotelId":138459,"hotelName":"Grand View Hotel","address":"395 Zhongshan Road Section 2,Changhua County,51049 Yuanlin,Taiwan","phones":"+88648333999","fax":"","email":"service@grand-view.com.tw","url":"http://www.grand-view.com.tw","countryIso2":"TW","countryName":"Taiwan","hotelRating":"4","latitude":"23.9691","longitude":"120.571","state_id":3404,"state_name":"Changhua","country_id":216},{"active":false,"Giataid":"138541","cityId":109031,"cityName":"Taipei","hotelId":138541,"hotelName":"Taipei Fullerton South","address":"Section 2,41 Fu-Xing South Road,Taipei,Taiwan","phones":"+886227031234","fax":"+886227056161","email":"service2@taipeifullerton.com.tw","url":"http://www.taipeifullerton.com.tw/html/eng_south/about_us.htm","countryIso2":"TW","countryName":"Taiwan","hotelRating":"4","latitude":"25.0315","longitude":"121.544","state_id":3422,"state_name":"Taipei","country_id":216},{"active":false,"Giataid":"138549","cityId":109030,"cityName":"Tainan","hotelId":138549,"hotelName":"Tainan First Hotel","address":"148 Kangle Street,Zhongxi District,Tainan,Taiwan","phones":"+88662238999","fax":"","email":"","url":"","countryIso2":"TW","countryName":"Taiwan","hotelRating":"3","latitude":"22.9948","longitude":"120.195","state_id":3421,"state_name":"Tainan","country_id":216},{"active":false,"Giataid":"143343","cityId":null,"cityName":"Beitou","hotelId":143343,"hotelName":"Pacific Wellness Hotel","address":"1 Ciyan Road,Beitou District,Taipei,Taiwan","phones":"","fax":"","email":"","url":"","countryIso2":"TW","countryName":"Taiwan","hotelRating":"4","latitude":"25.1333","longitude":"121.502","state_id":null,"state_name":null,"country_id":null},{"active":false,"Giataid":"143344","cityId":null,"cityName":"Beitou","hotelId":143344,"hotelName":"Sweetme Hotspring Resort","address":"No 224 Guangming Rd.,Beitou Chiu,Taipei,Taiwan","phones":"+886228983838","fax":"+886228984505","email":"Service.sweetme@msa.hinet.net","url":"http://www.sweetme.com.tw/English/home/home.php","countryIso2":"TW","countryName":"Taiwan","hotelRating":"3","latitude":"25.1361","longitude":"121.505","state_id":null,"state_name":null,"country_id":null},{"active":false,"Giataid":"143345","cityId":109016,"cityName":"Kaohsiung","hotelId":143345,"hotelName":"The Grand Hotel Kaohsiung","address":"2 Yuanshan Road,Niaosong District,833 Kaohsiung,Taiwan","phones":"+88673705911","fax":"+88673704889","email":"","url":"http://www.grand-hotel.org/main/Kaohsiung/default.aspx?lang=en-US","countryIso2":"TW","countryName":"Taiwan","hotelRating":"4","latitude":"22.6547","longitude":"120.346","state_id":3412,"state_name":"Kaohsiung","country_id":216},{"active":false,"Giataid":"143346","cityId":109016,"cityName":"Kaohsiung","hotelId":143346,"hotelName":"Chu Yu","address":"","phones":"","fax":"","email":"","url":"","countryIso2":"TW","countryName":"Taiwan","hotelRating":"3","latitude":"22.6402","longitude":"120.305","state_id":3412,"state_name":"Kaohsiung","country_id":216},{"active":false,"Giataid":"143347","cityId":109020,"cityName":"Magong","hotelId":143347,"hotelName":"Dolphin Bay Hotel","address":"216 Wen Shen Road,Dong Wen Village,Makung,Taiwan","phones":"","fax":"","email":"","url":"","countryIso2":"TW","countryName":"Taiwan","hotelRating":"4","latitude":"23.5661","longitude":"119.586","state_id":3403,"state_name":"Penghu","country_id":216},{"active":false,"Giataid":"143348","cityId":109020,"cityName":"Magong","hotelId":143348,"hotelName":"Dolphin Bay Shi-Yu Resort","address":"","phones":"","fax":"","email":"","url":"","countryIso2":"TW","countryName":"Taiwan","hotelRating":"3","latitude":"23.5629","longitude":"119.58","state_id":3403,"state_name":"Penghu","country_id":216},{"active":false,"Giataid":"143350","cityId":109030,"cityName":"Tainan","hotelId":143350,"hotelName":"J. R. Plaza","address":"539 Ching-Ping Road,Taiwan,Taiwan","phones":"","fax":"","email":"","url":"","countryIso2":"TW","countryName":"Taiwan","hotelRating":"4","latitude":"22.9971","longitude":"120.172","state_id":3421,"state_name":"Tainan","country_id":216},{"active":false,"Giataid":"143351","cityId":109031,"cityName":"Taipei","hotelId":143351,"hotelName":"Green World - New World Hotel","address":"141 Kunming Street,Wanhua District,Taipei City 108,Taiwan","phones":"+886223118863","fax":"+886223894692","email":"newworldhtl@gmail.com","url":"http://www.newworldhotel.com.tw","countryIso2":"TW","countryName":"Taiwan","hotelRating":"3","latitude":"25.0449","longitude":"121.509","state_id":3422,"state_name":"Taipei","country_id":216},{"active":false,"Giataid":"143352","cityId":109031,"cityName":"Taipei","hotelId":143352,"hotelName":"Shang Hao","address":"","phones":"","fax":"","email":"","url":"","countryIso2":"TW","countryName":"Taiwan","hotelRating":"3","latitude":"25.0497","longitude":"121.529","state_id":3422,"state_name":"Taipei","country_id":216},{"active":false,"Giataid":"202387","cityId":109031,"cityName":"Taipei","hotelId":202387,"hotelName":"Hd Palace","address":"2F., No.100,Sec. 2,Anhe Rd.,Da-an District,Taipei,Taiwan","phones":"+886866227556599","fax":"+886866227005966","email":"hdpalace@xuite.net","url":"http://www.hdpalace.com.tw/en.php","countryIso2":"TW","countryName":"Taiwan","hotelRating":"4","latitude":"25.0285","longitude":"121.55","state_id":3422,"state_name":"Taipei","country_id":216},{"active":false,"Giataid":"202650","cityId":109035,"cityName":"Taoyuan","hotelId":202650,"hotelName":"Novotel Taipei Taoyuan International Airport","address":"1-1 Hangzhan South Road,Dayuan District,33758 Taoyuan City,Taiwan","phones":"+88633980888","fax":"+88633980999","email":"H6701-RE@ACCOR.COM","url":"http://www.novotel.com/gb/hotel-6701-novotel-taipei-taoyuan-international-airport/index.shtml","countryIso2":"TW","countryName":"Taiwan","hotelRating":"4","latitude":"25.0683","longitude":"121.221","state_id":3419,"state_name":"Taoyuan","country_id":216},{"active":false,"Giataid":"183147","cityId":109031,"cityName":"Taipei","hotelId":183147,"hotelName":"Fortune Haiyatt","address":"No. 62 Sec.1 Chongqing North Road,Taipei City 103,Taiwan","phones":"+886225551122","fax":"+886225590720","email":"","url":"http://fortunehaiyatt.hotel.com.tw/eng/","countryIso2":"TW","countryName":"Taiwan","hotelRating":"4","latitude":"25.052","longitude":"121.514","state_id":3422,"state_name":"Taipei","country_id":216},{"active":false,"Giataid":"202159","cityId":109013,"cityName":"Hualien City","hotelId":202159,"hotelName":"Parkview","address":"1-1 Lin-Yuan,Hualien,Taiwan","phones":"+88638222111","fax":"+88638226999","email":"","url":"http://www.parkview-hotel.com/en/menu_e.asp","countryIso2":"TW","countryName":"Taiwan","hotelRating":"4","latitude":"24.0003","longitude":"121.628","state_id":3411,"state_name":"Hualien","country_id":216},{"active":false,"Giataid":"202387","cityId":109031,"cityName":"Taipei","hotelId":202387,"hotelName":"Hd Palace","address":"2F., No.100,Sec. 2,Anhe Rd.,Da-an District,Taipei,Taiwan","phones":"+886866227556599","fax":"+886866227005966","email":"hdpalace@xuite.net","url":"http://www.hdpalace.com.tw/en.php","countryIso2":"TW","countryName":"Taiwan","hotelRating":"4","latitude":"25.0285","longitude":"121.55","state_id":3422,"state_name":"Taipei","country_id":216},{"active":false,"Giataid":"202650","cityId":109035,"cityName":"Taoyuan","hotelId":202650,"hotelName":"Novotel Taipei Taoyuan International Airport","address":"1-1 Hangzhan South Road,Dayuan District,33758 Taoyuan City,Taiwan","phones":"+88633980888","fax":"+88633980999","email":"H6701-RE@ACCOR.COM","url":"http://www.novotel.com/gb/hotel-6701-novotel-taipei-taoyuan-international-airport/index.shtml","countryIso2":"TW","countryName":"Taiwan","hotelRating":"4","latitude":"25.0683","longitude":"121.221","state_id":3419,"state_name":"Taoyuan","country_id":216},{"active":false,"Giataid":"202651","cityId":109031,"cityName":"Taipei","hotelId":202651,"hotelName":"Eclat","address":"370,Sec 1,Dunhua S. Road,Da-An District,Taipei City,Taiwan","phones":"+886227848888","fax":"","email":"taipei@eclathotels.com","url":"http://www.eclathotels.com/taipei/","countryIso2":"TW","countryName":"Taiwan","hotelRating":"4","latitude":"25.0337","longitude":"121.548","state_id":3422,"state_name":"Taipei","country_id":216},{"active":false,"Giataid":"202655","cityId":109031,"cityName":"Taipei","hotelId":202655,"hotelName":"Royal Seasons Hotel - Hot Spring Beitou","address":"26 Zhongshan Road,Beitou,Taipei 112-43,Taiwan","phones":"+886225554288","fax":"+886228969797","email":"service@royalseasons.com","url":"http://www.taiwanseasonshotel.com/spring_en/news_list.php","countryIso2":"TW","countryName":"Taiwan","hotelRating":"4","latitude":"25.1377","longitude":"121.51","state_id":3422,"state_name":"Taipei","country_id":216},{"active":false,"Giataid":"218006","cityId":109030,"cityName":"Tainan","hotelId":218006,"hotelName":"Shangri-La's Far Eastern Plaza Hotel Tainan","address":"89 Section West,University Road,70146 Tainan,Taiwan","phones":"+88667028888","fax":"","email":"","url":"","countryIso2":"TW","countryName":"Taiwan","hotelRating":"5","latitude":"22.9966","longitude":"120.215","state_id":3421,"state_name":"Tainan","country_id":216},{"active":false,"Giataid":"227630","cityId":109031,"cityName":"Taipei","hotelId":227630,"hotelName":"Park Taipei","address":"10665 No.317,Sec. 1,Fu-Xing S. Rd,Taipei,Taiwan","phones":"+886255793888","fax":"+886255793889","email":"rsvn@parktaipei","url":"http://www.parktaipei.com","countryIso2":"TW","countryName":"Taiwan","hotelRating":"4","latitude":"25.0342","longitude":"121.544","state_id":3422,"state_name":"Taipei","country_id":216},{"active":false,"Giataid":"227865","cityId":109031,"cityName":"Taipei","hotelId":227865,"hotelName":"Orange - Linsen Taipei","address":"139 Linsen North Road,Zhongshan District,Taipei City 10454,Taiwan","phones":"+886225632688","fax":"+886225632777","email":"service-orangethree@fortehotels.com.tw","url":"http://www.forte-hotel.net/branch/index.asp","countryIso2":"TW","countryName":"Taiwan","hotelRating":"3","latitude":"25.0513","longitude":"121.525","state_id":3422,"state_name":"Taipei","country_id":216},{"active":false,"Giataid":"230575","cityId":109035,"cityName":"Taoyuan","hotelId":230575,"hotelName":"Monarch Plaza","address":"No. 300, Chuang Ching Road,Sec. 1,Taoyuan,Taiwan","phones":"+88633169900","fax":"+88633179000","email":"","url":"http://monarch-hotels.com.tw/en/index.php","countryIso2":"TW","countryName":"Taiwan","hotelRating":"5","latitude":"25.0246","longitude":"121.298","state_id":3419,"state_name":"Taoyuan","country_id":216},{"active":false,"Giataid":"232382","cityId":109009,"cityName":"Hengchun","hotelId":232382,"hotelName":"Kenting Chateau Beach Resort","address":"451 Kenting Road,94644 Hengchun Town,Pingtung County,Taiwan","phones":"+88688862222","fax":"","email":"mark@ktchateau.com.tw","url":"http://www.ktchateau.com.tw/kt/eng/index.html","countryIso2":"TW","countryName":"Taiwan","hotelRating":"4","latitude":"21.9634","longitude":"120.774","state_id":3405,"state_name":"Pingtung","country_id":216},{"active":false,"Giataid":"233733","cityId":109031,"cityName":"Taipei","hotelId":233733,"hotelName":"Les Suites Grandee Taipei","address":"102 Wenlin Road,Shilin District,Taipei 111,Taiwan","phones":"+886228805599","fax":"+886228805962","email":"","url":"http://grandee.hotel.com.tw/eng/","countryIso2":"TW","countryName":"Taiwan","hotelRating":"4","latitude":"25.088","longitude":"121.526","state_id":3422,"state_name":"Taipei","country_id":216},{"active":false,"Giataid":"233791","cityId":109031,"cityName":"Taipei","hotelId":233791,"hotelName":"Landis Resort","address":"Taiwan237 Ger-Zhi Road,Yangmingshan,Taipei 111,Taiwan,Taiwan","phones":"+886228616661","fax":"+886228613885","email":"rooms@landisresort.com.tw","url":"http://yangmingshan.landishotelsresorts.com/","countryIso2":"TW","countryName":"Taiwan","hotelRating":"4","latitude":"25.1433","longitude":"121.549","state_id":3422,"state_name":"Taipei","country_id":216},{"active":false,"Giataid":"233789","cityId":109016,"cityName":"Kaohsiung","hotelId":233789,"hotelName":"E-Da Royal Hotel","address":"Section 1,153 Xuecheng Road,Dashu Township,840 Kaohsiung,Taiwan","phones":"+88676568111","fax":"+88676568008","email":"","url":"http://www.ichotelsgroup.com/h/d/cp/1/en/hotel/KHHWK?hotelCode=KHHWK","countryIso2":"TW","countryName":"Taiwan","hotelRating":"5","latitude":"22.7297","longitude":"120.401","state_id":3412,"state_name":"Kaohsiung","country_id":216},{"active":false,"Giataid":"233793","cityId":109031,"cityName":"Taipei","hotelId":233793,"hotelName":"Taipei Easy Stay Inn SJ-293","address":"10F-1 No. 293 Songjiang Road,104 Taipei,Taiwan","phones":"+886225012891","fax":"+886225012893","email":"service@easystayinn.com","url":"http://www.easystayinn.com","countryIso2":"TW","countryName":"Taiwan","hotelRating":"3","latitude":"25.0604","longitude":"121.533","state_id":3422,"state_name":"Taipei","country_id":216},{"active":false,"Giataid":"233790","cityId":109028,"cityName":"Taichung","hotelId":233790,"hotelName":"Holiday Inn Express Taichung Park","address":"Section 2,94 Tze Yu Road,Taichung 400,Taiwan","phones":"+886435059898","fax":"+886435050598","email":"","url":"http://www.hiexpress.com/hotels/us/en/taichung/txgsr/hoteldetail","countryIso2":"TW","countryName":"Taiwan","hotelRating":"3","latitude":"24.1587","longitude":"120.663","state_id":3406,"state_name":"Taichung","country_id":216},{"active":false,"Giataid":"233792","cityId":109031,"cityName":"Taipei","hotelId":233792,"hotelName":"Roumei Boutique","address":"9 Lane 64,Section 2,Jianguo North Road,Jhongshan District,104 Taipei,Taiwan","phones":"+886225031133","fax":"+886225067973","email":"roumeihotel@yahoo.com.tw","url":"http://www.beautyhotels.com.tw/en-us/roumei_boutique.asp","countryIso2":"TW","countryName":"Taiwan","hotelRating":"4","latitude":"25.0544","longitude":"121.536","state_id":3422,"state_name":"Taipei","country_id":216},{"active":false,"Giataid":"233795","cityId":109035,"cityName":"Taoyuan","hotelId":233795,"hotelName":"Fullon Linkou","address":"No. 68 Wuner 1st St.,Gueishan Township,Taoyuan County,333 Taiwan,Taiwan","phones":"+88633279388","fax":"+88633279258","email":"","url":"http://linkou.fullon-hotels.com/","countryIso2":"TW","countryName":"Taiwan","hotelRating":"4","latitude":"25.0605","longitude":"121.363","state_id":3419,"state_name":"Taoyuan","country_id":216},{"active":false,"Giataid":"233886","cityId":109031,"cityName":"Taipei","hotelId":233886,"hotelName":"Ferrary","address":"41 Kangding Road,Taipei 108,Taiwan","phones":"+886223818111","fax":"+886223147055","email":"hwali.hotel@msa.hinet.net","url":"http://www.f-hotel.com.tw","countryIso2":"TW","countryName":"Taiwan","hotelRating":"3","latitude":"25.0416","longitude":"121.502","state_id":3422,"state_name":"Taipei","country_id":216},{"active":false,"Giataid":"233893","cityId":109031,"cityName":"Taipei","hotelId":233893,"hotelName":"Emperor","address":"118 Sec. 1,Nanjing East Road,Zhongshan District,Taipei City 104,Taiwan","phones":"+886225811111","fax":"","email":"","url":"","countryIso2":"TW","countryName":"Taiwan","hotelRating":"3","latitude":"25.0519","longitude":"121.527","state_id":3422,"state_name":"Taipei","country_id":216},{"active":false,"Giataid":"163008","cityId":109009,"cityName":"Hengchun","hotelId":234631,"hotelName":"Fullon Kending","address":"1000 Chuanfan Road,946 Hengchun,Pingtung,Taiwan","phones":"+88688856688","fax":"+88688856966","email":"","url":"http://fullon-kending.hotel.com.tw/eng/","countryIso2":"TW","countryName":"Taiwan","hotelRating":"4","latitude":"21.9371","longitude":"120.818","state_id":3405,"state_name":"Pingtung","country_id":216},{"active":false,"Giataid":"234632","cityId":109031,"cityName":"Taipei","hotelId":234632,"hotelName":"Fullon Hotel Taipei","address":"236 Sec. 3 Beishen Road,Shenkeng District,New Taipei City 222,Taiwan,Taiwan","phones":"+886226620088","fax":"+886226621669","email":"","url":"http://shenkeng.fullon-hotels.com/","countryIso2":"TW","countryName":"Taiwan","hotelRating":"4","latitude":"25.0042","longitude":"121.6","state_id":3422,"state_name":"Taipei","country_id":216},{"active":false,"Giataid":"234637","cityId":109035,"cityName":"Taoyuan","hotelId":234637,"hotelName":"Monarch Skyline","address":"No.108. Sec 1 Nankan Rd,Luzhu shiang,Taoyuan County 338,Taiwan","phones":"+88632121001","fax":"+88632121737","email":"","url":"http://www.skyline-hotels.com.tw/en/index.php","countryIso2":"TW","countryName":"Taiwan","hotelRating":"5","latitude":"25.0519","longitude":"121.288","state_id":3419,"state_name":"Taoyuan","country_id":216},{"active":false,"Giataid":"234638","cityId":109010,"cityName":"Hsinchu","hotelId":234638,"hotelName":"Sheraton Hsinchu","address":"No. 265, Dong Sec. 1,Guangming 6th Rd,Chupei 302,Landkreis Hsinchu,Taiwan","phones":"+88636206000","fax":"+88636206100","email":"gsc@sheraton-hsinchu.com","url":"http://www.starwoodhotels.com/sheraton/property/overview/index.html?propertyID=3116","countryIso2":"TW","countryName":"Taiwan","hotelRating":"4","latitude":"24.8291","longitude":"121.006","state_id":3423,"state_name":"Hsinchu","country_id":216},{"active":false,"Giataid":"234888","cityId":109028,"cityName":"Taichung","hotelId":234888,"hotelName":"Tempus Hotel Taichung","address":"689 Taiwan Boulevard,Section 2,Xitun District,407 Taichung City,Taiwan","phones":"+886423268008","fax":"+886423200106","email":"","url":"http://www.tempus.com.tw/english/english_index.html","countryIso2":"TW","countryName":"Taiwan","hotelRating":"5","latitude":"24.1588","longitude":"120.656","state_id":3406,"state_name":"Taichung","country_id":216},{"active":false,"Giataid":"236571","cityId":109031,"cityName":"Taipei","hotelId":236571,"hotelName":"Just Sleep Linsen","address":"3F, 117 LinSen North Road,Taipeh,Taiwan","phones":"+886225684567","fax":"+886225684507","email":"","url":"http://www.justsleep.com.tw/store_en02.php","countryIso2":"TW","countryName":"Taiwan","hotelRating":"3","latitude":"25.0507","longitude":"121.525","state_id":3422,"state_name":"Taipei","country_id":216},{"active":false,"Giataid":"236572","cityId":109031,"cityName":"Taipei","hotelId":236572,"hotelName":"Just Sleep Ximending","address":"41 Zhong Hua Road,Section 1,Taipei,Taiwan","phones":"+886223709000","fax":"+886223709969","email":"","url":"http://www.justsleep.com.tw/store_en01.php","countryIso2":"TW","countryName":"Taiwan","hotelRating":"3","latitude":"25.045","longitude":"121.509","state_id":3422,"state_name":"Taipei","country_id":216},{"active":false,"Giataid":"237719","cityId":null,"cityName":"Wujie","hotelId":237719,"hotelName":"Shangrila Boutique","address":"No.15 Lane 13,Siehe Central Rd,Wujie Township,Yilan County,Taiwan","phones":"+88639605388","fax":"+88639602266","email":"","url":"http://www.shang-rila.com.tw/ebout.php","countryIso2":"TW","countryName":"Taiwan","hotelRating":"4","latitude":"24.6769","longitude":"121.814","state_id":null,"state_name":null,"country_id":null},{"active":false,"Giataid":"237721","cityId":null,"cityName":"New Taipei City","hotelId":237721,"hotelName":"Fullon Fulong","address":"41 Fulong Street,Gongliao District,22841 New Taipei City,Taiwan","phones":"+886224991188","fax":"+886224991266","email":"fl@fullon-hotels.com.tw","url":"http://fulong.fullon-hotels.com","countryIso2":"TW","countryName":"Taiwan","hotelRating":"3","latitude":"25.0188","longitude":"121.943","state_id":null,"state_name":null,"country_id":null},{"active":false,"Giataid":"237722","cityId":109016,"cityName":"Kaohsiung","hotelId":237722,"hotelName":"Fullon Kaohsiung","address":"No.45 Wufu 4th Rd.,Yancheng Dist.,Kaohsiung City 803,Taiwan","phones":"+88675511188","fax":"+88675211166","email":"kh@fullon-hotels.com.tw","url":"http://kaohsiung.fullon-hotels.com","countryIso2":"TW","countryName":"Taiwan","hotelRating":"4","latitude":"22.6213","longitude":"120.288","state_id":3412,"state_name":"Kaohsiung","country_id":216},{"active":false,"Giataid":"237723","cityId":109013,"cityName":"Hualien City","hotelId":237723,"hotelName":"Fullon Hualien","address":"No.51 Minsheng Rd.,Hualien City,Hualien County 970,Taiwan","phones":"+88638239988","fax":"+88638230077","email":"hl@fullon-hotels.com.tw","url":"http://hualien.fullon-hotels.com.tw","countryIso2":"TW","countryName":"Taiwan","hotelRating":"4","latitude":"23.9955","longitude":"121.633","state_id":3411,"state_name":"Hualien","country_id":216},{"active":false,"Giataid":"237724","cityId":null,"cityName":"Wulai","hotelId":237724,"hotelName":"Wulai Pause Landis Resorts","address":"88 Section 5, Xinwu Road,Wulai District,23341 New Taipei City,Taiwan","phones":"+88622668000","fax":"+886226618080","email":"service@pauselandis.com.tw","url":"http://wulai.landishotelsresorts.com","countryIso2":"TW","countryName":"Taiwan","hotelRating":"4","latitude":"24.8717","longitude":"121.548","state_id":null,"state_name":null,"country_id":null},{"active":false,"Giataid":"237725","cityId":109031,"cityName":"Taipei","hotelId":237725,"hotelName":"Tango Taipei XinYi","address":"297 ZhongXiao East Road,Section 5,Taipei 110,Taiwan","phones":"+886225288000","fax":"+886225287676","email":"","url":"http://www.tango-hotels.com","countryIso2":"TW","countryName":"Taiwan","hotelRating":"4","latitude":"25.0411","longitude":"121.573","state_id":3422,"state_name":"Taipei","country_id":216},{"active":false,"Giataid":"238624","cityId":109028,"cityName":"Taichung","hotelId":238624,"hotelName":"Hotel National","address":"57 Guanqian Road,West District,40353 Taichung,Taiwan","phones":"+886423213111","fax":"+886423213124","email":"","url":"http://www.hotel-national.com.tw","countryIso2":"TW","countryName":"Taiwan","hotelRating":"4","latitude":"24.154","longitude":"120.664","state_id":3406,"state_name":"Taichung","country_id":216},{"active":false,"Giataid":"238626","cityId":null,"cityName":"Shoufeng","hotelId":238626,"hotelName":"Yiyuan Resort","address":"21 Lane 6 Section 3 Fengping Road,Shoufeng,Haulien Township,Taiwan","phones":"+886225785678","fax":"+886225773861","email":"main@yiyuanresort.com.tw","url":"http://www.yiyuanresort.com.tw/","countryIso2":"TW","countryName":"Taiwan","hotelRating":"4","latitude":"23.8402","longitude":"121.522","state_id":null,"state_name":null,"country_id":null},{"active":false,"Giataid":"238627","cityId":109030,"cityName":"Tainan","hotelId":238627,"hotelName":"Hotel Tainan","address":"1 Cheng Gong Road,West Central District,70050 Tainan,Taiwan","phones":"+88662289101","fax":"+88662268502","email":"hotel-tainan@hotel-tainan.com.tw","url":"http://www.hotel-tainan.com.tw","countryIso2":"TW","countryName":"Taiwan","hotelRating":"4","latitude":"23.1252","longitude":"120.262","state_id":3421,"state_name":"Tainan","country_id":216},{"active":false,"Giataid":"238629","cityId":109030,"cityName":"Tainan","hotelId":238629,"hotelName":"Premier Tainan","address":"128 Gong Yuan Rd.,Tainan City 70448,Taiwan","phones":"+88662252141","fax":"+88662286018","email":"premierhoteltaiwan@gmail.com","url":"http://www.premier.com.tw/default.htm","countryIso2":"TW","countryName":"Taiwan","hotelRating":"3","latitude":"23.0969","longitude":"120.284","state_id":3421,"state_name":"Tainan","country_id":216},{"active":false,"Giataid":"238720","cityId":109031,"cityName":"Taipei","hotelId":238720,"hotelName":"Golden Star","address":"No.9 Lane 72,Chung Shan North Road,Section 2,Taipei,Taiwan","phones":"","fax":"","email":"","url":"","countryIso2":"TW","countryName":"Taiwan","hotelRating":"3","latitude":"25.0569","longitude":"121.523","state_id":3422,"state_name":"Taipei","country_id":216},{"active":false,"Giataid":"238721","cityId":109031,"cityName":"Taipei","hotelId":238721,"hotelName":"Rido","address":"11 Xinyi Road,Section 3,Da-an District,Taipei City 10657,Taiwan","phones":"+886227065600","fax":"+886227009923","email":"rido2000@ms53.hinet.net","url":"http://www.rido.com.tw","countryIso2":"TW","countryName":"Taiwan","hotelRating":"3","latitude":"25.0337","longitude":"121.534","state_id":3422,"state_name":"Taipei","country_id":216},{"active":false,"Giataid":"238722","cityId":109031,"cityName":"Taipei","hotelId":238722,"hotelName":"Le Petit Sherwood","address":"370 Tun Hwa S. Rd.,Sec. 1,Taipei,Taiwan","phones":"+886227541166","fax":"","email":"","url":"http://www.anystarhotels.com/asia/taiwan/lepetitsherwood/","countryIso2":"TW","countryName":"Taiwan","hotelRating":"5","latitude":"25.0337","longitude":"121.549","state_id":3422,"state_name":"Taipei","country_id":216},{"active":false,"Giataid":"238725","cityId":109031,"cityName":"Taipei","hotelId":238725,"hotelName":"Palais De Chine","address":"No. 3 Section 1 Chengde Road,Datong District,Taipei City 10351,Taiwan","phones":"+886221819999","fax":"+886221819988","email":"palais@lhoteldechine.com","url":"http://www.palaisdechinehotel.com","countryIso2":"TW","countryName":"Taiwan","hotelRating":"5","latitude":"25.0494","longitude":"121.517","state_id":3422,"state_name":"Taipei","country_id":216},{"active":false,"Giataid":"238727","cityId":109031,"cityName":"Taipei","hotelId":238727,"hotelName":"Beautique","address":"No. 14 Lane 38, Tianyu St.,Shihlin Dist.,Taipei City 111,Taiwan","phones":"+886228730333","fax":"+886228730363","email":"beautiquehotel@gmail.com","url":"http://www.beautyhotels.com.tw/en-us/beautique.asp","countryIso2":"TW","countryName":"Taiwan","hotelRating":"4","latitude":"25.1202","longitude":"121.529","state_id":3422,"state_name":"Taipei","country_id":216},{"active":false,"Giataid":"238728","cityId":109035,"cityName":"Taoyuan","hotelId":238728,"hotelName":"Taoyuan Zai Yan Leader","address":"No. 39 Nanhua Street,Taoyuan City,Taiwan","phones":"+88633326191","fax":"+88633384445","email":"yeyan0529@yahoo.com.tw","url":"http://www.zai-yanleaderhotel.com.tw","countryIso2":"TW","countryName":"Taiwan","hotelRating":"3","latitude":"24.9898","longitude":"121.309","state_id":3419,"state_name":"Taoyuan","country_id":216},{"active":false,"Giataid":"238733","cityId":109031,"cityName":"Taipei","hotelId":238733,"hotelName":"Wonstar Ximen","address":"105 Xining South Road,Wanhua District,108 Taipei City,Taiwan","phones":"+886223711118","fax":"+886883223711955","email":"","url":"http://www.wonstar.com.tw/Ximen/tw/index.php","countryIso2":"TW","countryName":"Taiwan","hotelRating":"3","latitude":"25.0451","longitude":"121.507","state_id":3422,"state_name":"Taipei","country_id":216},{"active":false,"Giataid":"238738","cityId":null,"cityName":"Luodong","hotelId":238738,"hotelName":"Landis Inn Lotung","address":"511 Gong-Jeng Road,Lotung,Ilan County 265,Taiwan","phones":"+88639613799","fax":"+88639613800","email":"landislo@ms45.hinet.net","url":"http://lotung.landishotelsresorts.com","countryIso2":"TW","countryName":"Taiwan","hotelRating":"3","latitude":"24.6796","longitude":"121.757","state_id":null,"state_name":null,"country_id":null},{"active":false,"Giataid":"238739","cityId":null,"cityName":"Jiaoxi","hotelId":238739,"hotelName":"Art Spa","address":"6 Deyang Road,Jiaosi Township,Yilan County 262,Taiwan","phones":"+88639882011","fax":"+88639883838","email":"","url":"http://artspa.hotel.com.tw","countryIso2":"TW","countryName":"Taiwan","hotelRating":"3","latitude":"24.8274","longitude":"121.773","state_id":null,"state_name":null,"country_id":null},{"active":false,"Giataid":"238966","cityId":109031,"cityName":"Taipei","hotelId":238966,"hotelName":"W Taipei","address":"10 Zhongxiao East Road,Section 5,Xinyi District,Taipeh 110,Taiwan","phones":"+886277038888","fax":"+886277038899","email":"reservations.taipei@whotels.com","url":"http://www.starwoodhotels.com/whotels/property/overview/index.html?propertyID=3573","countryIso2":"TW","countryName":"Taiwan","hotelRating":"5","latitude":"25.0408","longitude":"121.566","state_id":3422,"state_name":"Taipei","country_id":216},{"active":false,"Giataid":"238965","cityId":109031,"cityName":"Taipei","hotelId":238965,"hotelName":"The Metro","address":"24, D?Hu? Street, Lane 170,Taipei,Taiwan","phones":"","fax":"","email":"","url":"","countryIso2":"TW","countryName":"Taiwan","hotelRating":"3","latitude":"25.0651","longitude":"121.532","state_id":3422,"state_name":"Taipei","country_id":216},{"active":false,"Giataid":"240197","cityId":109031,"cityName":"Taipei","hotelId":240197,"hotelName":"At Boutique Hotel","address":"Xinyi Road 468,Sec 3F,Taipeh,Taiwan","phones":"+886223459777","fax":"+886227203000","email":"","url":"http://de.hotels.com/ho360476/at-boutique-hotel-taipeh-taiwan/#description","countryIso2":"TW","countryName":"Taiwan","hotelRating":"3","latitude":"25.0328","longitude":"121.559","state_id":3422,"state_name":"Taipei","country_id":216},{"active":false,"Giataid":"240670","cityId":109028,"cityName":"Taichung","hotelId":240670,"hotelName":"Hung's Mansion","address":"593 Section 3 Taiwan Boulevard,407 Taichung,Taiwan","phones":"+886422556688","fax":"+886422522522","email":"","url":"http://www.hungsmansion.com/en/homepage.htm","countryIso2":"TW","countryName":"Taiwan","hotelRating":"4","latitude":"24.1698","longitude":"120.637","state_id":3406,"state_name":"Taichung","country_id":216},{"active":false,"Giataid":"240673","cityId":109031,"cityName":"Taipei","hotelId":240673,"hotelName":"Quote Taipei","address":"No.333 Nan-Jing E. Road, Sec. 3,Songshan Dist.,Taipei City 105,Taiwan","phones":"+886221755588","fax":"+886221755599","email":"servicecenter@hotel-quote.com","url":"http://www.hotel-quote.com/index.php/html/welcome/index/en-us","countryIso2":"TW","countryName":"Taiwan","hotelRating":"4","latitude":"25.052","longitude":"121.547","state_id":3422,"state_name":"Taipei","country_id":216},{"active":false,"Giataid":"240677","cityId":109031,"cityName":"Taipei","hotelId":240677,"hotelName":"Home Hotel","address":"90 SongRen Road,XinYi District,Taipei 110,Taiwan","phones":"+886287890111","fax":"+886287890222","email":"reservation@homehotel.com.tw","url":"http://www.homehotel.com.tw/","countryIso2":"TW","countryName":"Taiwan","hotelRating":"4","latitude":"25.035","longitude":"121.568","state_id":3422,"state_name":"Taipei","country_id":216},{"active":false,"Giataid":"240679","cityId":109031,"cityName":"Taipei","hotelId":240679,"hotelName":"Sense","address":"No.477 Linsen N.Rd.,Jhongshan District,Taipei City 104,Taiwan","phones":"+886277431000","fax":"+886277431100","email":"info@hotelsense.com.tw","url":"http://www.hotelsense.com.tw/enweb/main.html","countryIso2":"TW","countryName":"Taiwan","hotelRating":"4","latitude":"25.0609","longitude":"121.526","state_id":3422,"state_name":"Taipei","country_id":216},{"active":false,"Giataid":"240680","cityId":109031,"cityName":"Taipei","hotelId":240680,"hotelName":"Landmark Inn","address":"3F,103 Zhonghua Road,Section 1,242 New Taipei City,Xinzhuang District,Taiwan","phones":"+886222776599","fax":"+886222776509","email":"info@landmarkhotel.com.tw","url":"http://www.landmarkhotel.com.tw/english.htm","countryIso2":"TW","countryName":"Taiwan","hotelRating":"3","latitude":"25.0438","longitude":"121.453","state_id":3422,"state_name":"Taipei","country_id":216},{"active":false,"Giataid":"241752","cityId":109031,"cityName":"Taipei","hotelId":241752,"hotelName":"Hotel June","address":"No.1 Alley 34, Lane 123,Section 6,Minquan East Road,Taipei City  11490,Neihu District,Taiwan","phones":"+886227915678","fax":"+886227962313","email":"","url":"http://fushin.hotel.com.tw/eng/","countryIso2":"TW","countryName":"Taiwan","hotelRating":"4","latitude":"25.0704","longitude":"121.593","state_id":3422,"state_name":"Taipei","country_id":216},{"active":false,"Giataid":"241754","cityId":109031,"cityName":"Taipei","hotelId":241754,"hotelName":"Hotel 73","address":"73 Section 2 Xinyi Road,Zhongzheng District,Taipei City,Taiwan","phones":"+886223959009","fax":"+886223415757","email":"service@hotel73.com","url":"http://www.hotel73.com","countryIso2":"TW","countryName":"Taiwan","hotelRating":"3","latitude":"25.0346","longitude":"121.526","state_id":3422,"state_name":"Taipei","country_id":216},{"active":false,"Giataid":"241755","cityId":109031,"cityName":"Taipei","hotelId":241755,"hotelName":"Dandy (Daan Branch)","address":"33 Section 3 Xinyi Road,Daan District,106 Taipei City,Taiwan","phones":"+886227076899","fax":"+886227065777","email":"service.da@dandyhotel.com.tw","url":"http://www.dandyhotel.com.tw/EN/DandyD/","countryIso2":"TW","countryName":"Taiwan","hotelRating":"3","latitude":"25.034","longitude":"121.535","state_id":3422,"state_name":"Taipei","country_id":216},{"active":false,"Giataid":"241756","cityId":109031,"cityName":"Taipei","hotelId":241756,"hotelName":"CityInn Hotel Taipei Station Branch II","address":"81 Changan West Road,Datong District,Taipei City 103,Taiwan","phones":"+886225555577","fax":"+886225552877","email":"service2@cityinn.com.tw","url":"http://www.cityinn.com.tw/EN/Cityinn2/","countryIso2":"TW","countryName":"Taiwan","hotelRating":"3","latitude":"25.0511","longitude":"121.517","state_id":3422,"state_name":"Taipei","country_id":216},{"active":false,"Giataid":"243967","cityId":109028,"cityName":"Taichung","hotelId":243967,"hotelName":"Huang Shin Business Hotel","address":"No. 552 Section 3 Taiwan Boulevard,Xitun District,Taichung City,Taiwan","phones":"+886427053568","fax":"+886427015136","email":"","url":"http://huangshin.hotel.com.tw/eng/","countryIso2":"TW","countryName":"Taiwan","hotelRating":"4","latitude":"24.1685","longitude":"120.64","state_id":3406,"state_name":"Taichung","country_id":216},{"active":false,"Giataid":"243972","cityId":109028,"cityName":"Taichung","hotelId":243972,"hotelName":"Beacon","address":"7-9F-427 Fu Hsing Road,Taichung City,Taiwan","phones":"+886424515828","fax":"+886435045205","email":"","url":"http://www.beacon-hotel.com.tw/www/","countryIso2":"TW","countryName":"Taiwan","hotelRating":"3","latitude":"24.1799","longitude":"120.645","state_id":3406,"state_name":"Taichung","country_id":216},{"active":false,"Giataid":"243979","cityId":null,"cityName":"Guanxi, Hsinchu","hotelId":243979,"hotelName":"Leofoo Resort Guanshi","address":"60, Gungtzgou,Renan Li,Guanshi,Hsinchu 30648,Taiwan","phones":"+886277017765","fax":"+886277017255","email":"reservationlrg@hotmail.com","url":"http://www.leofooresort.com.tw/lrg/en_aboutus.html","countryIso2":"TW","countryName":"Taiwan","hotelRating":"4","latitude":"24.8188","longitude":"121.186","state_id":null,"state_name":null,"country_id":null},{"active":false,"Giataid":"243983","cityId":null,"cityName":"Checheng","hotelId":243983,"hotelName":"Bouti X Hotel Kenting","address":"6-5 Haikou Road,Haikou Village,Checheng,Pingtung,Taiwan","phones":"+88688825765","fax":"+886277017255","email":"","url":"http://www.leofooresort.com.tw/lrk/html_en/page02_en.htm","countryIso2":"TW","countryName":"Taiwan","hotelRating":"5","latitude":"22.0897","longitude":"120.717","state_id":null,"state_name":null,"country_id":null},{"active":false,"Giataid":"243990","cityId":109031,"cityName":"Taipei","hotelId":243990,"hotelName":"Taipei International Hotel","address":"66 Nan-King East road,Section 1,Taipei 104,Taiwan","phones":"+886225627569","fax":"+886225318376","email":"hotel_tp@yahoo.com.tw","url":"http://www.htl.tw/enintrudced.htm","countryIso2":"TW","countryName":"Taiwan","hotelRating":"4","latitude":"25.0519","longitude":"121.525","state_id":3422,"state_name":"Taipei","country_id":216},{"active":false,"Giataid":"243996","cityId":109031,"cityName":"Taipei","hotelId":243996,"hotelName":"Tokyo International","address":"39 Chang Chun Road,Taipei 104,Taiwan","phones":"+886225643733","fax":"+886225637992","email":"tokyo.hotels@msa.hinet.net","url":"http://www.tokyohotel.com.tw/about_en.php","countryIso2":"TW","countryName":"Taiwan","hotelRating":"3","latitude":"25.055","longitude":"121.526","state_id":3422,"state_name":"Taipei","country_id":216},{"active":false,"Giataid":"244000","cityId":109031,"cityName":"Taipei","hotelId":244000,"hotelName":"Fu-Hau","address":"9 Sec. 2 Fuhsing S. Road,Taipei,Taiwan","phones":"+886223250722","fax":"+886227028630","email":"fuhauhotel@gmail.com","url":"http://www.fuhauhotel.com.tw/start.htm","countryIso2":"TW","countryName":"Taiwan","hotelRating":"3","latitude":"25.0328","longitude":"121.544","state_id":3422,"state_name":"Taipei","country_id":216},{"active":false,"Giataid":"244004","cityId":109031,"cityName":"Taipei","hotelId":244004,"hotelName":"Master Inn Taipei","address":"209, Section 1,Sh?m?n Blvd,Datong District,Taipeh,Taiwan","phones":"88 6 2-2559-6777","fax":"88 6 2-2558-2511","email":"inn@master1995.com.tw","url":"http://www.master2011.com.tw","countryIso2":"TW","countryName":"Taiwan","hotelRating":"3","latitude":"25.0489","longitude":"121.518","state_id":3422,"state_name":"Taipei","country_id":216},{"active":false,"Giataid":"244003","cityId":109031,"cityName":"Taipei","hotelId":244003,"hotelName":"New Continental","address":"Chongqing North Road,Taipei,Taiwan","phones":"+886225505799","fax":"+886225503369","email":"nc.hotel@msa.hinet.net","url":"http://www.nc-hotel.com.tw/index.php","countryIso2":"TW","countryName":"Taiwan","hotelRating":"3","latitude":"25.0522","longitude":"121.514","state_id":3422,"state_name":"Taipei","country_id":216},{"active":false,"Giataid":"244005","cityId":109031,"cityName":"Taipei","hotelId":244005,"hotelName":"Cityinn Hotel Taipei Station Branch I","address":"7 Huaining Street,Zhongzheng District,100 Taipeh,Taiwan","phones":"+886223148008","fax":"+886223313311","email":"service@cityinn.com.tw","url":"http://www.cityinn.com.tw/EN/Cityinn1/index.aspx?lan=en-US","countryIso2":"TW","countryName":"Taiwan","hotelRating":"3","latitude":"25.0463","longitude":"121.514","state_id":3422,"state_name":"Taipei","country_id":216},{"active":false,"Giataid":"244006","cityId":109031,"cityName":"Taipei","hotelId":244006,"hotelName":"CityInn Hotel Taipei Station Branch III","address":"77 Changan West Road,Datong District,103 Taipei City,Taiwan","phones":"+886277327777","fax":"+886277320077","email":"service3@cityinn.com.tw","url":"http://www.cityinn.com.tw/EN/Cityinn3/index.aspx?lan=en-US","countryIso2":"TW","countryName":"Taiwan","hotelRating":"3","latitude":"25.0511","longitude":"121.517","state_id":3422,"state_name":"Taipei","country_id":216},{"active":false,"Giataid":"244011","cityId":109031,"cityName":"Taipei","hotelId":244011,"hotelName":"Dandy (Tianmu Branch)","address":"No 2 Zhongshan N Rd,Shilin District,Taipei City 111,Taiwan","phones":"+886228732222","fax":"+886228772277","email":"service.tm@dandyhotel.com.tw","url":"http://www.dandyhotel.com.tw/EN/DandyTM/index.aspx?lan=de-de","countryIso2":"TW","countryName":"Taiwan","hotelRating":"3","latitude":"25.1149","longitude":"121.528","state_id":3422,"state_name":"Taipei","country_id":216},{"active":false,"Giataid":"244012","cityId":109031,"cityName":"Taipei","hotelId":244012,"hotelName":"Dandy (Tianjin Branch)","address":"No 70 Tianjin St,Zhongshan District,Taipei City 104,Taiwan","phones":"+886225415788","fax":"+886225413737","email":"service.tj@dandyhotel.com.tw","url":"http://www.dandyhotel.com.tw/EN/DandyT/index.aspx?lan=de-de","countryIso2":"TW","countryName":"Taiwan","hotelRating":"3","latitude":"25.0516","longitude":"121.523","state_id":3422,"state_name":"Taipei","country_id":216},{"active":false,"Giataid":"244016","cityId":109031,"cityName":"Taipei","hotelId":244016,"hotelName":"FX Hotel Taipei Nanjing East Road","address":"131 Nanjing East Road Sec. 3,Taipei 104,Taiwan","phones":"","fax":"","email":"","url":"","countryIso2":"TW","countryName":"Taiwan","hotelRating":"4","latitude":"25.0521","longitude":"121.541","state_id":3422,"state_name":"Taipei","country_id":216},{"active":false,"Giataid":"244340","cityId":109031,"cityName":"Taipei","hotelId":244340,"hotelName":"New California","address":"No. 1 Section 1 BeiXin Road,XinDian,New Taipei City,Taiwan","phones":"+886866229161717","fax":"+886866229122323","email":"newca.hotel@msa.hinet.net","url":"http://www.new-california.com.tw","countryIso2":"TW","countryName":"Taiwan","hotelRating":"3","latitude":"24.9592","longitude":"121.537","state_id":3422,"state_name":"Taipei","country_id":216},{"active":false,"Giataid":"244341","cityId":109028,"cityName":"Taichung","hotelId":244341,"hotelName":"Charming City","address":"50 Liuyang East,Beitun,Taichung,Taiwan","phones":"","fax":"","email":"service@city-hotel.com.tw","url":"http://www.tripadvisor.de/Hotel_Review-g297910-d2017285-Reviews-Charming_City_Hotel_Taichung-Taichung.html","countryIso2":"TW","countryName":"Taiwan","hotelRating":"3","latitude":"24.172","longitude":"120.691","state_id":3406,"state_name":"Taichung","country_id":216},{"active":false,"Giataid":"244342","cityId":109031,"cityName":"Taipei","hotelId":244342,"hotelName":"Ximen Relite Hotel","address":"21 Section 1,Zhonghua Road,Zhongzheng District,100 Taipei City,Taiwan","phones":"+886223111440","fax":"+886223110444","email":"lilaihotel@hotmail.com","url":"http://lilaihotel.emmm.tw/","countryIso2":"TW","countryName":"Taiwan","hotelRating":"3","latitude":"25.0464","longitude":"121.51","state_id":3422,"state_name":"Taipei","country_id":216},{"active":false,"Giataid":"244345","cityId":109031,"cityName":"Taipei","hotelId":244345,"hotelName":"Green World Inn (lin Sen)","address":"No.617 Linsen N. Road,Zhongshan Dist.,Taipei City 104,Taiwan","phones":"+886225955225","fax":"+886225951100","email":"rockyhoteltw@gmail.com","url":"http://www.rockyhotel.com.tw/","countryIso2":"TW","countryName":"Taiwan","hotelRating":"3","latitude":"25.0668","longitude":"121.526","state_id":3422,"state_name":"Taipei","country_id":216},{"active":false,"Giataid":"244343","cityId":109031,"cityName":"Taipei","hotelId":244343,"hotelName":"Capital Hotel Taipei","address":"No. 7 Chien Kuo North Road Section 2,Zhongshan District,104 Taipei City,Taiwan","phones":"+886225075577","fax":"+886225077890","email":"capital@capital-hotel.com.tw","url":"http://www.capital-hotel.com.tw","countryIso2":"TW","countryName":"Taiwan","hotelRating":"4","latitude":"25.0527","longitude":"121.537","state_id":3422,"state_name":"Taipei","country_id":216},{"active":false,"Giataid":"244344","cityId":109031,"cityName":"Taipei","hotelId":244344,"hotelName":"Charming City Hotel","address":"295, Section 4, Xinyi Road,Daan District,Taipei City,Taiwan","phones":"+886227049546","fax":"+886227076468","email":"Hotel_C@hotmail.com","url":"http://www.city-hotel.com.tw/bussiness/b1/b1-en.htm#about","countryIso2":"TW","countryName":"Taiwan","hotelRating":"3","latitude":"25.0334","longitude":"121.555","state_id":3422,"state_name":"Taipei","country_id":216},{"active":false,"Giataid":"244346","cityId":109031,"cityName":"Taipei","hotelId":244346,"hotelName":"Le Meridien Taipei","address":"38 SongRen Road,Xinyi,Taipeh 110,Taiwan","phones":"+886266228000","fax":"+886266368000","email":"lemeridien.taipei@lemeridien.com","url":"http://www.starwoodhotels.com/lemeridien/property/overview/index.html?propertyID=3385","countryIso2":"TW","countryName":"Taiwan","hotelRating":"5","latitude":"25.0378","longitude":"121.568","state_id":3422,"state_name":"Taipei","country_id":216},{"active":false,"Giataid":"244347","cityId":109031,"cityName":"Taipei","hotelId":244347,"hotelName":"Han She Business","address":"4th-10th floors No.68 Chengdou Road,Ximending,Taipei City,Taiwan","phones":"+886223718812","fax":"+886281926112","email":"hansomehotel@kimo.com","url":"http://www.hansomehotel.com.tw","countryIso2":"TW","countryName":"Taiwan","hotelRating":"3","latitude":"25.0428","longitude":"121.506","state_id":3422,"state_name":"Taipei","country_id":216},{"active":false,"Giataid":"244348","cityId":null,"cityName":"Ilan","hotelId":244348,"hotelName":"Silks Place Yilan","address":"36, Minquan Rd., Sec. 2,Yilan City,Taipei,Taiwan","phones":"+88639351000","fax":"+88639354000","email":"rsvn@silksplace-yilan.com.tw","url":"http://www.silksplace-yilan.com.tw/en/index.html","countryIso2":"TW","countryName":"Taiwan","hotelRating":"5","latitude":"24.7566","longitude":"121.747","state_id":null,"state_name":null,"country_id":null},{"active":false,"Giataid":"245888","cityId":109031,"cityName":"Taipei","hotelId":245888,"hotelName":"Indigo Taipei Xinyi","address":"No. 88, Section 4, Xin Yi Road,Da'an,Taipei,Taiwan","phones":"+886227576099","fax":"+886227576678","email":"JohnLee@elem.com.tw","url":"http://www.ichotelsgroup.com/hotelindigo/hotels/us/en/taipei/tpein/hoteldetail?rpb=hotel","countryIso2":"TW","countryName":"Taiwan","hotelRating":"3","latitude":"25.0331","longitude":"121.548","state_id":3422,"state_name":"Taipei","country_id":216},{"active":false,"Giataid":"246410","cityId":109028,"cityName":"Taichung","hotelId":246410,"hotelName":"In One City Inn","address":"31 Lane 138,Taichung 40724,Taiwan","phones":"+886436028088","fax":"+886436061088","email":"reservation@inone.com.tw","url":"http://www.inone.com.tw","countryIso2":"TW","countryName":"Taiwan","hotelRating":"4","latitude":"24.183","longitude":"120.647","state_id":3406,"state_name":"Taichung","country_id":216},{"active":false,"Giataid":"246411","cityId":109031,"cityName":"Taipei","hotelId":246411,"hotelName":"Wish Hotel","address":"No.17-3, Lane 77 Sec.2 JhongShan North Road,Taipei City 104,Taiwan","phones":"+886225633369","fax":"+886225677898","email":"wishotel@gmail.com","url":"http://www.wishotel.com.tw","countryIso2":"TW","countryName":"Taiwan","hotelRating":"3","latitude":"25.0576","longitude":"121.524","state_id":3422,"state_name":"Taipei","country_id":216},{"active":false,"Giataid":"246412","cityId":109031,"cityName":"Taipei","hotelId":246412,"hotelName":"Mrt Taipei","address":"No.9 Fuzhong Road,Bangiao,Banciao 220,Taiwan","phones":"","fax":"","email":"","url":"","countryIso2":"TW","countryName":"Taiwan","hotelRating":"3","latitude":"25.0095","longitude":"121.46","state_id":3422,"state_name":"Taipei","country_id":216},{"active":false,"Giataid":"246413","cityId":109016,"cityName":"Kaohsiung","hotelId":246413,"hotelName":"Legend Kaohsiung","address":"No.55 Xinsheng 1st Street,Qianjin District,Kaohsiung City 801,Taiwan","phones":"+88672877766","fax":"+88672865653","email":"","url":"http://legend-hotel.hotel.com.tw/eng/","countryIso2":"TW","countryName":"Taiwan","hotelRating":"3","latitude":"22.6318","longitude":"120.296","state_id":3412,"state_name":"Kaohsiung","country_id":216},{"active":false,"Giataid":"246414","cityId":109031,"cityName":"Taipei","hotelId":246414,"hotelName":"Forward Taipei","address":"No.3, Yijiang Street,Jhongshan,Taipei 104,Taiwan","phones":"+886225118896","fax":"+886225118897","email":"service@fwhotel.tw","url":"http://www.imvr.net/hotel/fwhotelsj/index.php","countryIso2":"TW","countryName":"Taiwan","hotelRating":"3","latitude":"25.0507","longitude":"121.532","state_id":3422,"state_name":"Taipei","country_id":216},{"active":false,"Giataid":"246415","cityId":109031,"cityName":"Taipei","hotelId":246415,"hotelName":"Forward Nangang Branch","address":"No.23,Sanchong Road,Nangang District,Taipei City 11560,Taiwan","phones":"+886266156788","fax":"+886266156799","email":"forwardhotel@gmail.com","url":"http://fw.tfhg.com.tw/about_en.php","countryIso2":"TW","countryName":"Taiwan","hotelRating":"3","latitude":"25.0592","longitude":"121.614","state_id":3422,"state_name":"Taipei","country_id":216},