[{"active":false,"Giataid":"40837","cityId":null,"cityName":"Ilulissat","hotelId":40837,"hotelName":"Arctic","address":"Postboks 1501,3952 Ilulissat,Greenland","phones":"+299944153","fax":"+299944049","email":"info@hotel-arctic.gl","url":"http://www.hotel-arctic.gl","countryIso2":"GL","countryName":"Greenland","hotelRating":"4","latitude":"69.2274","longitude":"-51.094","state_id":null,"state_name":null,"country_id":null},{"active":false,"Giataid":"40838","cityId":null,"cityName":"Ilulissat","hotelId":40838,"hotelName":"Cab Inn","address":"3952 Ilulissat,Greenland","phones":"","fax":"","email":"","url":"","countryIso2":"GL","countryName":"Greenland","hotelRating":"2","latitude":"69.2211","longitude":"-51.1036","state_id":null,"state_name":null,"country_id":null},{"active":false,"Giataid":"131546","cityId":null,"cityName":"Kangerlussuaq","hotelId":131546,"hotelName":"Umimmak","address":"","phones":"","fax":"","email":"","url":"","countryIso2":"GL","countryName":"Greenland","hotelRating":"2","latitude":"67.0088","longitude":"-50.6895","state_id":null,"state_name":null,"country_id":null},{"active":false,"Giataid":"441455","cityId":null,"cityName":"Ilulissat","hotelId":441455,"hotelName":"Nordlys","address":"","phones":"","fax":"","email":"","url":"","countryIso2":"GL","countryName":"Greenland","hotelRating":"1","latitude":"69.339","longitude":"-50.9819","state_id":null,"state_name":null,"country_id":null},{"active":false,"Giataid":"448964","cityId":null,"cityName":"Nuuk","hotelId":448964,"hotelName":"Hotel Hans Egede","address":"Aqqusinersuaq 1, 3900 Nuuk,Greenland","phones":"","fax":"","email":"","url":"","countryIso2":"GL","countryName":"Greenland","hotelRating":"4","latitude":"64.1752","longitude":"-51.7355","state_id":null,"state_name":null,"country_id":null},{"active":false,"Giataid":"450639","cityId":null,"cityName":"Sisimiut","hotelId":450639,"hotelName":"Sisimiut Somandshjem","address":"Frederik d. IX's Plads 5,3911 Sisimiut,Postbox 1015,Greenland","phones":"+299864150","fax":"+299865791","email":"sisimiut(at)soemandshjem.gl","url":"http://www.soemandshjem.gl/kontakt/","countryIso2":"GL","countryName":"Greenland","hotelRating":"3","latitude":"66.9384","longitude":"-53.674","state_id":null,"state_name":null,"country_id":null},{"active":false,"Giataid":"453519","cityId":null,"cityName":"Narsaq","hotelId":453519,"hotelName":"Hotel Narsaq","address":"Alangunguup Saqqaa B-819,3921 Narsaq,Greenland","phones":"+299661290","fax":"+299661890","email":"info@hotelnarsaq.gl","url":"http://www.hotel-narsaq.gl","countryIso2":"GL","countryName":"Greenland","hotelRating":"1","latitude":"60.912","longitude":"-46.0454","state_id":null,"state_name":null,"country_id":null},{"active":false,"Giataid":"563061","cityId":null,"cityName":"Ittoqqortoormiit","hotelId":563061,"hotelName":"Ittoqqormoormiit Guesthouse","address":"B 230,3980 Ittoqqortoormiit,Sermersooq,Greenland","phones":"+299991018","fax":"","email":"nanu@nanu-travel.com","url":"http://www.greenland.com/en/providers/ittoqqortoormiit-guesthouse/","countryIso2":"GL","countryName":"Greenland","hotelRating":"1","latitude":"70.4856","longitude":"-21.9629","state_id":null,"state_name":null,"country_id":null},{"active":false,"Giataid":"563066","cityId":5041,"cityName":"Dundas","hotelId":563066,"hotelName":"Hotel Qaanaaq","address":"Postbox 88,3971 Qaanaaq,Greenland","phones":"+299971234","fax":"+299971064","email":"hotelqaanaaq@greennet.gl","url":"http://www.hotelqaanaaq.dk/hotele.html","countryIso2":"GL","countryName":"Greenland","hotelRating":"1","latitude":"76.4357","longitude":"-43.916","state_id":3906,"state_name":"Western Australia","country_id":14},{"active":false,"Giataid":"580995","cityId":null,"cityName":"Nuuk","hotelId":580995,"hotelName":"Hotel Nordbo","address":"Vandsoevej 13,3900 Nuuk,Greenland","phones":"+299326644","fax":"+299326600","email":"info@nordbo.gl","url":"http://www.hotelnordbo.gl","countryIso2":"GL","countryName":"Greenland","hotelRating":"1","latitude":"64.1792","longitude":"-51.73","state_id":null,"state_name":null,"country_id":null},{"active":false,"Giataid":"581001","cityId":null,"cityName":"Nuuk","hotelId":581001,"hotelName":"Hotel Sydbo","address":"","phones":"","fax":"","email":"","url":"","countryIso2":"GL","countryName":"Greenland","hotelRating":"1","latitude":"64.1752","longitude":"-51.73","state_id":null,"state_name":null,"country_id":null},{"active":false,"Giataid":"581015","cityId":null,"cityName":"Qasigiannguit","hotelId":581015,"hotelName":"Hotel Diskobay","address":"Margrethevej 34,3951 Qasigiannguit,Greenland","phones":"+299911081","fax":"","email":"info@hoteldiskobay.com","url":"http://www.hoteldiskobay.com/","countryIso2":"GL","countryName":"Greenland","hotelRating":"1","latitude":"68.822","longitude":"-51.1823","state_id":null,"state_name":null,"country_id":null},{"active":false,"Giataid":"581031","cityId":null,"cityName":"Paamiut","hotelId":581031,"hotelName":"Hotel Ivaana","address":"Illoqarfiup qeqqa B-580,P.O. Box  304,3940 Paamiut,Greenland","phones":"+299681575","fax":"+299681191","email":"amto@greennet.gl","url":"http://www.hotel-ivaana.gl/","countryIso2":"GL","countryName":"Greenland","hotelRating":"1","latitude":"61.9943","longitude":"-49.6623","state_id":null,"state_name":null,"country_id":null},{"active":false,"Giataid":"581038","cityId":null,"cityName":"Qeqertarsuaq","hotelId":581038,"hotelName":"Hotel Disko","address":"P.O. Box 503,3953 Qeqertarsuaq,Greenland","phones":"+299921628","fax":"+299921578","email":"info@lyngmark.gl","url":"http://www.lyngmark.gl/en/contact","countryIso2":"GL","countryName":"Greenland","hotelRating":"1","latitude":"69.2446","longitude":"-53.5427","state_id":null,"state_name":null,"country_id":null},{"active":false,"Giataid":"581042","cityId":null,"cityName":"Sisimiut","hotelId":581042,"hotelName":"Seamen S Home Sisimiut","address":"3911 Sisimiut,Greenland","phones":"+299864150","fax":"+299865791","email":"sisimiut@soemandshjem.gl","url":"http://www.soemandshjem.gl/de/hotel-sisimiut","countryIso2":"GL","countryName":"Greenland","hotelRating":"1","latitude":"66.9387","longitude":"-53.6738","state_id":null,"state_name":null,"country_id":null},{"active":false,"Giataid":"581045","cityId":null,"cityName":"Sisimiut","hotelId":581045,"hotelName":"Hotel Sisimiut","address":"Aqqusinersuaq 86,Box 70,3911 Sisimiut,Greenland","phones":"+299864840","fax":"","email":"Mail@hotelsisimiut.gl","url":"http://hotelsisimiut.com","countryIso2":"GL","countryName":"Greenland","hotelRating":"3","latitude":"66.9394","longitude":"-53.6423","state_id":null,"state_name":null,"country_id":null},{"active":false,"Giataid":"581049","cityId":null,"cityName":"Qaqortoq","hotelId":581049,"hotelName":"Hotel Qaqortoq","address":"Anders Olsens Vej B1254,P.O. Box 509,3920 Qaqortoq,Greenland","phones":"+299642282","fax":"+299641234","email":"mail@hotel-qaqortoq.gl","url":"http://www.hotel-qaqortoq.gl/","countryIso2":"GL","countryName":"Greenland","hotelRating":"1","latitude":"0","longitude":"0","state_id":null,"state_name":null,"country_id":null},{"active":false,"Giataid":"581055","cityId":null,"cityName":"Maniitsoq","hotelId":581055,"hotelName":"Hotel Heilmann Lyberth","address":"Ivissuit 3,P.O. Box 140,3912 Maniitsoq,Greenland","phones":"+299813535","fax":"","email":"hhl@hhl.gl","url":"http://www.hhl.gl","countryIso2":"GL","countryName":"Greenland","hotelRating":"1","latitude":"65.4077","longitude":"-52.9006","state_id":null,"state_name":null,"country_id":null},{"active":false,"Giataid":"581061","cityId":null,"cityName":"Nanortalik","hotelId":581061,"hotelName":"Hotel Kap Farvel","address":"Isua B304,P.O. Box 140,3922 Nanortalik,Greenland","phones":"+299613294","fax":"","email":"kapfarvel@greennet.gl","url":"http://www.kapfarvel.gl/","countryIso2":"GL","countryName":"Greenland","hotelRating":"1","latitude":"60.1432","longitude":"-45.2418","state_id":null,"state_name":null,"country_id":null},{"active":false,"Giataid":"581132","cityId":null,"cityName":"Nuuk","hotelId":581132,"hotelName":"Hotel Somandshjemmet","address":"Marinevej 3,PO Box 1021,3900 Nuuk,Greenland","phones":"+299321029","fax":"","email":"nuuk@soemandshjem.gl","url":"http://www.soemandshjem.gl/en/hotel-nuuk","countryIso2":"GL","countryName":"Greenland","hotelRating":"1","latitude":"64.1689","longitude":"-51.7258","state_id":null,"state_name":null,"country_id":null},{"active":false,"Giataid":"651311","cityId":null,"cityName":"Narsaq","hotelId":651311,"hotelName":"Igdlo Guesthouse","address":"Qimmersalik B-45,3921 Narsaq,Greenland","phones":"","fax":"","email":"","url":"","countryIso2":"GL","countryName":"Greenland","hotelRating":"1","latitude":"60.9101","longitude":"-46.0404","state_id":null,"state_name":null,"country_id":null},{"active":false,"Giataid":"670194","cityId":null,"cityName":"Nuuk","hotelId":670194,"hotelName":"Vandrehuset","address":"Sipisaq Kujalleq 3A,3900 Nuuk,Greenland","phones":"+299551155","fax":"","email":"vh@greennet.gl","url":"http://www.vandrehuset.com","countryIso2":"GL","countryName":"Greenland","hotelRating":"1","latitude":"64.167","longitude":"-51.7309","state_id":null,"state_name":null,"country_id":null},{"active":false,"Giataid":"736886","cityId":null,"cityName":"Nuuk","hotelId":736886,"hotelName":"Greenland Escape Accommodation, Nuuk","address":"Manngua 20,Nuuk 3905,Greenland","phones":"+299581402","fax":"","email":"connect@greenland-escape.com","url":"https://www.greenland-escape.com/accommodation","countryIso2":"GL","countryName":"Greenland","hotelRating":"1","latitude":"64.1752","longitude":"-51.73","state_id":null,"state_name":null,"country_id":null},{"active":false,"Giataid":"783282","cityId":null,"cityName":"Ilulissat","hotelId":783282,"hotelName":"Blue Trail Guesthouse","address":"Qoororsuup Aqquserna,PO Box 500,3952 Ilulissat,Greenland","phones":"","fax":"","email":"","url":"","countryIso2":"GL","countryName":"Greenland","hotelRating":"1","latitude":"69.2211","longitude":"-51.1036","state_id":null,"state_name":null,"country_id":null},{"active":false,"Giataid":"791405","cityId":null,"cityName":"Kulusuk","hotelId":791405,"hotelName":"Kulusuk Hostel","address":"B-939,3915 Kulusuk,Greenland","phones":"","fax":"","email":"","url":"","countryIso2":"GL","countryName":"Greenland","hotelRating":"1","latitude":"65.5697","longitude":"-37.1648","state_id":null,"state_name":null,"country_id":null},{"active":false,"Giataid":"461292","cityId":null,"cityName":"Ammassalik","hotelId":20001831,"hotelName":"The Red House","address":"Napparngummut B 1025,3913 Tasiilaq,Ostgr?nland,Greenland","phones":"+299981650","fax":"+299981024","email":"office@tuning-greenland.com","url":"http://www.the-red-house.com","countryIso2":"GL","countryName":"Greenland","hotelRating":"0","latitude":"65.6103","longitude":"-37.6244","state_id":null,"state_name":null,"country_id":null},{"active":false,"Giataid":"40839","cityId":null,"cityName":"Ilulissat","hotelId":20002591,"hotelName":"Ice Fjord","address":"Box 458,3952 Ilulissat,Greenland","phones":"+299944480","fax":"+299944095","email":"booking@hotelicefiord.gl","url":"http://www.hotelicefiord.gl/","countryIso2":"GL","countryName":"Greenland","hotelRating":"3","latitude":"69.2171","longitude":"-51.1227","state_id":null,"state_name":null,"country_id":null},{"active":false,"Giataid":"80743","cityId":null,"cityName":"Ilulissat","hotelId":20002840,"hotelName":"IceCap Hostel","address":"Amaasa Fly-p Aqqutaa 3,P.O. Box 120,3952 Ilulissat,Greenland","phones":"+299945958","fax":"","email":"Diskobayhouse@greennet.gl","url":"http://www.diskobayhouse.gl/index.html","countryIso2":"GL","countryName":"Greenland","hotelRating":"0","latitude":"69.2167","longitude":"-51.1163","state_id":null,"state_name":null,"country_id":null},{"active":false,"Giataid":"36729","cityId":null,"cityName":"Kulusuk","hotelId":20003028,"hotelName":"Kulusuk","address":"B1500,3915 Kulusuk,Greenland","phones":"","fax":"","email":"","url":"","countryIso2":"GL","countryName":"Greenland","hotelRating":"3","latitude":"65.5686","longitude":"-37.1838","state_id":null,"state_name":null,"country_id":null},{"active":false,"Giataid":"242886","cityId":null,"cityName":"Ilulissat","hotelId":20004196,"hotelName":"Avannaa","address":"Nuussuataap Aqq. 2,P.O. Box 142,3950 Ilulissat,Greenland","phones":"+299944002","fax":"","email":"info@hotelavannaa.gl","url":"http://www.hotelavannaa.gl/?lang=en","countryIso2":"GL","countryName":"Greenland","hotelRating":"3","latitude":"69.2264","longitude":"-51.0887","state_id":null,"state_name":null,"country_id":null},{"active":false,"Giataid":"581027","cityId":null,"cityName":"Aasiaat","hotelId":20004377,"hotelName":"Hotel Seamen's Home Aasiaat","address":"P.O. Box 216,3950 Aasiaat,Greenland","phones":"+299892711","fax":"","email":"aasiaat@soemandshjem.gl","url":"http://www.soemandshjem.gl/de/hotel-aasiaat","countryIso2":"GL","countryName":"Greenland","hotelRating":"0","latitude":"68.7065","longitude":"-52.8789","state_id":null,"state_name":null,"country_id":null},{"active":false,"Giataid":"36730","cityId":null,"cityName":"Narsarsuaq","hotelId":20005653,"hotelName":"Hotel Narsarsuaq","address":"PO Box 504,3923 Narsarsuaq,Greenland","phones":"+299665253","fax":"","email":"receptionnars@mit.gl","url":"https://www.hotelnarsarsuaq.gl/","countryIso2":"GL","countryName":"Greenland","hotelRating":"2","latitude":"61.1568","longitude":"-45.4221","state_id":null,"state_name":null,"country_id":null},{"active":false,"Giataid":"40840","cityId":null,"cityName":"Kangerlussuaq","hotelId":20006021,"hotelName":"Kangerlussuaq","address":"P.O. Box 1006,3910 Kangerlussuaq,Greenland","phones":"+299841180","fax":"+299841284","email":"kangbook@glv.gl","url":"http://www.airporthotels.gl/Kangerlussuaq/english/index.htm","countryIso2":"GL","countryName":"Greenland","hotelRating":"3","latitude":"67.0199","longitude":"-50.6914","state_id":null,"state_name":null,"country_id":null},{"active":false,"Giataid":"40841","cityId":null,"cityName":"Kangerlussuaq","hotelId":20006186,"hotelName":"Old Camp","address":"Box 1009,3910 Kangerlussuaq,Greenland","phones":"+299841648","fax":"","email":"","url":"","countryIso2":"GL","countryName":"Greenland","hotelRating":"2","latitude":"67.011","longitude":"-50.7336","state_id":null,"state_name":null,"country_id":null},{"active":false,"Giataid":"62556","cityId":null,"cityName":"Ilulissat","hotelId":20006538,"hotelName":"Hvide Falk","address":"P.O. Box 20,3952 Ilulissat,Greenland","phones":"+299943343","fax":"+299943508","email":"","url":"http://www.hotelhvidefalk.gl/","countryIso2":"GL","countryName":"Greenland","hotelRating":"3","latitude":"69.2209","longitude":"-51.1056","state_id":null,"state_name":null,"country_id":null},{"active":false,"Giataid":"239033","cityId":null,"cityName":"Kangerlussuaq","hotelId":20006716,"hotelName":"Polar Lodge","address":"Mitaarfiit Aqq,postbox 1009,3910 Kangerlussuaq,Greenland","phones":"","fax":"","email":"","url":"","countryIso2":"GL","countryName":"Greenland","hotelRating":"1","latitude":"67.0088","longitude":"-50.6895","state_id":null,"state_name":null,"country_id":null},{"active":false,"Giataid":"298257","cityId":null,"cityName":"Ilulissat","hotelId":20006887,"hotelName":"Glacier Lodge Eqi","address":"Kussangajaannguaq 7,Ilulissat 3952,Greenland","phones":"","fax":"","email":"","url":"","countryIso2":"GL","countryName":"Greenland","hotelRating":"1","latitude":"69.22","longitude":"-51.0986","state_id":null,"state_name":null,"country_id":null}]