[{"active":false,"Giataid":"151720","cityId":null,"cityName":"Addis Abeba","hotelId":151720,"hotelName":"Harmony Hotel","address":"Bole Medhanialem,P.O. Box 16139,Addis Abeba,Ethiopia","phones":"+251116183100","fax":"+251116183010","email":"info@harmonyhotelethiopia.com","url":"http://www.harmonyhotelethiopia.com","countryIso2":"ET","countryName":"Ethiopia","hotelRating":"4","latitude":"8.99607","longitude":"38.7862","state_id":null,"state_name":null,"country_id":null},{"active":false,"Giataid":"188312","cityId":null,"cityName":"Addis Abeba","hotelId":188312,"hotelName":"Ararat","address":"Yeka Subcity,Lamberet Area,Addis Ababa,Ethiopia","phones":"+251116461166","fax":"+251116461177","email":"info@ararathotelethiopia.com","url":"http://ararathotelethiopia.com","countryIso2":"ET","countryName":"Ethiopia","hotelRating":"3","latitude":"9.02523","longitude":"38.819","state_id":null,"state_name":null,"country_id":null},{"active":false,"Giataid":"188308","cityId":null,"cityName":"Addis Abeba","hotelId":188308,"hotelName":"Agge Guesthouse","address":"Rounda Embassy Road,Bole Rwanda,Behind Japan Embassy,Addis Ababa,Ethiopia","phones":"","fax":"","email":"","url":"","countryIso2":"ET","countryName":"Ethiopia","hotelRating":"1","latitude":"9.0043","longitude":"38.7763","state_id":null,"state_name":null,"country_id":null},{"active":false,"Giataid":"188313","cityId":null,"cityName":"Addis Abeba","hotelId":188313,"hotelName":"Dag Millenium","address":"","phones":"","fax":"","email":"","url":"","countryIso2":"ET","countryName":"Ethiopia","hotelRating":"1","latitude":"9.0043","longitude":"38.7763","state_id":null,"state_name":null,"country_id":null},{"active":false,"Giataid":"188314","cityId":null,"cityName":"Addis Abeba","hotelId":188314,"hotelName":"Hotel De Leopol","address":"Kirkos,Addis Ababa,?thiopien,Ethiopia","phones":"","fax":"","email":"","url":"","countryIso2":"ET","countryName":"Ethiopia","hotelRating":"4","latitude":"9.00954","longitude":"38.7728","state_id":null,"state_name":null,"country_id":null},{"active":false,"Giataid":"188316","cityId":null,"cityName":"Addis Abeba","hotelId":188316,"hotelName":"Extreme","address":"","phones":"","fax":"","email":"","url":"","countryIso2":"ET","countryName":"Ethiopia","hotelRating":"2","latitude":"9.02787","longitude":"38.7484","state_id":null,"state_name":null,"country_id":null},{"active":false,"Giataid":"188317","cityId":null,"cityName":"Addis Abeba","hotelId":188317,"hotelName":"Lalibela","address":"","phones":"","fax":"","email":"","url":"","countryIso2":"ET","countryName":"Ethiopia","hotelRating":"3","latitude":"9.0043","longitude":"38.7763","state_id":null,"state_name":null,"country_id":null},{"active":false,"Giataid":"188319","cityId":null,"cityName":"Addis Abeba","hotelId":188319,"hotelName":"National Hotel","address":"Menilik II Avenue,Opposite of St. Stefanos Church, Meskel Square,P.O.Box 100052,Addis Abeba,Ethiopia","phones":"+25115515166","fax":"","email":"","url":"","countryIso2":"ET","countryName":"Ethiopia","hotelRating":"3","latitude":"9.01287","longitude":"38.7625","state_id":null,"state_name":null,"country_id":null},{"active":false,"Giataid":"188320","cityId":null,"cityName":"Addis Abeba","hotelId":188320,"hotelName":"Panorama","address":"Haile G Selassie Street,Bole subcity Kebele 07 House No 003,Addis Ababa,Ethiopia","phones":"+251116616070","fax":"","email":"","url":"","countryIso2":"ET","countryName":"Ethiopia","hotelRating":"3","latitude":"9.01758","longitude":"38.7961","state_id":null,"state_name":null,"country_id":null},{"active":false,"Giataid":"188321","cityId":null,"cityName":"Addis Abeba","hotelId":188321,"hotelName":"Ras Hotel","address":"Gambia Street,Between Ethiopian National Theater and Legahar Railway Station,Addis Abeba,Ethiopia","phones":"+251115517060","fax":"","email":"","url":"","countryIso2":"ET","countryName":"Ethiopia","hotelRating":"1","latitude":"9.0043","longitude":"38.7763","state_id":null,"state_name":null,"country_id":null},{"active":false,"Giataid":"201978","cityId":null,"cityName":"Addis Abeba","hotelId":201978,"hotelName":"Dreamliner Hotel","address":"Gabon Street,Meskel Flower Area,Addis Ababa,Ethiopia","phones":"+251114674000","fax":"","email":"","url":"","countryIso2":"ET","countryName":"Ethiopia","hotelRating":"4","latitude":"8.99509","longitude":"38.767","state_id":null,"state_name":null,"country_id":null},{"active":false,"Giataid":"228223","cityId":null,"cityName":"Debre Zeyit","hotelId":228223,"hotelName":"Kuriftu Resort & Spa","address":"Kiroftu Lake,Bishoftu,Debre Zeyit,Ethiopia","phones":"","fax":"","email":"","url":"","countryIso2":"ET","countryName":"Ethiopia","hotelRating":"4","latitude":"8.74657","longitude":"38.9757","state_id":null,"state_name":null,"country_id":null},{"active":false,"Giataid":"292734","cityId":null,"cityName":"Addis Abeba","hotelId":292734,"hotelName":"Churchill Addis Ababa Hotel","address":"","phones":"","fax":"","email":"","url":"","countryIso2":"ET","countryName":"Ethiopia","hotelRating":"4","latitude":"9.02569","longitude":"38.752","state_id":null,"state_name":null,"country_id":null},{"active":false,"Giataid":"322487","cityId":null,"cityName":"Addis Abeba","hotelId":322487,"hotelName":"Addis Guest House","address":"","phones":"","fax":"","email":"","url":"","countryIso2":"ET","countryName":"Ethiopia","hotelRating":"1","latitude":"9.0043","longitude":"38.7763","state_id":null,"state_name":null,"country_id":null},{"active":false,"Giataid":"380160","cityId":null,"cityName":"Addis Abeba","hotelId":380160,"hotelName":"Edna Addis","address":"Aware Road ","phones":"","fax":"","email":"","url":"","countryIso2":"ET","countryName":"Ethiopia","hotelRating":"3","latitude":"9.02416","longitude":"38.7765","state_id":null,"state_name":null,"country_id":null},{"active":false,"Giataid":"380161","cityId":null,"cityName":"Debre Zeyit","hotelId":380161,"hotelName":"The Babogaya Lake Viewpoint Lodge","address":"Babogaya Lake Kebele 15,Debre Zeit,Bishoftu,4000 Debre Zeyit,Ethiopia","phones":"","fax":"","email":"","url":"","countryIso2":"ET","countryName":"Ethiopia","hotelRating":"3","latitude":"8.78294","longitude":"38.997","state_id":null,"state_name":null,"country_id":null},{"active":false,"Giataid":"380162","cityId":null,"cityName":"Addis Abeba","hotelId":380162,"hotelName":"Babogaya Resort","address":"P.O. Box 1231,Debre Zeyit,Ethiopia","phones":"","fax":"","email":"","url":"","countryIso2":"ET","countryName":"Ethiopia","hotelRating":"1","latitude":"9.0043","longitude":"38.7763","state_id":null,"state_name":null,"country_id":null},{"active":false,"Giataid":"380162","cityId":null,"cityName":"Debre Zeyit","hotelId":380162,"hotelName":"Babogaya Resort","address":"P.O. Box 1231,Debre Zeyit,Ethiopia","phones":"","fax":"","email":"","url":"","countryIso2":"ET","countryName":"Ethiopia","hotelRating":"1","latitude":"9.0043","longitude":"38.7763","state_id":null,"state_name":null,"country_id":null},{"active":false,"Giataid":"431638","cityId":null,"cityName":"Addis Abeba","hotelId":431638,"hotelName":"MN International Hotel","address":"","phones":"","fax":"","email":"","url":"","countryIso2":"ET","countryName":"Ethiopia","hotelRating":"1","latitude":"9.0043","longitude":"38.7763","state_id":null,"state_name":null,"country_id":null},{"active":false,"Giataid":"434715","cityId":38597,"cityName":"Axum","hotelId":434715,"hotelName":"Sabean Internationl Hotel","address":"Axum,Addis Ababa,Ethiopia","phones":"+2511116612630","fax":"+2511116622920","email":"info@sabeanhotel.com","url":"http://sabeanhotel.com","countryIso2":"ET","countryName":"Ethiopia","hotelRating":"1","latitude":"14.1208","longitude":"38.7393","state_id":4,"state_name":"Tigray Region","country_id":70},{"active":false,"Giataid":"434716","cityId":38597,"cityName":"Axum","hotelId":434716,"hotelName":"Exodus Hotel Aksum","address":"NULL","phones":"","fax":"","email":"","url":"","countryIso2":"ET","countryName":"Ethiopia","hotelRating":"1","latitude":"14.1292","longitude":"38.7336","state_id":4,"state_name":"Tigray Region","country_id":70},{"active":false,"Giataid":"434720","cityId":38597,"cityName":"Axum","hotelId":434720,"hotelName":"Kaleb Hotel Axsum","address":"Ezana Square,Aksum,Ethiopia","phones":"","fax":"","email":"","url":"http://kalebhotelaxum.jimdo.com","countryIso2":"ET","countryName":"Ethiopia","hotelRating":"1","latitude":"14.134","longitude":"38.7473","state_id":4,"state_name":"Tigray Region","country_id":70},{"active":false,"Giataid":"463237","cityId":null,"cityName":"Debre Marqos","hotelId":463237,"hotelName":"Gozamen Hotel","address":"Negus Tekle-Haymanot Square,Debre Mark'os,Ethiopia","phones":"","fax":"","email":"","url":"","countryIso2":"ET","countryName":"Ethiopia","hotelRating":"1","latitude":"10.3296","longitude":"37.7344","state_id":null,"state_name":null,"country_id":null},{"active":false,"Giataid":"463706","cityId":null,"cityName":"Addis Abeba","hotelId":463706,"hotelName":"Zola International Hotel","address":"Building 1013,Subcity Bole Woreda 05,Addis Ababa,Ethiopia","phones":"","fax":"","email":"","url":"","countryIso2":"ET","countryName":"Ethiopia","hotelRating":"1","latitude":"9.00294","longitude":"38.7994","state_id":null,"state_name":null,"country_id":null},{"active":false,"Giataid":"463847","cityId":null,"cityName":"Addis Abeba","hotelId":463847,"hotelName":"Meridian Hotel","address":"","phones":"","fax":"","email":"","url":"","countryIso2":"ET","countryName":"Ethiopia","hotelRating":"1","latitude":"9.00858","longitude":"38.7641","state_id":null,"state_name":null,"country_id":null},{"active":false,"Giataid":"463909","cityId":null,"cityName":"Addis Abeba","hotelId":463909,"hotelName":"Haikan Hotel","address":"","phones":"","fax":"","email":"","url":"","countryIso2":"ET","countryName":"Ethiopia","hotelRating":"1","latitude":"9.03355","longitude":"38.7469","state_id":null,"state_name":null,"country_id":null},{"active":false,"Giataid":"463951","cityId":null,"cityName":"Addis Abeba","hotelId":463951,"hotelName":"The Lion's Den Hotel","address":"Kirkos Kefle Ketema Keble 01/19,House 028,1234 Addis Ababa,Ethiopia","phones":"+25111554773436","fax":"","email":"","url":"","countryIso2":"ET","countryName":"Ethiopia","hotelRating":"3","latitude":"9.0082","longitude":"38.7684","state_id":null,"state_name":null,"country_id":null},{"active":false,"Giataid":"511012","cityId":null,"cityName":"Addis Abeba","hotelId":511012,"hotelName":"Afarensis International Hotel","address":"Bole,Kebele 08/09,House 74,P.O Box 3307,Addis Abeba,Ethiopia","phones":"+251116629700","fax":"+251116629700","email":"reservation@hotelafarensis.com","url":"http://www.hotelafarensis.com/","countryIso2":"ET","countryName":"Ethiopia","hotelRating":"3","latitude":"9.0043","longitude":"38.7763","state_id":null,"state_name":null,"country_id":null},{"active":false,"Giataid":"511836","cityId":null,"cityName":"Debre Zeyit","hotelId":511836,"hotelName":"Dreamland Hotel and Resort","address":"Lake Bishoftu,PO Box 1435,Debre Zeyit,Ethiopia","phones":"+251114371520","fax":"+251114371523","email":"info@ethiodreamland.com","url":"http://www.ethiodreamland.com","countryIso2":"ET","countryName":"Ethiopia","hotelRating":"3","latitude":"8.74586","longitude":"38.9865","state_id":null,"state_name":null,"country_id":null},{"active":false,"Giataid":"531149","cityId":null,"cityName":"Rira","hotelId":531149,"hotelName":"Bale Mountain Lodge","address":"Bale Mountains National Park 1107,PO Box 110766,Addis Ababa,Ethiopia","phones":"+251912790802","fax":"","email":"info@balemountainlodge.com","url":"http://www.balemountainlodge.com","countryIso2":"ET","countryName":"Ethiopia","hotelRating":"1","latitude":"6.88582","longitude":"39.7343","state_id":null,"state_name":null,"country_id":null},{"active":false,"Giataid":"538423","cityId":null,"cityName":"Addis Abeba","hotelId":538423,"hotelName":"Embilta Hotel","address":"Addis Ababa,Ethiopia","phones":"+251112758787","fax":"","email":"info@embilta-hotel.com","url":"http://www.embilta-hotel.com/","countryIso2":"ET","countryName":"Ethiopia","hotelRating":"4","latitude":"8.98196","longitude":"38.7575","state_id":null,"state_name":null,"country_id":null},{"active":false,"Giataid":"544029","cityId":38671,"cityName":"Lalibela","hotelId":544029,"hotelName":"Mountain View Hotel","address":"Kebele 01,North Wollo,Lalibela,Ethiopia","phones":"+251333360804","fax":"+251333361103","email":"info@mountainview-hotel.com","url":"http://www.mountainview-hotel.com/contactus.html","countryIso2":"ET","countryName":"Ethiopia","hotelRating":"2","latitude":"12.0425","longitude":"39.0385","state_id":3,"state_name":"Amhara Region","country_id":70},{"active":false,"Giataid":"499598","cityId":null,"cityName":"Addis Abeba","hotelId":588976,"hotelName":"The Arck Hotel","address":"Bob Marley Square,Road to Hayahulet,Bole sub city Woreda 05,Addis Abeba,Ethiopia","phones":"+251116181600","fax":"+251116183199","email":"contact@the-arckhotel.com","url":"http://www.the-arckhotel.com/","countryIso2":"ET","countryName":"Ethiopia","hotelRating":"0","latitude":"9.0024","longitude":"38.8","state_id":null,"state_name":null,"country_id":null},{"active":false,"Giataid":"615719","cityId":null,"cityName":"Addis Abeba","hotelId":615719,"hotelName":"Ras Amba Hotel","address":"Elisabet Street,Addis Ababa,Ethiopia","phones":"+251111228080","fax":"+251111233221","email":"rahot@ethionet.et","url":"http://hotelrasamba.com","countryIso2":"ET","countryName":"Ethiopia","hotelRating":"1","latitude":"9.03169","longitude":"38.7711","state_id":null,"state_name":null,"country_id":null},{"active":false,"Giataid":"615788","cityId":null,"cityName":"Addis Abeba","hotelId":615788,"hotelName":"Atlas International Hotel","address":"Namibia,Addis Ababa,Ethiopia","phones":"+251116187432","fax":"","email":"info@atlasinternationalhotel.com","url":"http://atlasinternationalhotel.com/","countryIso2":"ET","countryName":"Ethiopia","hotelRating":"1","latitude":"9.00095","longitude":"38.7833","state_id":null,"state_name":null,"country_id":null},{"active":false,"Giataid":"615825","cityId":null,"cityName":"Addis Abeba","hotelId":615825,"hotelName":"Solish International Hotel","address":"Liberia Street,Addis Ababa,Ethiopia","phones":"+251115572441","fax":"+251115572426","email":"Info@solishinthotel.com","url":"http://www.solishinthotel.com","countryIso2":"ET","countryName":"Ethiopia","hotelRating":"3","latitude":"9.01303","longitude":"38.7387","state_id":null,"state_name":null,"country_id":null},{"active":false,"Giataid":"615844","cityId":null,"cityName":"Addis Abeba","hotelId":615844,"hotelName":"Masters International Hotel","address":"Nefas Silk Lafto,Addis Ababa,Ethiopia","phones":"","fax":"","email":"","url":"","countryIso2":"ET","countryName":"Ethiopia","hotelRating":"1","latitude":"9.0043","longitude":"38.7763","state_id":null,"state_name":null,"country_id":null},{"active":false,"Giataid":"615902","cityId":null,"cityName":"Addis Abeba","hotelId":615902,"hotelName":"Natna Hotel","address":"Djibouti Street,Laftu,Addis Ababa,Ethiopia","phones":"","fax":"","email":"","url":"","countryIso2":"ET","countryName":"Ethiopia","hotelRating":"1","latitude":"8.93124","longitude":"38.7673","state_id":null,"state_name":null,"country_id":null},{"active":false,"Giataid":"615974","cityId":null,"cityName":"Kitime","hotelId":615974,"hotelName":"Adams Hotel","address":"Debrezeit road,Kitime,Ethiopia","phones":"","fax":"","email":"","url":"","countryIso2":"ET","countryName":"Ethiopia","hotelRating":"1","latitude":"8.95727","longitude":"38.8211","state_id":null,"state_name":null,"country_id":null},{"active":false,"Giataid":"615993","cityId":38671,"cityName":"Lalibela","hotelId":615993,"hotelName":"Lalibela Hotel","address":"Geterge Street,Kebelle 02,Lalibela,Ethiopia","phones":"","fax":"","email":"","url":"","countryIso2":"ET","countryName":"Ethiopia","hotelRating":"1","latitude":"12.0278","longitude":"39.0413","state_id":3,"state_name":"Amhara Region","country_id":70},{"active":false,"Giataid":"616000","cityId":null,"cityName":"Addis Abeba","hotelId":616000,"hotelName":"Yoly Addis Hotel","address":"P.O. Box 5668,Mickey Leland Street,Addis Ababa,Ethiopia","phones":"+251116632828","fax":"+251116632823","email":"","url":"http://yolyhotel.com/","countryIso2":"ET","countryName":"Ethiopia","hotelRating":"1","latitude":"9.0043","longitude":"38.7763","state_id":null,"state_name":null,"country_id":null},{"active":false,"Giataid":"616008","cityId":null,"cityName":"Addis Abeba","hotelId":616008,"hotelName":"Fasil International Hotel","address":"Gulele Sub City,Woreda 8 H.No.210,Addis Ababa,Ethiopia","phones":"","fax":"","email":"","url":"http://www.fasilhotel.com/index.html","countryIso2":"ET","countryName":"Ethiopia","hotelRating":"1","latitude":"9.0703","longitude":"38.7366","state_id":null,"state_name":null,"country_id":null},{"active":false,"Giataid":"616015","cityId":38598,"cityName":"Bahir Dar","hotelId":616015,"hotelName":"Homland Hotel","address":"NULL","phones":"+251582220220","fax":"+251582220209","email":"info@homlandhotelbahirdar.com","url":"http://homlandhotelbahirdar.com/","countryIso2":"ET","countryName":"Ethiopia","hotelRating":"1","latitude":"11.5991","longitude":"37.3648","state_id":3,"state_name":"Amhara Region","country_id":70},{"active":false,"Giataid":"616217","cityId":null,"cityName":"Debre Zeyit","hotelId":616217,"hotelName":"Asham Africa Hotel","address":"Bishoftu, Kebele 07","phones":"+251114370710","fax":"","email":"","url":"","countryIso2":"ET","countryName":"Ethiopia","hotelRating":"1","latitude":"8.7457","longitude":"38.9868","state_id":null,"state_name":null,"country_id":null},{"active":false,"Giataid":"667686","cityId":null,"cityName":"Hamer (Woreda)","hotelId":667686,"hotelName":"Buska Lodge","address":"Turmi Kebele,Hamer (Woreda),Turmi,Southern Region,Ethiopia","phones":"+251468991178","fax":"","email":"info@buskalodge.com","url":"http://www.buskalodge.com","countryIso2":"ET","countryName":"Ethiopia","hotelRating":"1","latitude":"0","longitude":"0","state_id":null,"state_name":null,"country_id":null},{"active":false,"Giataid":"667690","cityId":38662,"cityName":"Jinka","hotelId":667690,"hotelName":"Eco Omo Lodge","address":"750 km from Addis Ababa,Jinka,Debub (South) Omo,Southern Nations, Nationalities, and Peoples' Region,Ethiopia","phones":"+251118612040","fax":"","email":"info@eco-omo.com","url":"http://www.eco-omo.com","countryIso2":"ET","countryName":"Ethiopia","hotelRating":"1","latitude":"0","longitude":"0","state_id":1,"state_name":"Southern Nations, Nationalities, and Peoples' Region","country_id":70},{"active":false,"Giataid":"667694","cityId":null,"cityName":"Hawzen","hotelId":667694,"hotelName":"Gheralta Lodge","address":"G1,Hawzen,Misraqawi,Tigray,Ethiopia","phones":"+251116632893","fax":"","email":"info@gheraltalodgetigrai.com","url":"http://www.gheraltalodgetigrai.com","countryIso2":"ET","countryName":"Ethiopia","hotelRating":"1","latitude":"0","longitude":"0","state_id":null,"state_name":null,"country_id":null},{"active":false,"Giataid":"667708","cityId":38650,"cityName":"Harar","hotelId":667708,"hotelName":"Heritage Plaza Hotel","address":"P. O. Box 423,Harar,East Hararghe Zone,Harari,Ethiopia","phones":"+251256665137","fax":"","email":"info@plazahotelharar.com","url":"http://www.plazahotelharar.com","countryIso2":"ET","countryName":"Ethiopia","hotelRating":"1","latitude":"0","longitude":"0","state_id":7,"state_name":"Harari Region","country_id":70},{"active":false,"Giataid":"667712","cityId":38676,"cityName":"Mek'ele","hotelId":667712,"hotelName":"Planet International Hotel","address":"1595 Mek'ele,Debubawi (Southern),Tigray,Ethiopia","phones":"+251344405660","fax":"","email":"reservation@planetinternationalhotel.com","url":"http://www.planetinternationalhotel.com","countryIso2":"ET","countryName":"Ethiopia","hotelRating":"1","latitude":"13.4871","longitude":"39.4687","state_id":4,"state_name":"Tigray Region","country_id":70},{"active":false,"Giataid":"667748","cityId":null,"cityName":"Addis Abeba","hotelId":667748,"hotelName":"Bishangari Lodge","address":"","phones":"","fax":"","email":"","url":"","countryIso2":"ET","countryName":"Ethiopia","hotelRating":"1","latitude":"9.0043","longitude":"38.7763","state_id":null,"state_name":null,"country_id":null},{"active":false,"Giataid":"670256","cityId":null,"cityName":"Addis Abeba","hotelId":670256,"hotelName":"Blue Birds International Hotel","address":"Haile Gebereselase Avenue 22,close to Bole International Airport and ECA Conference Center,Addis Ababa,Ethiopia","phones":"+251116785439","fax":"+251113586974","email":"info@bluebirdshotel.com","url":"http://www.bluebirdshotel.com/","countryIso2":"ET","countryName":"Ethiopia","hotelRating":"3","latitude":"9.02236","longitude":"38.7639","state_id":null,"state_name":null,"country_id":null},{"active":false,"Giataid":"724033","cityId":null,"cityName":"Addis Abeba","hotelId":724033,"hotelName":"Kersay Hotel","address":"Ethio China Street,Wollo Sefer,28746 Addis Ababa,Ethiopia,Ethiopia","phones":"+251920331738","fax":"","email":"info@kersayhotel.com","url":"http://www.kersayhotel.com","countryIso2":"ET","countryName":"Ethiopia","hotelRating":"3","latitude":"8.9923","longitude":"38.7734","state_id":null,"state_name":null,"country_id":null},{"active":false,"Giataid":"724335","cityId":38676,"cityName":"Mek'ele","hotelId":724335,"hotelName":"Atse Yohannes Hotel","address":"14 Selam Street,Mek'ele 1961,Ethiopia","phones":"","fax":"","email":"","url":"","countryIso2":"ET","countryName":"Ethiopia","hotelRating":"1","latitude":"13.4946","longitude":"39.4747","state_id":4,"state_name":"Tigray Region","country_id":70},{"active":false,"Giataid":"725524","cityId":null,"cityName":"Addis Abeba","hotelId":725524,"hotelName":"Afroaddis Hotel Apartment","address":"Bole Sub City,Bole Yerer Goro,Afro Addis Building,Near Yerrer Hospital,Behind Gro Elemntery School,Addis Ababa,Ethiopia","phones":"+251116677980","fax":"","email":"booking@afroaddis.com","url":"http://www.afroaddis.com","countryIso2":"ET","countryName":"Ethiopia","hotelRating":"3","latitude":"8.99704","longitude":"38.8277","state_id":null,"state_name":null,"country_id":null},{"active":false,"Giataid":"725552","cityId":null,"cityName":"Addis Abeba","hotelId":725552,"hotelName":"Millennium Apartment Hotel","address":"Bole Road,Behind Ambasdor Hotel Near Empire Addis International Hotel,Addis Ababa,Ethiopia","phones":"+25118965989","fax":"","email":"manager@millenniumapartmenthotel.com","url":"http://www.millenniumapartmenthotel.com","countryIso2":"ET","countryName":"Ethiopia","hotelRating":"2","latitude":"8.99208","longitude":"38.7876","state_id":null,"state_name":null,"country_id":null},{"active":false,"Giataid":"725599","cityId":null,"cityName":"Addis Abeba","hotelId":725599,"hotelName":"Yod Abyssinia International Hotel","address":"Haile Gebre Silase Street,Bole,Addis Ababa,Ethiopia","phones":"","fax":"","email":"","url":"http://www.hotels.com/ho614774144","countryIso2":"ET","countryName":"Ethiopia","hotelRating":"3","latitude":"9.01358","longitude":"38.7805","state_id":null,"state_name":null,"country_id":null},{"active":false,"Giataid":"725607","cityId":null,"cityName":"Addis Abeba","hotelId":725607,"hotelName":"Tirar International Hotel","address":"Chad Street,Geja Sefer,Addis Ababa,Ethiopia","phones":"+251115577150","fax":"","email":"reservation@tirarhotel.com","url":"http://www.tirarhotel.com","countryIso2":"ET","countryName":"Ethiopia","hotelRating":"3","latitude":"9.01239","longitude":"38.734","state_id":null,"state_name":null,"country_id":null},{"active":false,"Giataid":"725612","cityId":null,"cityName":"Addis Abeba","hotelId":725612,"hotelName":"Nega Bonger Hotel","address":"Woreda 06 House 433/1,Akaki Kality Sub City,Addis Ababa,Ethiopia","phones":"+251114708100","fax":"","email":"","url":"http://negabongerhotel.com-addisababa.com/es","countryIso2":"ET","countryName":"Ethiopia","hotelRating":"4","latitude":"8.9521","longitude":"38.7611","state_id":null,"state_name":null,"country_id":null},{"active":false,"Giataid":"725619","cityId":null,"cityName":"Addis Abeba","hotelId":725619,"hotelName":"Guzara Hotel","address":"Jacros-Salite Mehret Road,Gurd Shola,Addis Ababa,Ethiopia","phones":"","fax":"","email":"","url":"","countryIso2":"ET","countryName":"Ethiopia","hotelRating":"1","latitude":"9.01171","longitude":"38.8216","state_id":null,"state_name":null,"country_id":null},{"active":false,"Giataid":"725837","cityId":null,"cityName":"Addis Abeba","hotelId":725837,"hotelName":"Diplomat Luxury Furnished Apartments","address":"Opposite to the Canadian Embassy,Sar Bet,Addis Ababa,Ethiopia","phones":"","fax":"","email":"","url":"","countryIso2":"ET","countryName":"Ethiopia","hotelRating":"1","latitude":"8.9956","longitude":"38.7364","state_id":null,"state_name":null,"country_id":null},{"active":false,"Giataid":"725881","cityId":null,"cityName":"Addis Abeba","hotelId":725881,"hotelName":"Sapphire Addis Hotel","address":"Namibia Street,Bole Sub City,Wereda 03,Bole Medanialem Towards Urael Road,Next To Sheger Building,Addis Abeba,Ethiopia","phones":"+251116393907","fax":"","email":"info@sapphireaddishotel.com","url":"http://www.sapphireaddishotel.com","countryIso2":"ET","countryName":"Ethiopia","hotelRating":"4","latitude":"9.00058","longitude":"38.7831","state_id":null,"state_name":null,"country_id":null},{"active":false,"Giataid":"725952","cityId":null,"cityName":"Addis Abeba","hotelId":725952,"hotelName":"Heyday Hotel","address":"New Saris Addisu Sefer,1110 Addis Ababa,Ethiopia","phones":"+251114707994","fax":"","email":"reservation@heydayhotelethiopia.com","url":"https://heydayhotelethiopia.com","countryIso2":"ET","countryName":"Ethiopia","hotelRating":"1","latitude":"8.95811","longitude":"38.7702","state_id":null,"state_name":null,"country_id":null},{"active":false,"Giataid":"726060","cityId":null,"cityName":"Addis Abeba","hotelId":726060,"hotelName":"Hera Addis Hotel","address":"Mauritius Street,Addis Ababa,Ethiopia","phones":"+251114706109","fax":"","email":"heraaddishotel@gmail.com","url":"https://www.heraaddishotel.com","countryIso2":"ET","countryName":"Ethiopia","hotelRating":"1","latitude":"9.0043","longitude":"38.7763","state_id":null,"state_name":null,"country_id":null},{"active":false,"Giataid":"726186","cityId":null,"cityName":"Addis Abeba","hotelId":726186,"hotelName":"Melala Addis Bed & Breakfast","address":"Togo Street Behind Denberua Hospital,Yeka,Addis Ababa,Ethiopia","phones":"","fax":"","email":"","url":"","countryIso2":"ET","countryName":"Ethiopia","hotelRating":"1","latitude":"9.0043","longitude":"38.7763","state_id":null,"state_name":null,"country_id":null},{"active":false,"Giataid":"726272","cityId":null,"cityName":"Addis Abeba","hotelId":726272,"hotelName":"Dream View Guesthouse","address":"Ring Road,Bole Michael,Addis Ababa,Ethiopia","phones":"+251941928102","fax":"","email":"brex18@yahoo.com","url":"http://dreamview-guesthouse.com","countryIso2":"ET","countryName":"Ethiopia","hotelRating":"1","latitude":"9.0043","longitude":"38.7763","state_id":null,"state_name":null,"country_id":null},{"active":false,"Giataid":"726631","cityId":null,"cityName":"Addis Abeba","hotelId":726631,"hotelName":"Menarol Guest House","address":"Comoros Street,Yeka Sub City,Addis Ababa 1000,Ethiopia","phones":"+251116674542","fax":"","email":"Info@menarolguesthouse.com","url":"http://menarolguesthouse.com","countryIso2":"ET","countryName":"Ethiopia","hotelRating":"1","latitude":"9.02772","longitude":"38.7908","state_id":null,"state_name":null,"country_id":null},{"active":false,"Giataid":"726873","cityId":null,"cityName":"Addis Abeba","hotelId":726873,"hotelName":"Sunland Hotel","address":"Namibia Street,Bole,Nefas Silk,Ethiopia","phones":"","fax":"","email":"","url":"","countryIso2":"ET","countryName":"Ethiopia","hotelRating":"1","latitude":"9.0043","longitude":"38.7763","state_id":null,"state_name":null,"country_id":null},{"active":false,"Giataid":"727012","cityId":38598,"cityName":"Bahir Dar","hotelId":727012,"hotelName":"Kuriftu Resort","address":"Bole Road 27,Lake Tana Avenue,Fasilo,Boston Building,Bahar Dar,Ethiopia","phones":"+251920959797","fax":"","email":"booking@kurifturesorts.com","url":"https://kurifturesorts.com/bahir-dar/","countryIso2":"ET","countryName":"Ethiopia","hotelRating":"1","latitude":"11.5932","longitude":"37.3848","state_id":3,"state_name":"Amhara Region","country_id":70},{"active":false,"Giataid":"727424","cityId":null,"cityName":"Addis Abeba","hotelId":727424,"hotelName":"251 Budget Guest House","address":"Bole-Sub City,Summit Area,Addis Ababa,Ethiopia","phones":"","fax":"","email":"","url":"","countryIso2":"ET","countryName":"Ethiopia","hotelRating":"2","latitude":"9.0043","longitude":"38.7763","state_id":null,"state_name":null,"country_id":null},{"active":false,"Giataid":"728566","cityId":null,"cityName":"Addis Abeba","hotelId":728566,"hotelName":"North Addis Hotel","address":"Inku Silase Banty Street,Addis Ababa,Ethiopia","phones":"","fax":"","email":"","url":"","countryIso2":"ET","countryName":"Ethiopia","hotelRating":"3","latitude":"9.0043","longitude":"38.7763","state_id":null,"state_name":null,"country_id":null},{"active":false,"Giataid":"730054","cityId":null,"cityName":"Addis Abeba","hotelId":730054,"hotelName":"Mr. Martins Cozy Place","address":"Cape Verde Street 702,Bole Sub City,Addis Ababa,Ethiopia","phones":"+251910884585","fax":"","email":"coze376@Yahoo.com","url":"http://www.mmcozyplace.com/","countryIso2":"ET","countryName":"Ethiopia","hotelRating":"1","latitude":"9.0043","longitude":"38.7763","state_id":null,"state_name":null,"country_id":null},{"active":false,"Giataid":"730320","cityId":null,"cityName":"Addis Abeba","hotelId":730320,"hotelName":"WaterGate Hotel","address":"Gabon Street,Addis Ababa,Ethiopia","phones":"+251929904722","fax":"","email":"reservation@watergateaddis.com","url":"http://www.ajwatergate.com","countryIso2":"ET","countryName":"Ethiopia","hotelRating":"4","latitude":"8.99071","longitude":"38.7658","state_id":null,"state_name":null,"country_id":null},{"active":false,"Giataid":"732519","cityId":38598,"cityName":"Bahir Dar","hotelId":732519,"hotelName":"Lakemark Hotel","address":"Hospital Road 13,Kebele,Bhair Dar,Ethiopia","phones":"+251582201211","fax":"","email":"","url":"http://www.lakemarkhotelbd.com","countryIso2":"ET","countryName":"Ethiopia","hotelRating":"3","latitude":"11.6055","longitude":"37.3702","state_id":3,"state_name":"Amhara Region","country_id":70},{"active":false,"Giataid":"732967","cityId":null,"cityName":"Addis Abeba","hotelId":732967,"hotelName":"Yober hotel","address":"Bole Road,5 Minutes Drive From Airport,Addis Ababa,Ethiopia","phones":"+251116684300","fax":"","email":"info@yoberhotel.com","url":"http://www.yoberhotel.com","countryIso2":"ET","countryName":"Ethiopia","hotelRating":"1","latitude":"8.99219","longitude":"38.7822","state_id":null,"state_name":null,"country_id":null},{"active":false,"Giataid":"733593","cityId":38598,"cityName":"Bahir Dar","hotelId":733593,"hotelName":"Solyana Hotel","address":"Keble 14,Next To Egziaberab Church,1288 Bahar Dar,Amhara,Ethiopia","phones":"","fax":"","email":"","url":"","countryIso2":"ET","countryName":"Ethiopia","hotelRating":"1","latitude":"11.5932","longitude":"37.3848","state_id":3,"state_name":"Amhara Region","country_id":70},{"active":false,"Giataid":"737039","cityId":38671,"cityName":"Lalibela","hotelId":737039,"hotelName":"Villa Lalibela Guesthouse","address":"North Wollo Lalibela,Lalibela,Ethiopia","phones":"","fax":"","email":"","url":"","countryIso2":"ET","countryName":"Ethiopia","hotelRating":"1","latitude":"12.0309","longitude":"39.0478","state_id":3,"state_name":"Amhara Region","country_id":70},{"active":false,"Giataid":"738420","cityId":38671,"cityName":"Lalibela","hotelId":738420,"hotelName":"Zagwe Hotel","address":"NULL","phones":"+251333360211","fax":"","email":"zagwehotel@gmail.com","url":"http://www.zagwehotel.com/","countryIso2":"ET","countryName":"Ethiopia","hotelRating":"1","latitude":"12.0286","longitude":"39.0429","state_id":3,"state_name":"Amhara Region","country_id":70},{"active":false,"Giataid":"742316","cityId":null,"cityName":"Addis Abeba","hotelId":742316,"hotelName":"Cheers Bed & Breakfast","address":"Bole Road/Africa Avenue,Behind D.H. Geda tower,Bole,5189 Addis Ababa,Ethiopia","phones":"","fax":"","email":"","url":"","countryIso2":"ET","countryName":"Ethiopia","hotelRating":"1","latitude":"9.0043","longitude":"38.7763","state_id":null,"state_name":null,"country_id":null},{"active":false,"Giataid":"757726","cityId":null,"cityName":"Addis Abeba","hotelId":757726,"hotelName":"P6 Budget Hotel","address":"Mauritius Street,Bole,Addis Ababa,Ethiopia","phones":"","fax":"","email":"reservation@p6budgethotel.com","url":"http://p6budgethotel.com","countryIso2":"ET","countryName":"Ethiopia","hotelRating":"1","latitude":"9.0043","longitude":"38.7763","state_id":null,"state_name":null,"country_id":null},{"active":false,"Giataid":"757767","cityId":null,"cityName":"Debre Zeyit","hotelId":757767,"hotelName":"Liesak Resort","address":"Lake Babogaya,Debre Zeit,Ethiopia","phones":"+251933858584","fax":"","email":"Liesakresort@gmail.com","url":"http://liesakresort.com","countryIso2":"ET","countryName":"Ethiopia","hotelRating":"1","latitude":"8.74701","longitude":"38.9816","state_id":null,"state_name":null,"country_id":null},{"active":false,"Giataid":"782922","cityId":null,"cityName":"Addis Abeba","hotelId":782922,"hotelName":"Awraris Hotel","address":"Djibouti Road,Bole,Addis Ababa,Ethiopia","phones":"","fax":"","email":"","url":"","countryIso2":"ET","countryName":"Ethiopia","hotelRating":"1","latitude":"9.0043","longitude":"38.7763","state_id":null,"state_name":null,"country_id":null},{"active":false,"Giataid":"782931","cityId":null,"cityName":"Addis Abeba","hotelId":782931,"hotelName":"Concorde Hotel","address":"Debre Zeit Road,In Front Of Lancia,Addis Ababa,Ethiopia","phones":"","fax":"","email":"","url":"http://www.tripadvisor.com/Hotel_Review-g293791-d4115527","countryIso2":"ET","countryName":"Ethiopia","hotelRating":"1","latitude":"9.0043","longitude":"38.7763","state_id":null,"state_name":null,"country_id":null},{"active":false,"Giataid":"782933","cityId":38598,"cityName":"Bahir Dar","hotelId":782933,"hotelName":"Palm Palace Hotel","address":"Bahirdar,West Gojjam,Ethiopia","phones":"","fax":"","email":"","url":"","countryIso2":"ET","countryName":"Ethiopia","hotelRating":"1","latitude":"11.5932","longitude":"37.3848","state_id":3,"state_name":"Amhara Region","country_id":70},{"active":false,"Giataid":"782938","cityId":null,"cityName":"Addis Abeba","hotelId":782938,"hotelName":"Sindu Hotel","address":"Mozambique Street,Bole,Addis Ababa,Ethiopia","phones":"","fax":"","email":"","url":"","countryIso2":"ET","countryName":"Ethiopia","hotelRating":"1","latitude":"9.0043","longitude":"38.7763","state_id":null,"state_name":null,"country_id":null},{"active":false,"Giataid":"782939","cityId":null,"cityName":"Addis Abeba","hotelId":782939,"hotelName":"Sparky Hotel","address":"South Africa Street,Addis Ababa,Ethiopia","phones":"","fax":"","email":"","url":"","countryIso2":"ET","countryName":"Ethiopia","hotelRating":"1","latitude":"9.0043","longitude":"38.7763","state_id":null,"state_name":null,"country_id":null},{"active":false,"Giataid":"782946","cityId":38676,"cityName":"Mek'ele","hotelId":782946,"hotelName":"Ras Alula Abanega Hotel","address":"Kebele 16,1000 Mek'ele,Ethiopia","phones":"","fax":"","email":"","url":"","countryIso2":"ET","countryName":"Ethiopia","hotelRating":"1","latitude":"13.4871","longitude":"39.4687","state_id":4,"state_name":"Tigray Region","country_id":70},{"active":false,"Giataid":"782947","cityId":38676,"cityName":"Mek'ele","hotelId":782947,"hotelName":"Hotel Zema","address":"Kebele 16,1000 Mekele,Ethiopia","phones":"","fax":"","email":"","url":"","countryIso2":"ET","countryName":"Ethiopia","hotelRating":"1","latitude":"13.4871","longitude":"39.4687","state_id":4,"state_name":"Tigray Region","country_id":70},{"active":false,"Giataid":"782948","cityId":38597,"cityName":"Axum","hotelId":782948,"hotelName":"Ambassador Hotel Aksum","address":"Old Piazza Kebele 03,Aksum 1000,Ethiopia","phones":"","fax":"","email":"","url":"","countryIso2":"ET","countryName":"Ethiopia","hotelRating":"1","latitude":"14.1292","longitude":"38.7336","state_id":4,"state_name":"Tigray Region","country_id":70},{"active":false,"Giataid":"782949","cityId":null,"cityName":"Addis Abeba","hotelId":782949,"hotelName":"Roza Hotel","address":"King George VI Street,Nefas Silk,Addis Ababa,Ethiopia","phones":"+251941247682","fax":"","email":"info@roza-hotel.com","url":"http://www.roza-hotel.com/","countryIso2":"ET","countryName":"Ethiopia","hotelRating":"1","latitude":"9.0043","longitude":"38.7763","state_id":null,"state_name":null,"country_id":null},{"active":false,"Giataid":"782950","cityId":38676,"cityName":"Mek'ele","hotelId":782950,"hotelName":"Moringa Hotel","address":"Kedamay Woyane 09 Kebele,1000 Mekelle,Ethiopia","phones":"","fax":"","email":"","url":"","countryIso2":"ET","countryName":"Ethiopia","hotelRating":"1","latitude":"13.4871","longitude":"39.4687","state_id":4,"state_name":"Tigray Region","country_id":70},{"active":false,"Giataid":"782955","cityId":38676,"cityName":"Mek'ele","hotelId":782955,"hotelName":"Hilltop Hotel","address":"Bubu Kebele 06,1000 Mekï¿½ele,Ethiopia","phones":"","fax":"","email":"","url":"","countryIso2":"ET","countryName":"Ethiopia","hotelRating":"1","latitude":"13.4871","longitude":"39.4687","state_id":4,"state_name":"Tigray Region","country_id":70},{"active":false,"Giataid":"782956","cityId":38642,"cityName":"Gondar","hotelId":782956,"hotelName":"Hotel Lammergeyer","address":"NULL","phones":"","fax":"","email":"","url":"","countryIso2":"ET","countryName":"Ethiopia","hotelRating":"1","latitude":"12.6","longitude":"37.4667","state_id":3,"state_name":"Amhara Region","country_id":70},{"active":false,"Giataid":"782958","cityId":null,"cityName":"Addis Abeba","hotelId":782958,"hotelName":"Tya Hotel","address":"Gabon Street 807,Kirkos,Addis Ababa,Ethiopia","phones":"","fax":"","email":"","url":"","countryIso2":"ET","countryName":"Ethiopia","hotelRating":"1","latitude":"9.0043","longitude":"38.7763","state_id":null,"state_name":null,"country_id":null},{"active":false,"Giataid":"782973","cityId":38676,"cityName":"Mek'ele","hotelId":782973,"hotelName":"Milano Hotel","address":"Balloni Kebele 9,1000 Mekele,Ethiopia","phones":"","fax":"","email":"","url":"","countryIso2":"ET","countryName":"Ethiopia","hotelRating":"1","latitude":"13.4871","longitude":"39.4687","state_id":4,"state_name":"Tigray Region","country_id":70},{"active":false,"Giataid":"782974","cityId":null,"cityName":"Addis Abeba","hotelId":782974,"hotelName":"King David Hotel","address":"Djibuti Street,Bole,Addis Ababa,Ethiopia","phones":"+251911339773","fax":"","email":"dawitaraya8@gmail.com","url":"http://www.kingdavidaddishotel.com/","countryIso2":"ET","countryName":"Ethiopia","hotelRating":"1","latitude":"9.0043","longitude":"38.7763","state_id":null,"state_name":null,"country_id":null},{"active":false,"Giataid":"782984","cityId":null,"cityName":"Addis Abeba","hotelId":782984,"hotelName":"Amadu Hotel","address":"Ambo Road,Shegole Mewicha,1000 Addis Ababa,Ethiopia","phones":"","fax":"","email":"","url":"","countryIso2":"ET","countryName":"Ethiopia","hotelRating":"1","latitude":"9.0043","longitude":"38.7763","state_id":null,"state_name":null,"country_id":null},{"active":false,"Giataid":"782985","cityId":null,"cityName":"Addis Abeba","hotelId":782985,"hotelName":"Top Ten Hotel","address":"Gurd Shola,Yeka,Addis Ababa,Ethiopia","phones":"","fax":"","email":"","url":"","countryIso2":"ET","countryName":"Ethiopia","hotelRating":"1","latitude":"9.0043","longitude":"38.7763","state_id":null,"state_name":null,"country_id":null},{"active":false,"Giataid":"782989","cityId":null,"cityName":"Adigrat","hotelId":782989,"hotelName":"Agamos Hotel","address":"South East Of University,1000 Adigrat,Ethiopia","phones":"+251342450262","fax":"","email":"agamoshotel@gmail.com","url":"http://www.agamoshotel.com/","countryIso2":"ET","countryName":"Ethiopia","hotelRating":"1","latitude":"14.2779","longitude":"39.4603","state_id":null,"state_name":null,"country_id":null},{"active":false,"Giataid":"782993","cityId":null,"cityName":"Adigrat","hotelId":782993,"hotelName":"Canaan International Hotel","address":"Adigrat Kebele 03,1000 Adigrat,Ethiopia","phones":"+251344452821","fax":"+251344452813","email":"info@canaanadigrathotel.com","url":"http://www.canaanadigrathotel.com","countryIso2":"ET","countryName":"Ethiopia","hotelRating":"1","latitude":"14.2779","longitude":"39.4603","state_id":null,"state_name":null,"country_id":null},{"active":false,"Giataid":"782999","cityId":null,"cityName":"Addis Abeba","hotelId":782999,"hotelName":"Feyisa Hotel","address":"5 Kebele 4,Kolfe Keranio,1000 Addis Ababa,Ethiopia","phones":"","fax":"","email":"","url":"","countryIso2":"ET","countryName":"Ethiopia","hotelRating":"1","latitude":"9.0043","longitude":"38.7763","state_id":null,"state_name":null,"country_id":null},{"active":false,"Giataid":"783000","cityId":null,"cityName":"Debre Zeyit","hotelId":783000,"hotelName":"Tsehay Hotel","address":"Addis-Adama Expressway,Debre Zeyit,Ethiopia","phones":"","fax":"","email":"","url":"","countryIso2":"ET","countryName":"Ethiopia","hotelRating":"1","latitude":"8.74633","longitude":"38.9815","state_id":null,"state_name":null,"country_id":null},{"active":false,"Giataid":"783004","cityId":null,"cityName":"Addis Abeba","hotelId":783004,"hotelName":"Prime Time Hotel","address":"Kk Woreda 02 171,Bole,Addis Ababa,Ethiopia","phones":"","fax":"","email":"","url":"","countryIso2":"ET","countryName":"Ethiopia","hotelRating":"1","latitude":"9.0043","longitude":"38.7763","state_id":null,"state_name":null,"country_id":null},{"active":false,"Giataid":"783013","cityId":null,"cityName":"Addis Abeba","hotelId":783013,"hotelName":"Addis Ababa Hotel","address":"Mariam Road,Gurd Shola,Yeka,1000 Addis Ababa,Ethiopia","phones":"","fax":"","email":"","url":"","countryIso2":"ET","countryName":"Ethiopia","hotelRating":"1","latitude":"9.0043","longitude":"38.7763","state_id":null,"state_name":null,"country_id":null},{"active":false,"Giataid":"784246","cityId":null,"cityName":"Addis Abeba","hotelId":784246,"hotelName":"Addis Sunrise","address":"Camerron Street,Bole,Addis Abeba,Ethiopia","phones":"","fax":"","email":"","url":"http://addissunrise.com-addisababa.com/","countryIso2":"ET","countryName":"Ethiopia","hotelRating":"1","latitude":"9.0043","longitude":"38.7763","state_id":null,"state_name":null,"country_id":null},{"active":false,"Giataid":"784247","cityId":38598,"cityName":"Bahir Dar","hotelId":784247,"hotelName":"Yeshi Pension","address":"Kebele 06,Ethiopia,Bahir Dar,Ethiopia","phones":"","fax":"","email":"","url":"","countryIso2":"ET","countryName":"Ethiopia","hotelRating":"1","latitude":"11.5927","longitude":"37.3891","state_id":3,"state_name":"Amhara Region","country_id":70},{"active":false,"Giataid":"784253","cityId":null,"cityName":"Addis Abeba","hotelId":784253,"hotelName":"Yonas Hotel","address":"Equatorial Guniea Street,Hayahulet,Addis Ababa,Ethiopia","phones":"","fax":"","email":"","url":"","countryIso2":"ET","countryName":"Ethiopia","hotelRating":"1","latitude":"9.0043","longitude":"38.7763","state_id":null,"state_name":null,"country_id":null},{"active":false,"Giataid":"784256","cityId":38676,"cityName":"Mek'ele","hotelId":784256,"hotelName":"Northern Star International Hotel","address":"Adi Hawsi,1000 Mek'ele,Ethiopia","phones":"","fax":"","email":"","url":"","countryIso2":"ET","countryName":"Ethiopia","hotelRating":"1","latitude":"13.4871","longitude":"39.4687","state_id":4,"state_name":"Tigray Region","country_id":70},{"active":false,"Giataid":"784259","cityId":null,"cityName":"Addis Abeba","hotelId":784259,"hotelName":"Mena Hotel","address":"Egypt Street,Sarbet,Nifas Silk-Lafto,Koshim,Addis Ababa,Ethiopia","phones":"","fax":"","email":"","url":"","countryIso2":"ET","countryName":"Ethiopia","hotelRating":"1","latitude":"9.0043","longitude":"38.7763","state_id":null,"state_name":null,"country_id":null},{"active":false,"Giataid":"784263","cityId":38642,"cityName":"Gondar","hotelId":784263,"hotelName":"Capra Walia Hotel","address":"Chewa Sefer Kbele 02,1000 Gonder,Ethiopia","phones":"","fax":"","email":"","url":"","countryIso2":"ET","countryName":"Ethiopia","hotelRating":"1","latitude":"12.6","longitude":"37.4667","state_id":3,"state_name":"Amhara Region","country_id":70},{"active":false,"Giataid":"784270","cityId":null,"cityName":"Addis Abeba","hotelId":784270,"hotelName":"B Now Hotel","address":"Mickey Leland Street,Addis Ababa,Ethiopia","phones":"","fax":"","email":"","url":"","countryIso2":"ET","countryName":"Ethiopia","hotelRating":"1","latitude":"9.0043","longitude":"38.7763","state_id":null,"state_name":null,"country_id":null},{"active":false,"Giataid":"784271","cityId":null,"cityName":"Addis Abeba","hotelId":784271,"hotelName":"ML Hostel","address":"Togo Street,Haya Hulet Near Mulmul Bakery,Denberua Hospital,Yeka,Addis Ababa,Ethiopia","phones":"","fax":"","email":"","url":"","countryIso2":"ET","countryName":"Ethiopia","hotelRating":"1","latitude":"9.0043","longitude":"38.7763","state_id":null,"state_name":null,"country_id":null},{"active":false,"Giataid":"784272","cityId":38598,"cityName":"Bahir Dar","hotelId":784272,"hotelName":"Manuhie Backpackers Lodge","address":"Kebele 03,Around Lake Tana,Bahir Dar,Ethiopia","phones":"","fax":"","email":"manuhielodge@gmail.com","url":"http://www.manuhiebackpackerslodge.com","countryIso2":"ET","countryName":"Ethiopia","hotelRating":"1","latitude":"11.5975","longitude":"37.3812","state_id":3,"state_name":"Amhara Region","country_id":70},{"active":false,"Giataid":"784287","cityId":38598,"cityName":"Bahir Dar","hotelId":784287,"hotelName":"Ngg Hotel","address":"Amora Mewagna,Kebele 04,Bahir Dar,Ethiopia","phones":"+251582206363","fax":"","email":"ngghotelbd@gmail.com","url":"http://www.ngghotel.com","countryIso2":"ET","countryName":"Ethiopia","hotelRating":"1","latitude":"11.5932","longitude":"37.3848","state_id":3,"state_name":"Amhara Region","country_id":70},{"active":false,"Giataid":"784293","cityId":38598,"cityName":"Bahir Dar","hotelId":784293,"hotelName":"Bete Daniel Hotel","address":"Bahirdar Fasilo Kebele,Bahir Dar,Ethiopia","phones":"+251582266161","fax":"","email":"reservation@betedanielhotel.com","url":"http://betedanielhotel.com","countryIso2":"ET","countryName":"Ethiopia","hotelRating":"1","latitude":"11.5932","longitude":"37.3848","state_id":3,"state_name":"Amhara Region","country_id":70},{"active":false,"Giataid":"784294","cityId":38671,"cityName":"Lalibela","hotelId":784294,"hotelName":"Asheton Hotel","address":"Main Road,Lalibela,Ethiopia","phones":"+251333360030","fax":"","email":"danielbaboon@gmail.com","url":"http://www.ashetonhotel.com/","countryIso2":"ET","countryName":"Ethiopia","hotelRating":"1","latitude":"12.0286","longitude":"39.0429","state_id":3,"state_name":"Amhara Region","country_id":70},{"active":false,"Giataid":"784834","cityId":null,"cityName":"Addis Abeba","hotelId":784834,"hotelName":"3 Days International Hotel","address":"Mike Leyland Street,Bole,Addis Ababa,Ethiopia","phones":"+251116612583","fax":"+251116629444","email":"info@3daysinternationalhotel.com","url":"http://www.3daysinternationalhotel.com","countryIso2":"ET","countryName":"Ethiopia","hotelRating":"1","latitude":"9.0043","longitude":"38.7763","state_id":null,"state_name":null,"country_id":null},{"active":false,"Giataid":"784870","cityId":null,"cityName":"Addis Abeba","hotelId":784870,"hotelName":"Samantha Hotel","address":"CMC Road,In front of St.Michael's Church,Addis Ababa,Ethiopia","phones":"","fax":"","email":"","url":"","countryIso2":"ET","countryName":"Ethiopia","hotelRating":"1","latitude":"9.0043","longitude":"38.7763","state_id":null,"state_name":null,"country_id":null},{"active":false,"Giataid":"784882","cityId":38598,"cityName":"Bahir Dar","hotelId":784882,"hotelName":"Agar Lodge","address":"Adwa Rode,Semahtat,Bahir Dar,Ethiopia","phones":"","fax":"","email":"","url":"","countryIso2":"ET","countryName":"Ethiopia","hotelRating":"1","latitude":"11.5932","longitude":"37.3848","state_id":3,"state_name":"Amhara Region","country_id":70},{"active":false,"Giataid":"784896","cityId":null,"cityName":"Addis Abeba","hotelId":784896,"hotelName":"Hill Spring Hotel","address":"Ethio China College,Addis Ababa,Ethiopia","phones":"","fax":"","email":"","url":"","countryIso2":"ET","countryName":"Ethiopia","hotelRating":"1","latitude":"9.0043","longitude":"38.7763","state_id":null,"state_name":null,"country_id":null},{"active":false,"Giataid":"784915","cityId":null,"cityName":"Addis Abeba","hotelId":784915,"hotelName":"Lucy Guest House","address":"Cameroon Street,Bole,Addis Ababa,Ethiopia","phones":"","fax":"","email":"","url":"","countryIso2":"ET","countryName":"Ethiopia","hotelRating":"1","latitude":"9.0043","longitude":"38.7763","state_id":null,"state_name":null,"country_id":null},{"active":false,"Giataid":"784922","cityId":null,"cityName":"Addis Abeba","hotelId":784922,"hotelName":"Encore Hotel","address":"Kolfe Keranio,Addis Ababa,Ethiopia","phones":"","fax":"","email":"","url":"","countryIso2":"ET","countryName":"Ethiopia","hotelRating":"1","latitude":"9.0043","longitude":"38.7763","state_id":null,"state_name":null,"country_id":null},{"active":false,"Giataid":"784928","cityId":null,"cityName":"Debre Zeyit","hotelId":784928,"hotelName":"Yina Grand Hotel","address":"Addis Adama Expressway,Debre Zeyit,Ethiopia","phones":"","fax":"","email":"","url":"","countryIso2":"ET","countryName":"Ethiopia","hotelRating":"1","latitude":"8.74633","longitude":"38.9815","state_id":null,"state_name":null,"country_id":null},{"active":false,"Giataid":"784935","cityId":null,"cityName":"Addis Abeba","hotelId":784935,"hotelName":"Fitsum Belay Hotel","address":"Namibia Street,Addis Ababa,Ethiopia","phones":"","fax":"","email":"","url":"","countryIso2":"ET","countryName":"Ethiopia","hotelRating":"1","latitude":"9.0043","longitude":"38.7763","state_id":null,"state_name":null,"country_id":null},{"active":false,"Giataid":"784936","cityId":null,"cityName":"Debre Zeyit","hotelId":784936,"hotelName":"Yelibe Hotel","address":"Addis - Adama Expressway,Debre Zeyit,Ethiopia","phones":"","fax":"","email":"","url":"","countryIso2":"ET","countryName":"Ethiopia","hotelRating":"1","latitude":"8.74633","longitude":"38.9815","state_id":null,"state_name":null,"country_id":null},{"active":false,"Giataid":"784945","cityId":null,"cityName":"Debre Zeyit","hotelId":784945,"hotelName":"Gold Mark International Hotel","address":"Addis - Adama Expressway,Debre Zeyit,Ethiopia","phones":"","fax":"","email":"","url":"","countryIso2":"ET","countryName":"Ethiopia","hotelRating":"1","latitude":"8.74633","longitude":"38.9815","state_id":null,"state_name":null,"country_id":null},{"active":false,"Giataid":"784956","cityId":38598,"cityName":"Bahir Dar","hotelId":784956,"hotelName":"Afleta Hotel","address":"Mulualem Road,Bahir Dhar,Ethiopia","phones":"","fax":"","email":"","url":"","countryIso2":"ET","countryName":"Ethiopia","hotelRating":"1","latitude":"11.5932","longitude":"37.3848","state_id":3,"state_name":"Amhara Region","country_id":70},{"active":false,"Giataid":"785469","cityId":null,"cityName":"Addis Abeba","hotelId":785469,"hotelName":"Hadmes Hotel","address":"Alemgena,Addis Ababa,Ethiopia","phones":"+251930100018","fax":"","email":"hadmeshotel@gmail.com","url":"http://www.hadmeshotel.com","countryIso2":"ET","countryName":"Ethiopia","hotelRating":"1","latitude":"9.0043","longitude":"38.7763","state_id":null,"state_name":null,"country_id":null},{"active":false,"Giataid":"785477","cityId":38642,"cityName":"Gondar","hotelId":785477,"hotelName":"Kino Hotel","address":"Gonder Kebele 1,Near Gonder University Thewodros Camp,Gonder,Ethiopia","phones":"","fax":"","email":"","url":"","countryIso2":"ET","countryName":"Ethiopia","hotelRating":"1","latitude":"12.6","longitude":"37.4667","state_id":3,"state_name":"Amhara Region","country_id":70},{"active":false,"Giataid":"785479","cityId":null,"cityName":"Addis Abeba","hotelId":785479,"hotelName":"Inclusive Hostel","address":"Airport Road,Kirkos,Addis Ababa,Ethiopia","phones":"","fax":"","email":"","url":"","countryIso2":"ET","countryName":"Ethiopia","hotelRating":"1","latitude":"9.0043","longitude":"38.7763","state_id":null,"state_name":null,"country_id":null},{"active":false,"Giataid":"785493","cityId":38676,"cityName":"Mek'ele","hotelId":785493,"hotelName":"Dallas Hotel","address":"Menahriya Kebele 09,1000 Mek'ele,Ethiopia","phones":"","fax":"","email":"","url":"","countryIso2":"ET","countryName":"Ethiopia","hotelRating":"1","latitude":"13.4871","longitude":"39.4687","state_id":4,"state_name":"Tigray Region","country_id":70},{"active":false,"Giataid":"785497","cityId":38650,"cityName":"Harar","hotelId":785497,"hotelName":"Grand Gato","address":"Harer Shenikor,1000 Harar,Ethiopia","phones":"+251254660775","fax":"","email":"info@grandgato.com","url":"http://grandgato.com","countryIso2":"ET","countryName":"Ethiopia","hotelRating":"1","latitude":"0","longitude":"0","state_id":7,"state_name":"Harari Region","country_id":70},{"active":false,"Giataid":"786667","cityId":null,"cityName":"Addis Abeba","hotelId":786667,"hotelName":"Venetian Hotel","address":"Off Cameron Street,400m From Brhane Adere Mall,Bole,Addis Ababa,Ethiopia","phones":"+251118229374","fax":"","email":"reservation@venetianaddis.com","url":"http://venetianaddis.com","countryIso2":"ET","countryName":"Ethiopia","hotelRating":"1","latitude":"9.0043","longitude":"38.7763","state_id":null,"state_name":null,"country_id":null},{"active":false,"Giataid":"786673","cityId":null,"cityName":"Addis Abeba","hotelId":786673,"hotelName":"Wagra Hotel","address":"Intoto Street,Addis Ababa,Ethiopia","phones":"","fax":"","email":"","url":"","countryIso2":"ET","countryName":"Ethiopia","hotelRating":"1","latitude":"9.0043","longitude":"38.7763","state_id":null,"state_name":null,"country_id":null},{"active":false,"Giataid":"786678","cityId":null,"cityName":"Addis Abeba","hotelId":786678,"hotelName":"Mesfin Harar Hotel","address":"Addis Ababa,Ethiopia","phones":"","fax":"","email":"","url":"","countryIso2":"ET","countryName":"Ethiopia","hotelRating":"1","latitude":"9.0043","longitude":"38.7763","state_id":null,"state_name":null,"country_id":null},{"active":false,"Giataid":"786679","cityId":null,"cityName":"Addis Abeba","hotelId":786679,"hotelName":"Balderas Hotel","address":"633 wereda 07 kebele 11 12,Addis Ababa,Ethiopia","phones":"","fax":"","email":"","url":"","countryIso2":"ET","countryName":"Ethiopia","hotelRating":"1","latitude":"9.0043","longitude":"38.7763","state_id":null,"state_name":null,"country_id":null},{"active":false,"Giataid":"786682","cityId":38642,"cityName":"Gondar","hotelId":786682,"hotelName":"Alliance Inn","address":"piazza gondar ethiopia,Gonder,Ethiopia","phones":"","fax":"","email":"","url":"","countryIso2":"ET","countryName":"Ethiopia","hotelRating":"1","latitude":"12.6","longitude":"37.4667","state_id":3,"state_name":"Amhara Region","country_id":70},{"active":false,"Giataid":"788048","cityId":38676,"cityName":"Mek'ele","hotelId":788048,"hotelName":"Atranos Hotel","address":"Bazar Roundabout Kebele 13,1000 Mek'ele,Ethiopia","phones":"","fax":"","email":"","url":"","countryIso2":"ET","countryName":"Ethiopia","hotelRating":"1","latitude":"13.4871","longitude":"39.4687","state_id":4,"state_name":"Tigray Region","country_id":70},{"active":false,"Giataid":"788054","cityId":null,"cityName":"Addis Abeba","hotelId":788054,"hotelName":"Hawlti Hotel","address":"Adi Kedawit,1000 Ade Abun,Ethiopia","phones":"","fax":"","email":"","url":"","countryIso2":"ET","countryName":"Ethiopia","hotelRating":"1","latitude":"9.0043","longitude":"38.7763","state_id":null,"state_name":null,"country_id":null},{"active":false,"Giataid":"788389","cityId":null,"cityName":"Addis Abeba","hotelId":788389,"hotelName":"Brooklyn Hotel Addis Ababa","address":"Belay Zelaka Road,Addis Ababa,Ethiopia","phones":"","fax":"","email":"info@brooklynhoteladdis.com","url":"http://brooklynhoteladdis.com","countryIso2":"ET","countryName":"Ethiopia","hotelRating":"1","latitude":"9.0043","longitude":"38.7763","state_id":null,"state_name":null,"country_id":null},{"active":false,"Giataid":"788421","cityId":null,"cityName":"Addis Abeba","hotelId":788421,"hotelName":"Besha Hotel","address":"Off Equatorial Guinea Street,Area 22,Addis Abeba,Ethiopia","phones":"","fax":"","email":"","url":"","countryIso2":"ET","countryName":"Ethiopia","hotelRating":"1","latitude":"9.0043","longitude":"38.7763","state_id":null,"state_name":null,"country_id":null},{"active":false,"Giataid":"788423","cityId":38597,"cityName":"Axum","hotelId":788423,"hotelName":"Mana Hotel","address":"Maebel Hidaga Hamus,1000 Aksum,Ethiopia","phones":"","fax":"","email":"","url":"","countryIso2":"ET","countryName":"Ethiopia","hotelRating":"1","latitude":"14.1292","longitude":"38.7336","state_id":4,"state_name":"Tigray Region","country_id":70},{"active":false,"Giataid":"788445","cityId":38676,"cityName":"Mek'ele","hotelId":788445,"hotelName":"Stockholm Hotel","address":"Jibruk Kebele 20,Mek'ele 1000,Ethiopia","phones":"","fax":"","email":"","url":"","countryIso2":"ET","countryName":"Ethiopia","hotelRating":"1","latitude":"13.4871","longitude":"39.4687","state_id":4,"state_name":"Tigray Region","country_id":70},{"active":false,"Giataid":"789346","cityId":38671,"cityName":"Lalibela","hotelId":789346,"hotelName":"Red Rock Lalibela Hotel","address":"Shenberma Keble 01,In front of the United Fuel Station,Lalibela,Ethiopia","phones":"+251333361030","fax":"","email":"info@redrocklalibelahotel.com","url":"http://www.redrocklalibelahotel.com/","countryIso2":"ET","countryName":"Ethiopia","hotelRating":"1","latitude":"12.0286","longitude":"39.0429","state_id":3,"state_name":"Amhara Region","country_id":70},{"active":false,"Giataid":"789353","cityId":null,"cityName":"Addis Abeba","hotelId":789353,"hotelName":"Yetam Hotel","address":"Meskel Flower,Kirkos,Addis Ababa,Ethiopia","phones":"","fax":"","email":"","url":"","countryIso2":"ET","countryName":"Ethiopia","hotelRating":"1","latitude":"9.0043","longitude":"38.7763","state_id":null,"state_name":null,"country_id":null},{"active":false,"Giataid":"789355","cityId":38671,"cityName":"Lalibela","hotelId":789355,"hotelName":"Honey Land Lalibela Hotel","address":"NULL","phones":"+251333360191","fax":"","email":"besfat2000@hotmail.com","url":"http://www.honeylandlalibelahotel.com","countryIso2":"ET","countryName":"Ethiopia","hotelRating":"1","latitude":"12.0286","longitude":"39.0429","state_id":3,"state_name":"Amhara Region","country_id":70},{"active":false,"Giataid":"789358","cityId":38676,"cityName":"Mek'ele","hotelId":789358,"hotelName":"The Yordanos Hotel","address":"Agaazi Area,Mekelle,Ethiopia","phones":"","fax":"","email":"","url":"","countryIso2":"ET","countryName":"Ethiopia","hotelRating":"1","latitude":"13.4871","longitude":"39.4687","state_id":4,"state_name":"Tigray Region","country_id":70},{"active":false,"Giataid":"789359","cityId":null,"cityName":"Addis Abeba","hotelId":789359,"hotelName":"Blue Sky hotel","address":"Near Ring Road  5,House 1403/1,Woreda,Bole Sub City,Addis Ababa,Ethiopia","phones":"+251116674743","fax":"","email":"blueskyhoteladd@gmail.com","url":"http://www.blueskyhoteladdisababa.com","countryIso2":"ET","countryName":"Ethiopia","hotelRating":"1","latitude":"9.00993","longitude":"38.8","state_id":null,"state_name":null,"country_id":null},{"active":false,"Giataid":"789360","cityId":null,"cityName":"Debre Zeyit","hotelId":789360,"hotelName":"My Family Hotel","address":"Addis Adama Expressway,Debre Zeyit,Ethiopia","phones":"","fax":"","email":"","url":"","countryIso2":"ET","countryName":"Ethiopia","hotelRating":"1","latitude":"8.74633","longitude":"38.9815","state_id":null,"state_name":null,"country_id":null},{"active":false,"Giataid":"789361","cityId":null,"cityName":"Addis Abeba","hotelId":789361,"hotelName":"Wabe Shebelle Hotel","address":"Chad Street,Lideta,Addis Ababa,Ethiopia","phones":"","fax":"","email":"","url":"","countryIso2":"ET","countryName":"Ethiopia","hotelRating":"1","latitude":"9.0043","longitude":"38.7763","state_id":null,"state_name":null,"country_id":null},{"active":false,"Giataid":"789366","cityId":null,"cityName":"Addis Abeba","hotelId":789366,"hotelName":"Melodie Hotel","address":"Kebele 08/09 Bole,PO Box  23788,1000 Addis Ababa,Ethiopia","phones":"+251118217778","fax":"","email":"melodiehoteladdis@gmail.com","url":"https://www.melodiehoteladdis.com","countryIso2":"ET","countryName":"Ethiopia","hotelRating":"1","latitude":"9.0043","longitude":"38.7763","state_id":null,"state_name":null,"country_id":null},{"active":false,"Giataid":"789367","cityId":null,"cityName":"Addis Abeba","hotelId":789367,"hotelName":"Sabon Hotel","address":"Namibia Street,1000 Addis Ababa,Ethiopia","phones":"+251116393535","fax":"","email":"info@sabonhotel.com","url":"http://www.sabonhotel.com","countryIso2":"ET","countryName":"Ethiopia","hotelRating":"1","latitude":"9.0043","longitude":"38.7763","state_id":null,"state_name":null,"country_id":null},{"active":false,"Giataid":"789368","cityId":null,"cityName":"Addis Abeba","hotelId":789368,"hotelName":"Meskerem Hotel","address":"51,Sima,Addis Ababa,Ethiopia","phones":"","fax":"","email":"","url":"","countryIso2":"ET","countryName":"Ethiopia","hotelRating":"1","latitude":"9.0043","longitude":"38.7763","state_id":null,"state_name":null,"country_id":null},{"active":false,"Giataid":"789373","cityId":null,"cityName":"Addis Abeba","hotelId":789373,"hotelName":"Hbm International Hotel","address":"Wollo Sefer Around Dandii Boru College,Kirkos,Addis Ababa,Ethiopia","phones":"","fax":"","email":"","url":"","countryIso2":"ET","countryName":"Ethiopia","hotelRating":"1","latitude":"9.0043","longitude":"38.7763","state_id":null,"state_name":null,"country_id":null},{"active":false,"Giataid":"789383","cityId":38676,"cityName":"Mek'ele","hotelId":789383,"hotelName":"Bamn Hotel","address":"Adha,1000 Mek'ele,Ethiopia","phones":"","fax":"","email":"","url":"","countryIso2":"ET","countryName":"Ethiopia","hotelRating":"1","latitude":"13.4871","longitude":"39.4687","state_id":4,"state_name":"Tigray Region","country_id":70},{"active":false,"Giataid":"789391","cityId":38671,"cityName":"Lalibela","hotelId":789391,"hotelName":"Mekanelielit Hotel","address":"Kebele 01,1000 Lalibela,Ethiopia","phones":"","fax":"","email":"","url":"","countryIso2":"ET","countryName":"Ethiopia","hotelRating":"1","latitude":"12.0286","longitude":"39.0429","state_id":3,"state_name":"Amhara Region","country_id":70},{"active":false,"Giataid":"789408","cityId":38650,"cityName":"Harar","hotelId":789408,"hotelName":"Rewda Hotel","address":"Arategna Road,Harar Shash Garage,Harer,Ethiopia","phones":"","fax":"","email":"","url":"","countryIso2":"ET","countryName":"Ethiopia","hotelRating":"1","latitude":"0","longitude":"0","state_id":7,"state_name":"Harari Region","country_id":70},{"active":false,"Giataid":"789909","cityId":null,"cityName":"Addis Abeba","hotelId":789909,"hotelName":"Magnolia Hotel","address":"Cape Verde Street,Atlas Road,Opposite to European Union,Addis Ababa,Ethiopia","phones":"","fax":"","email":"info@magnoliaaddis.com","url":"","countryIso2":"ET","countryName":"Ethiopia","hotelRating":"1","latitude":"9.0043","longitude":"38.7763","state_id":null,"state_name":null,"country_id":null},{"active":false,"Giataid":"789929","cityId":38671,"cityName":"Lalibela","hotelId":789929,"hotelName":"Mera Hotel","address":"Adebabay,1000 Lalibela,Ethiopia","phones":"","fax":"","email":"","url":"","countryIso2":"ET","countryName":"Ethiopia","hotelRating":"1","latitude":"12.0286","longitude":"39.0429","state_id":3,"state_name":"Amhara Region","country_id":70},{"active":false,"Giataid":"791395","cityId":38671,"cityName":"Lalibela","hotelId":791395,"hotelName":"Blu Lal Hotel","address":"City Centre,Lalibela,Ethiopia","phones":"","fax":"","email":"","url":"","countryIso2":"ET","countryName":"Ethiopia","hotelRating":"1","latitude":"12.0286","longitude":"39.0429","state_id":3,"state_name":"Amhara Region","country_id":70},{"active":false,"Giataid":"791408","cityId":null,"cityName":"Debre Zeyit","hotelId":791408,"hotelName":"East Gate Hotel & Amusement Park","address":"Main Road,Old Addis-Adama Road,Debre Zeyit,Ethiopia","phones":"","fax":"","email":"","url":"","countryIso2":"ET","countryName":"Ethiopia","hotelRating":"1","latitude":"8.74633","longitude":"38.9815","state_id":null,"state_name":null,"country_id":null},{"active":false,"Giataid":"792706","cityId":38642,"cityName":"Gondar","hotelId":792706,"hotelName":"AG Hotel Gondar","address":"Fasil Street,Kebele 02,Gondar City,Ethiopia","phones":"+251581260073","fax":"+251581260074","email":"reservations@aghotelgondar.com","url":"http://asfawhotel.com","countryIso2":"ET","countryName":"Ethiopia","hotelRating":"1","latitude":"12.6","longitude":"37.4667","state_id":3,"state_name":"Amhara Region","country_id":70},{"active":false,"Giataid":"795979","cityId":38597,"cityName":"Axum","hotelId":795979,"hotelName":"Setit Humera Hotel","address":"Meibale Kebele 6,1000 Axum,Ethiopia","phones":"","fax":"","email":"","url":"","countryIso2":"ET","countryName":"Ethiopia","hotelRating":"1","latitude":"14.1292","longitude":"38.7336","state_id":4,"state_name":"Tigray Region","country_id":70},{"active":false,"Giataid":"797337","cityId":null,"cityName":"Addis Abeba","hotelId":797337,"hotelName":"Giovanni Hotel Plc","address":"22 Mazoria,Near Tourist Trade Enterprise,Addis Ababa,Ethiopia","phones":"","fax":"","email":"","url":"","countryIso2":"ET","countryName":"Ethiopia","hotelRating":"1","latitude":"9.0043","longitude":"38.7763","state_id":null,"state_name":null,"country_id":null},{"active":false,"Giataid":"799798","cityId":null,"cityName":"Addis Abeba","hotelId":799798,"hotelName":"Zkaleb Hotel","address":"Djibuti Street,Addis Ababa,Ethiopia","phones":"","fax":"","email":"","url":"","countryIso2":"ET","countryName":"Ethiopia","hotelRating":"1","latitude":"9.0043","longitude":"38.7763","state_id":null,"state_name":null,"country_id":null},{"active":false,"Giataid":"802045","cityId":38598,"cityName":"Bahir Dar","hotelId":802045,"hotelName":"Bahir Dar Hotel 2","address":"Kebele 05,Adjacent to the east of St. George church traffic light,1600 Bahir Dar,Ethiopia","phones":"","fax":"","email":"","url":"","countryIso2":"ET","countryName":"Ethiopia","hotelRating":"1","latitude":"11.5932","longitude":"37.3848","state_id":3,"state_name":"Amhara Region","country_id":70},{"active":false,"Giataid":"812976","cityId":null,"cityName":"Addis Abeba","hotelId":812976,"hotelName":"Zagora Hotel","address":"Kolfe Keranio,Addis Ababa,Ethiopia","phones":"","fax":"","email":"","url":"","countryIso2":"ET","countryName":"Ethiopia","hotelRating":"1","latitude":"9.0043","longitude":"38.7763","state_id":null,"state_name":null,"country_id":null},{"active":false,"Giataid":"817497","cityId":null,"cityName":"Addis Abeba","hotelId":817497,"hotelName":"Aleph Hotel","address":"Equatorial Guinea Street,Addis Ababa,Ethiopia","phones":"","fax":"","email":"","url":"","countryIso2":"ET","countryName":"Ethiopia","hotelRating":"1","latitude":"9.0043","longitude":"38.7763","state_id":null,"state_name":null,"country_id":null},{"active":false,"Giataid":"818888","cityId":38676,"cityName":"Mek'ele","hotelId":818888,"hotelName":"Arsema Hotel","address":"Hawlti,1000 Mek'ele,Ethiopia","phones":"","fax":"","email":"","url":"","countryIso2":"ET","countryName":"Ethiopia","hotelRating":"1","latitude":"13.4871","longitude":"39.4687","state_id":4,"state_name":"Tigray Region","country_id":70},{"active":false,"Giataid":"819103","cityId":38650,"cityName":"Harar","hotelId":819103,"hotelName":"Wonderland Hotel","address":"Main Gate,Old Town,Harar 1000,Ethiopia","phones":"","fax":"","email":"","url":"","countryIso2":"ET","countryName":"Ethiopia","hotelRating":"1","latitude":"0","longitude":"0","state_id":7,"state_name":"Harari Region","country_id":70},{"active":false,"Giataid":"850475","cityId":38598,"cityName":"Bahir Dar","hotelId":850475,"hotelName":"Hareg Bahir Dar B&B","address":"Kebele 13,Opposite to Tana Flora,Bahir Dar,Ethiopia","phones":"","fax":"","email":"","url":"","countryIso2":"ET","countryName":"Ethiopia","hotelRating":"1","latitude":"11.5932","longitude":"37.3848","state_id":3,"state_name":"Amhara Region","country_id":70},{"active":false,"Giataid":"424140","cityId":null,"cityName":"Addis Abeba","hotelId":10047430,"hotelName":"Nexus Hotel","address":"Gerjy North of Bole International Airport,Ring Road,Addis Ababa,Ethiopia","phones":"+251116670067","fax":"","email":"","url":"","countryIso2":"ET","countryName":"Ethiopia","hotelRating":"4","latitude":"9.00751","longitude":"38.8057","state_id":null,"state_name":null,"country_id":null},{"active":false,"Giataid":"463210","cityId":null,"cityName":"Addis Abeba","hotelId":10048581,"hotelName":"Ag Palace Hotel","address":"Mazorea 22,Equatorial Guinae Street (Behind Central Shoa),1110 Addis Ababa,Ethiopia","phones":"+251116620456","fax":"","email":"","url":"","countryIso2":"ET","countryName":"Ethiopia","hotelRating":"3","latitude":"9.01822","longitude":"38.7918","state_id":null,"state_name":null,"country_id":null},{"active":false,"Giataid":"470922","cityId":null,"cityName":"Addis Abeba","hotelId":10048933,"hotelName":"Solo Te Hotel","address":"Yeka Sub-City,Woreda 9,160085 Addis Ababa,Ethiopia","phones":"+251116670021","fax":"","email":"","url":"","countryIso2":"ET","countryName":"Ethiopia","hotelRating":"4","latitude":"9.02376","longitude":"38.8256","state_id":null,"state_name":null,"country_id":null},{"active":false,"Giataid":"472299","cityId":38642,"cityName":"Gondar","hotelId":10049134,"hotelName":"Florida International Hotel","address":"near to University of Gondar,Maraki Campus Area,Gondar,Ethiopia","phones":"+251581112260","fax":"","email":"","url":"","countryIso2":"ET","countryName":"Ethiopia","hotelRating":"4","latitude":"12.6","longitude":"37.4667","state_id":3,"state_name":"Amhara Region","country_id":70},{"active":false,"Giataid":"472306","cityId":null,"cityName":"Addis Abeba","hotelId":10049141,"hotelName":"Reliance Hotel Apartment","address":"Bole Medhanialem Road,Bole Sub City Wereda 3,P.O.Box 1909,1110 Addis Abeba,Ethiopia","phones":"+251116672024","fax":"","email":"","url":"","countryIso2":"ET","countryName":"Ethiopia","hotelRating":"4","latitude":"8.99171","longitude":"38.7879","state_id":null,"state_name":null,"country_id":null},{"active":false,"Giataid":"549506","cityId":38642,"cityName":"Gondar","hotelId":10049185,"hotelName":"Taye Belay Hotel","address":"Kebele 03,Gondar,Ethiopia","phones":"+251913820383","fax":"","email":"","url":"","countryIso2":"ET","countryName":"Ethiopia","hotelRating":"4","latitude":"12.6114","longitude":"37.471","state_id":3,"state_name":"Amhara Region","country_id":70},{"active":false,"Giataid":"549502","cityId":null,"cityName":"Addis Abeba","hotelId":10049981,"hotelName":"Tizeze Hotel","address":"Bole-Micheal Road,Near Cuba Embassy,Addis Ababa,Ethiopia","phones":"+251116392000","fax":"","email":"","url":"","countryIso2":"ET","countryName":"Ethiopia","hotelRating":"4","latitude":"8.98521","longitude":"38.7817","state_id":null,"state_name":null,"country_id":null},{"active":false,"Giataid":"475195","cityId":null,"cityName":"Addis Abeba","hotelId":10050220,"hotelName":"Hamonah Guest House","address":"CMC Road,Addis Ababa,PO Box 16766,Addis Ababa,Ethiopia","phones":"+251116670022","fax":"","email":"","url":"","countryIso2":"ET","countryName":"Ethiopia","hotelRating":"2","latitude":"9.02279","longitude":"38.8429","state_id":null,"state_name":null,"country_id":null},{"active":false,"Giataid":"531160","cityId":null,"cityName":"Addis Abeba","hotelId":10050745,"hotelName":"Sarem International Hotel","address":"Belay Zeleke Street,,Around Semien Mazegaja,Taitu Street,Addis Ababa,Ethiopia","phones":"+251111262088","fax":"","email":"","url":"","countryIso2":"ET","countryName":"Ethiopia","hotelRating":"4","latitude":"9.05188","longitude":"38.7437","state_id":null,"state_name":null,"country_id":null},{"active":false,"Giataid":"531146","cityId":null,"cityName":"Addis Abeba","hotelId":10050998,"hotelName":"Homage Hotel","address":"African Avenue, Olympia Intersection,Kirkos Subciy, Wereda 01, House No. 070,P.O BOX 102240,Addis Ababa,Ethiopia","phones":"+251115516341","fax":"","email":"","url":"","countryIso2":"ET","countryName":"Ethiopia","hotelRating":"4","latitude":"9.00426","longitude":"38.7698","state_id":null,"state_name":null,"country_id":null},{"active":false,"Giataid":"405186","cityId":null,"cityName":"Addis Abeba","hotelId":10052179,"hotelName":"Capital Hotel & Spa","address":"Mazzoria Haile Gebre Silassie Avenue 22,Next to Ministry of Water and Energy or in front of Waryt Building,Addis Ababa,Ethiopia","phones":"+251116672100","fax":"","email":"","url":"","countryIso2":"ET","countryName":"Ethiopia","hotelRating":"5","latitude":"9.01327","longitude":"38.7799","state_id":null,"state_name":null,"country_id":null},{"active":false,"Giataid":"430879","cityId":null,"cityName":"Addis Abeba","hotelId":10052315,"hotelName":"Friendship International Hotel","address":"Africa Avenue,Opposite to Alem Building,About 200 Meters Inside,Addis Ababa,Ethiopia","phones":"+251116670202","fax":"","email":"","url":"","countryIso2":"ET","countryName":"Ethiopia","hotelRating":"4","latitude":"8.99409","longitude":"38.7848","state_id":null,"state_name":null,"country_id":null},{"active":false,"Giataid":"430881","cityId":null,"cityName":"Addis Abeba","hotelId":10053417,"hotelName":"Aphrodite International Hotel","address":"Kazanchis District,Walking Distance from UNECA main gate,9568 Addis Ababa,Ethiopia","phones":"+251115572229","fax":"","email":"","url":"","countryIso2":"ET","countryName":"Ethiopia","hotelRating":"3","latitude":"9.0135","longitude":"38.7694","state_id":null,"state_name":null,"country_id":null},{"active":false,"Giataid":"494100","cityId":null,"cityName":"Addis Abeba","hotelId":10053686,"hotelName":"Sidra International Hotel","address":"Haile G/Selassie Street,PO Box 57145,Addis Ababa,Ethiopia","phones":"+251116617777","fax":"","email":"","url":"","countryIso2":"ET","countryName":"Ethiopia","hotelRating":"4","latitude":"9.01349","longitude":"38.7967","state_id":null,"state_name":null,"country_id":null},{"active":false,"Giataid":"424138","cityId":null,"cityName":"Addis Abeba","hotelId":10054381,"hotelName":"Caravan Hotel","address":"Mike Leyland Street,Addis Ababa,Ethiopia","phones":"+251116612297","fax":"","email":"","url":"","countryIso2":"ET","countryName":"Ethiopia","hotelRating":"3","latitude":"9.01018","longitude":"38.7821","state_id":null,"state_name":null,"country_id":null},{"active":false,"Giataid":"417999","cityId":null,"cityName":"Addis Abeba","hotelId":10054964,"hotelName":"Jupiter International Hotel Bole","address":"Africa Avenue,P.O.Box: 110778,Addis Ababa,Ethiopia","phones":"+251116616969","fax":"","email":"","url":"","countryIso2":"ET","countryName":"Ethiopia","hotelRating":"4","latitude":"8.98929","longitude":"38.7856","state_id":null,"state_name":null,"country_id":null},{"active":false,"Giataid":"424139","cityId":null,"cityName":"Addis Abeba","hotelId":10055000,"hotelName":"Crown Hotel Addis","address":"Addis Ababa,P.O. Box 100135,Ethiopia","phones":"+251114391430","fax":"","email":"","url":"","countryIso2":"ET","countryName":"Ethiopia","hotelRating":"4","latitude":"8.91357","longitude":"38.7625","state_id":null,"state_name":null,"country_id":null},{"active":false,"Giataid":"462127","cityId":null,"cityName":"Addis Abeba","hotelId":10055662,"hotelName":"Trinity Hotel","address":"Infront of Bole Medhanialem Church,Holy Savior,Bole Sub City,Woreda 3,Addis Ababa,Ethiopia","phones":"+251116670095","fax":"","email":"","url":"","countryIso2":"ET","countryName":"Ethiopia","hotelRating":"3","latitude":"8.99826","longitude":"38.7869","state_id":null,"state_name":null,"country_id":null},{"active":false,"Giataid":"532734","cityId":null,"cityName":"Addis Abeba","hotelId":10055890,"hotelName":"BellE-Vue Hotel And Spa","address":"Diaspora Avenue,Yeka Hills,Addis Ababa,Ethiopia","phones":"","fax":"","email":"","url":"","countryIso2":"ET","countryName":"Ethiopia","hotelRating":"4","latitude":"9.02107","longitude":"38.802","state_id":null,"state_name":null,"country_id":null},{"active":false,"Giataid":"430882","cityId":null,"cityName":"Addis Abeba","hotelId":10056042,"hotelName":"Monarch Hotel","address":"Cameroon Street,near Edna Mall,Addis Ababa,Ethiopia","phones":"+251116672480","fax":"","email":"","url":"","countryIso2":"ET","countryName":"Ethiopia","hotelRating":"4","latitude":"8.99492","longitude":"38.7855","state_id":null,"state_name":null,"country_id":null},{"active":false,"Giataid":"463420","cityId":null,"cityName":"Addis Abeba","hotelId":10056749,"hotelName":"Nazra Hotel","address":"Gabon Street,Meskel Flower Road,Addis Ababa,Ethiopia","phones":"+251114674465","fax":"","email":"","url":"","countryIso2":"ET","countryName":"Ethiopia","hotelRating":"4","latitude":"8.99334","longitude":"38.7665","state_id":null,"state_name":null,"country_id":null},{"active":false,"Giataid":"462511","cityId":null,"cityName":"Addis Abeba","hotelId":10058622,"hotelName":"Lobelia","address":"Building 2241,Bole Sub-City,Kebele 03/05,Addis Ababa,Ethiopia","phones":"+251116673850","fax":"","email":"","url":"","countryIso2":"ET","countryName":"Ethiopia","hotelRating":"4","latitude":"8.99288","longitude":"38.7921","state_id":null,"state_name":null,"country_id":null},{"active":false,"Giataid":"540182","cityId":null,"cityName":"Addis Abeba","hotelId":10059802,"hotelName":"The Residence Suite Hotel","address":"Africa Avenue,Bole - Olympia,Addis Ababa,Ethiopia","phones":"+251115571075","fax":"","email":"","url":"","countryIso2":"ET","countryName":"Ethiopia","hotelRating":"4","latitude":"9.00457","longitude":"38.7698","state_id":null,"state_name":null,"country_id":null},{"active":false,"Giataid":"659218","cityId":null,"cityName":"Addis Abeba","hotelId":10059883,"hotelName":"Dessie Hotel","address":"Lideta 232/2,Addis Ababa,Ethiopia","phones":"","fax":"","email":"","url":"","countryIso2":"ET","countryName":"Ethiopia","hotelRating":"2","latitude":"9.00756","longitude":"38.734","state_id":null,"state_name":null,"country_id":null},{"active":false,"Giataid":"499598","cityId":null,"cityName":"Addis Abeba","hotelId":10060261,"hotelName":"Arck Hotel Addis Ababa","address":"Bob Marley Square,Road to Hayahulet,Bole sub city Woreda 05,Addis Abeba,Ethiopia","phones":"+251116181600","fax":"","email":"","url":"","countryIso2":"ET","countryName":"Ethiopia","hotelRating":"3","latitude":"8.98046","longitude":"38.7578","state_id":null,"state_name":null,"country_id":null},{"active":false,"Giataid":"408956","cityId":null,"cityName":"Addis Abeba","hotelId":10061459,"hotelName":"SarO-Maria Hotel","address":"Addis Ababa,Bole road,Bole,Ethiopia","phones":"+251116672167","fax":"","email":"","url":"","countryIso2":"ET","countryName":"Ethiopia","hotelRating":"4","latitude":"8.99436","longitude":"38.7852","state_id":null,"state_name":null,"country_id":null},{"active":false,"Giataid":"540181","cityId":null,"cityName":"Addis Abeba","hotelId":10061738,"hotelName":"Elilly International Hotel","address":"Area Kirkos Subcity 17/18,Addis Ababa,Ethiopia","phones":"+251115587777","fax":"","email":"","url":"","countryIso2":"ET","countryName":"Ethiopia","hotelRating":"5","latitude":"9.01431","longitude":"38.7692","state_id":null,"state_name":null,"country_id":null},{"active":false,"Giataid":"598984","cityId":null,"cityName":"Addis Abeba","hotelId":10064581,"hotelName":"Cyan City Hotel","address":"Addis Ababa,Ethiopia","phones":"+251116622121","fax":"","email":"","url":"","countryIso2":"ET","countryName":"Ethiopia","hotelRating":"4","latitude":"9.00479","longitude":"38.7804","state_id":null,"state_name":null,"country_id":null},{"active":false,"Giataid":"462380","cityId":38598,"cityName":"Bahir Dar","hotelId":10070459,"hotelName":"Addis Amba Hotel","address":"Kebele 17,Near to Ambaye Building,1360 Bahar Dar,Ethiopia","phones":"+251582205353","fax":"","email":"","url":"","countryIso2":"ET","countryName":"Ethiopia","hotelRating":"3","latitude":"11.5873","longitude":"37.3902","state_id":3,"state_name":"Amhara Region","country_id":70},{"active":false,"Giataid":"667678","cityId":38598,"cityName":"Bahir Dar","hotelId":10071959,"hotelName":"Abay Minch Lodge","address":"Bahir Dar,Amhara,Ethiopia","phones":"+251582181039","fax":"","email":"","url":"","countryIso2":"ET","countryName":"Ethiopia","hotelRating":"4","latitude":"11.6034","longitude":"37.3242","state_id":3,"state_name":"Amhara Region","country_id":70},{"active":false,"Giataid":"430884","cityId":null,"cityName":"Addis Abeba","hotelId":10077147,"hotelName":"Wassamar Hotel","address":"Bole/African Avenue,1.2 km from Bole International Airport,P.O. Box 512,Addis Abeba,Ethiopia","phones":"251-116-610059","fax":"251-116-610065","email":"info@wassamarhotel.com","url":"http://www.wassamarhotel.com","countryIso2":"ET","countryName":"Ethiopia","hotelRating":"4","latitude":"8.99203","longitude":"38.782","state_id":null,"state_name":null,"country_id":null},{"active":false,"Giataid":"496982","cityId":38671,"cityName":"Lalibela","hotelId":10092574,"hotelName":"Maribela Hotel","address":"P.O. Box: 80,Lalibela,Ethiopia","phones":"+251333360345","fax":"NULL","email":"NULL","url":"NULL","countryIso2":"ET","countryName":"Ethiopia","hotelRating":"3","latitude":"12.0399","longitude":"39.0372","state_id":3,"state_name":"Amhara Region","country_id":70},{"active":false,"Giataid":"515474","cityId":38671,"cityName":"Lalibela","hotelId":10094338,"hotelName":"Sora Lodge Lalibela","address":"Geterge,Foot of Asheten Mariam Mountain,PO Box 106,Lalibela,Ethiopia","phones":"+251333360255","fax":"NULL","email":"NULL","url":"NULL","countryIso2":"ET","countryName":"Ethiopia","hotelRating":"3","latitude":"12.023","longitude":"39.0388","state_id":3,"state_name":"Amhara Region","country_id":70},{"active":false,"Giataid":"522662","cityId":38676,"cityName":"Mek'ele","hotelId":10102752,"hotelName":"Planet Hotel","address":"Hawulti, In front of new stadium,Mekele,Ethiopia","phones":"+251344405660","fax":"NULL","email":"NULL","url":"NULL","countryIso2":"ET","countryName":"Ethiopia","hotelRating":"5","latitude":"13.4966","longitude":"39.4608","state_id":4,"state_name":"Tigray Region","country_id":70},{"active":false,"Giataid":"99682","cityId":38642,"cityName":"Gondar","hotelId":10119478,"hotelName":"Goha Hotel","address":"P.O.Box 182,Gondar,Ethiopia","phones":"+251581110634","fax":"NULL","email":"NULL","url":"NULL","countryIso2":"ET","countryName":"Ethiopia","hotelRating":"3","latitude":"12.6209","longitude":"37.4682","state_id":3,"state_name":"Amhara Region","country_id":70},{"active":false,"Giataid":"462391","cityId":null,"cityName":"Addis Abeba","hotelId":10139884,"hotelName":"Oasis Hotel Apartment","address":"P.o.Box 24881,Near Saint Gebriel Hospital,Bole sub city,Addis Ababa,Ethiopia","phones":"+251116672567","fax":"NULL","email":"NULL","url":"NULL","countryIso2":"ET","countryName":"Ethiopia","hotelRating":"3","latitude":"9.0103","longitude":"38.7857","state_id":null,"state_name":null,"country_id":null},{"active":false,"Giataid":"502554","cityId":null,"cityName":"Addis Abeba","hotelId":10140199,"hotelName":"Southern Addis Hotel","address":"Namibia Street,Addis Ababa,Ethiopia","phones":"+251116610505","fax":"NULL","email":"NULL","url":"NULL","countryIso2":"ET","countryName":"Ethiopia","hotelRating":"3","latitude":"8.99266","longitude":"38.7849","state_id":null,"state_name":null,"country_id":null},{"active":false,"Giataid":"529855","cityId":null,"cityName":"Addis Abeba","hotelId":10140382,"hotelName":"Washington Hotel","address":"Bole Sub City,Wereda 3 House #054,Mickyliland Street,Across the street from The European Union,1000 Addis Ababa,Ethiopia","phones":"+251116392183","fax":"NULL","email":"NULL","url":"NULL","countryIso2":"ET","countryName":"Ethiopia","hotelRating":"4","latitude":"9.00235","longitude":"38.7799","state_id":null,"state_name":null,"country_id":null},{"active":false,"Giataid":"497509","cityId":null,"cityName":"Addis Abeba","hotelId":10140436,"hotelName":"Adam's Hotel","address":"Tanzania Road,Kirkos Kefle Ketema Kebele 07,House 729,Addis Ababa,Ethiopia","phones":"+251114162072","fax":"NULL","email":"NULL","url":"NULL","countryIso2":"ET","countryName":"Ethiopia","hotelRating":"3","latitude":"8.99749","longitude":"38.7546","state_id":null,"state_name":null,"country_id":null},{"active":false,"Giataid":"432727","cityId":null,"cityName":"Addis Abeba","hotelId":10140439,"hotelName":"Addis Regency Hotel","address":"P.O.Box 21621-1000,Addis Ababa,Ethiopia","phones":"+251111550000","fax":"NULL","email":"NULL","url":"NULL","countryIso2":"ET","countryName":"Ethiopia","hotelRating":"4","latitude":"9.04176","longitude":"38.7534","state_id":null,"state_name":null,"country_id":null},{"active":false,"Giataid":"502723","cityId":null,"cityName":"Addis Abeba","hotelId":10140454,"hotelName":"Bole Skygate Hotel","address":"Bole sub city,woreda 13,1175 Addis Ababa,Ethiopia","phones":"+251116189190","fax":"NULL","email":"NULL","url":"NULL","countryIso2":"ET","countryName":"Ethiopia","hotelRating":"4","latitude":"8.98945","longitude":"38.7949","state_id":null,"state_name":null,"country_id":null},{"active":false,"Giataid":"615998","cityId":null,"cityName":"Addis Abeba","hotelId":20000923,"hotelName":"Impress Hotel","address":"Cameroon Street,Addis Ababa,Ethiopia","phones":"","fax":"","email":"","url":"","countryIso2":"ET","countryName":"Ethiopia","hotelRating":"0","latitude":"8.99483","longitude":"38.7907","state_id":null,"state_name":null,"country_id":null},{"active":false,"Giataid":"615859","cityId":38598,"cityName":"Bahir Dar","hotelId":20001020,"hotelName":"Alwaq Hotel","address":"Kebel 14,Mederoc,1387 Bahar Dar,Amhara,Ethiopia","phones":"","fax":"","email":"","url":"","countryIso2":"ET","countryName":"Ethiopia","hotelRating":"0","latitude":"11.5491","longitude":"37.3892","state_id":3,"state_name":"Amhara Region","country_id":70},{"active":false,"Giataid":"463511","cityId":null,"cityName":"Addis Abeba","hotelId":20001116,"hotelName":"Manrashiwa Hotel","address":"Asmera Road,Near The Embassy of Israel  In Front of Lame Dairy,1000 Addis Ababa,Ethiopia","phones":"+251116677370","fax":"+251116677377","email":"manrashiwahotel@gmail.com","url":"http://www.manrashiwahotel.com","countryIso2":"ET","countryName":"Ethiopia","hotelRating":"3","latitude":"9.02172","longitude":"38.8136","state_id":null,"state_name":null,"country_id":null},{"active":false,"Giataid":"188315","cityId":null,"cityName":"Addis Abeba","hotelId":20001244,"hotelName":"Ethiopia","address":"Kirkos,Addis Ababa,Ethiopia","phones":"","fax":"","email":"","url":"","countryIso2":"ET","countryName":"Ethiopia","hotelRating":"4","latitude":"9.04913","longitude":"38.7368","state_id":null,"state_name":null,"country_id":null},{"active":false,"Giataid":"99684","cityId":38597,"cityName":"Axum","hotelId":20001413,"hotelName":"Remhai Hotel","address":"P.O. Box 219,Axum,Ethiopia","phones":"+25134751501","fax":"+25134752894","email":"remhhot@telecom.net.et","url":"http://www.remhai-hotel.com.et/","countryIso2":"ET","countryName":"Ethiopia","hotelRating":"3","latitude":"14.1261","longitude":"38.7344","state_id":4,"state_name":"Tigray Region","country_id":70},{"active":false,"Giataid":"615870","cityId":38671,"cityName":"Lalibela","hotelId":20001599,"hotelName":"Cliff Edge Hotel Lalibela","address":"Kebele 01,Lalibela,Ethiopia","phones":"","fax":"","email":"","url":"","countryIso2":"ET","countryName":"Ethiopia","hotelRating":"0","latitude":"12.0394","longitude":"39.0565","state_id":3,"state_name":"Amhara Region","country_id":70},{"active":false,"Giataid":"99687","cityId":38671,"cityName":"Lalibela","hotelId":20001786,"hotelName":"LAL Hotels & Spa","address":"Geterge Street,Kebelle 02,62964 Lalibela,North Wollo Zone,Amhara Region,Ethiopia","phones":"+251911948154","fax":"+251911948154","email":"info@lalhotelsandspa.com","url":"http://lalhotelsandspa.com/","countryIso2":"ET","countryName":"Ethiopia","hotelRating":"3","latitude":"12.0274","longitude":"39.0409","state_id":3,"state_name":"Amhara Region","country_id":70},{"active":false,"Giataid":"589032","cityId":null,"cityName":"Addis Abeba","hotelId":20001994,"hotelName":"Kebron Guest House","address":"Nifas Silk Lafto,1000 Addis Ababa,Ethiopia","phones":"+251911213134","fax":"","email":"info@kebronguesthouse.com","url":"http://www.kebronguesthouse.com/","countryIso2":"ET","countryName":"Ethiopia","hotelRating":"0","latitude":"8.94705","longitude":"38.7419","state_id":null,"state_name":null,"country_id":null},{"active":false,"Giataid":"615867","cityId":38598,"cityName":"Bahir Dar","hotelId":20002392,"hotelName":"Kitsel Hotel","address":"Belalye Zeleke Road,Bahir Dar,Ethiopia","phones":"","fax":"","email":"","url":"","countryIso2":"ET","countryName":"Ethiopia","hotelRating":"0","latitude":"11.5887","longitude":"37.3748","state_id":3,"state_name":"Amhara Region","country_id":70},{"active":false,"Giataid":"662015","cityId":38598,"cityName":"Bahir Dar","hotelId":20002581,"hotelName":"Jacaranda Hotel","address":"3 Bahir Dar,Opposite Bahir Dar Old Stadium,Bahir Dar,Ethiopia","phones":"+251582209899","fax":"","email":"contacts@jacarandahotelbahirdar.com","url":"http://jacarandahotelbahirdar.com","countryIso2":"ET","countryName":"Ethiopia","hotelRating":"0","latitude":"11.5999","longitude":"37.381","state_id":3,"state_name":"Amhara Region","country_id":70},{"active":false,"Giataid":"615864","cityId":null,"cityName":"Addis Abeba","hotelId":20002819,"hotelName":"Bela Addis Hotel","address":"Jomo Medhanialem Church,Addis Ababa,Ethiopia","phones":"","fax":"","email":"","url":"","countryIso2":"ET","countryName":"Ethiopia","hotelRating":"0","latitude":"8.95253","longitude":"38.7158","state_id":null,"state_name":null,"country_id":null},{"active":false,"Giataid":"122658","cityId":null,"cityName":"Addis Abeba","hotelId":20003039,"hotelName":"Kings","address":"Addis Abeba,Ethiopia","phones":"","fax":"","email":"","url":"http://www.kingshotelethiopia.com","countryIso2":"ET","countryName":"Ethiopia","hotelRating":"3","latitude":"8.9806","longitude":"38.7578","state_id":null,"state_name":null,"country_id":null},{"active":false,"Giataid":"724342","cityId":38598,"cityName":"Bahir Dar","hotelId":20003245,"hotelName":"Vistana Hotel","address":"Bahirdar Kebele 04 Floor 6,2008 Bahir Dar,Ethiopia","phones":"","fax":"","email":"","url":"","countryIso2":"ET","countryName":"Ethiopia","hotelRating":"3","latitude":"11.5924","longitude":"37.3868","state_id":3,"state_name":"Amhara Region","country_id":70},{"active":false,"Giataid":"659219","cityId":null,"cityName":"Addis Abeba","hotelId":20003464,"hotelName":"Zeist Lodge","address":"Bole Rwanda,Addis Ababa,Ethiopia","phones":"+251116262639","fax":"+251116262610","email":"info@zeistlodge.com","url":"http://www.zeistlodge.com","countryIso2":"ET","countryName":"Ethiopia","hotelRating":"3","latitude":"8.98448","longitude":"38.7758","state_id":null,"state_name":null,"country_id":null},{"active":false,"Giataid":"589399","cityId":null,"cityName":"Addis Abeba","hotelId":20003850,"hotelName":"Kenenisa Hotel","address":"Cameroon Street,1000 Addis Ababa,Ethiopia","phones":"+251937981111","fax":"","email":"stay@kenenisahotel.com","url":"http://kenenisahotel.com/sportsresort/","countryIso2":"ET","countryName":"Ethiopia","hotelRating":"0","latitude":"8.99416","longitude":"38.7898","state_id":null,"state_name":null,"country_id":null},{"active":false,"Giataid":"380163","cityId":null,"cityName":"Addis Abeba","hotelId":20004202,"hotelName":"Archi Hotel","address":"Kebele 17,Yeka sub-city,Addis Ababa,Ethiopia","phones":"","fax":"","email":"","url":"","countryIso2":"ET","countryName":"Ethiopia","hotelRating":"3","latitude":"9.01963","longitude":"38.8022","state_id":null,"state_name":null,"country_id":null},{"active":false,"Giataid":"615988","cityId":null,"cityName":"Addis Abeba","hotelId":20004577,"hotelName":"Astara Hotel","address":"Debrezeit Road,Addis Ababa,Ethiopia","phones":"","fax":"","email":"","url":"","countryIso2":"ET","countryName":"Ethiopia","hotelRating":"0","latitude":"8.95765","longitude":"38.7642","state_id":null,"state_name":null,"country_id":null},{"active":false,"Giataid":"491086","cityId":null,"cityName":"Addis Abeba","hotelId":20004727,"hotelName":"Keba Guest House","address":"Comoros Street,Yeka,4643 Addis Ababa,Ethiopia","phones":"","fax":"","email":"","url":"","countryIso2":"ET","countryName":"Ethiopia","hotelRating":"2","latitude":"9.02458","longitude":"38.7906","state_id":null,"state_name":null,"country_id":null},{"active":false,"Giataid":"615831","cityId":null,"cityName":"Addis Abeba","hotelId":20004916,"hotelName":"Wudasie Castle Hotel","address":"Mickey Leland Street,Addis Ababa,Ethiopia","phones":"","fax":"","email":"","url":"","countryIso2":"ET","countryName":"Ethiopia","hotelRating":"3","latitude":"9.00909","longitude":"38.7808","state_id":null,"state_name":null,"country_id":null},{"active":false,"Giataid":"655269","cityId":null,"cityName":"Addis Abeba","hotelId":20005118,"hotelName":"Sidama Lodge","address":"Cape Verde Street,Bole Sub City,Addis Ababa,Ethiopia","phones":"+251116187946","fax":"+251116187960","email":"manager@sidamalodge.net","url":"http://sidamalodge.net","countryIso2":"ET","countryName":"Ethiopia","hotelRating":"0","latitude":"9.0043","longitude":"38.7763","state_id":null,"state_name":null,"country_id":null},{"active":false,"Giataid":"99685","cityId":38597,"cityName":"Axum","hotelId":20005299,"hotelName":"Yeha Hotel Axum","address":"Kebele 03,P.O.Box 71,Axum,Tigray,Ethiopia","phones":"+251347752379","fax":"+251347752382","email":"info@yehahotel.com","url":"","countryIso2":"ET","countryName":"Ethiopia","hotelRating":"3","latitude":"14.1323","longitude":"38.7223","state_id":4,"state_name":"Tigray Region","country_id":70},{"active":false,"Giataid":"122646","cityId":null,"cityName":"Addis Abeba","hotelId":20005623,"hotelName":"Addis View","address":"Arada Sub City,K. 13/14, 319,P.O. Box 1485,1110 Addis Ababa,Ethiopia","phones":"+251111249766","fax":"+251111249765","email":"addisview@ethionet.et","url":"http://addisviewhotel.com","countryIso2":"ET","countryName":"Ethiopia","hotelRating":"3","latitude":"8.9806","longitude":"38.7578","state_id":null,"state_name":null,"country_id":null},{"active":false,"Giataid":"615847","cityId":38671,"cityName":"Lalibela","hotelId":20005844,"hotelName":"Hotel Yimreha","address":"Lalibela City Centre,Lalibela,Ethiopia","phones":"","fax":"","email":"","url":"","countryIso2":"ET","countryName":"Ethiopia","hotelRating":"0","latitude":"12.0401","longitude":"39.0403","state_id":3,"state_name":"Amhara Region","country_id":70},{"active":false,"Giataid":"615857","cityId":38671,"cityName":"Lalibela","hotelId":20006023,"hotelName":"Bete Abraham Hotel","address":"Geterge Street,Kebelle 02,Lalibela,Ethiopia","phones":"","fax":"","email":"","url":"","countryIso2":"ET","countryName":"Ethiopia","hotelRating":"0","latitude":"12.0293","longitude":"39.0429","state_id":3,"state_name":"Amhara Region","country_id":70},{"active":false,"Giataid":"99679","cityId":38598,"cityName":"Bahir Dar","hotelId":20006174,"hotelName":"Tana Hotel","address":"Kebele 3,78 Bahir Dar,Lake Tana,Bahar Dar,Ethiopia","phones":"+251582200554","fax":"+251582202042","email":"","url":"","countryIso2":"ET","countryName":"Ethiopia","hotelRating":"3","latitude":"11.6037","longitude":"37.3945","state_id":3,"state_name":"Amhara Region","country_id":70},{"active":false,"Giataid":"514314","cityId":null,"cityName":"Addis Abeba","hotelId":20006499,"hotelName":"Debredamo Hotel","address":"22 Mazoria Haile Gebre Selassie Road,Addis Ababa,Ethiopia","phones":"+251116612630","fax":"+251116622920","email":"reservation@debredamohotel.com","url":"http://www.debredamohotel.com","countryIso2":"ET","countryName":"Ethiopia","hotelRating":"4","latitude":"9.01556","longitude":"38.7852","state_id":null,"state_name":null,"country_id":null},{"active":false,"Giataid":"667685","cityId":null,"cityName":"Adigrat","hotelId":20006848,"hotelName":"Agoro Lodge","address":"Kebelle Bukot,Road Adrigat-Mekelle,Adrigat,Misraqawi,Tigray,Ethiopia","phones":"+251348450202","fax":"","email":"agorolodge@gmail.com","url":"http://www.agorolodge.com","countryIso2":"ET","countryName":"Ethiopia","hotelRating":"0","latitude":"14.2779","longitude":"39.4603","state_id":null,"state_name":null,"country_id":null},{"active":false,"Giataid":"122663","cityId":38671,"cityName":"Lalibela","hotelId":20007191,"hotelName":"Seven Olives","address":"PO Box37,Lalibela,Wollo,Ethiopia","phones":"+251333360020","fax":"+251333361212","email":"info@sevenoliveshotel.com","url":"","countryIso2":"ET","countryName":"Ethiopia","hotelRating":"1","latitude":"12.0309","longitude":"39.0476","state_id":3,"state_name":"Amhara Region","country_id":70},{"active":false,"Giataid":"662024","cityId":null,"cityName":"Addis Abeba","hotelId":20007655,"hotelName":"Bow Hotel B&B","address":"#211 Woreda 02,close to Gabon Street,Kirkos,Addis Ababa,Ethiopia","phones":"+251114168334","fax":"","email":"info@bowaddis.com","url":"http://www.bowaddis.com/","countryIso2":"ET","countryName":"Ethiopia","hotelRating":"0","latitude":"8.9981","longitude":"38.765","state_id":null,"state_name":null,"country_id":null},{"active":false,"Giataid":"724847","cityId":38642,"cityName":"Gondar","hotelId":20007806,"hotelName":"Mayleko Lodge","address":"Main Road,Gondar,Ethiopia","phones":"","fax":"","email":"reservation@maylekolodge.net","url":"http://maylekolodge.net","countryIso2":"ET","countryName":"Ethiopia","hotelRating":"0","latitude":"12.6","longitude":"37.4667","state_id":3,"state_name":"Amhara Region","country_id":70},{"active":false,"Giataid":"570658","cityId":null,"cityName":"Addis Abeba","hotelId":20007975,"hotelName":"Ye-Afoli International Hotel","address":"Bole Rwanda Street,Bole Subcity,Wereda 02,Addis Ababa,Ethiopia","phones":"","fax":"","email":"","url":"","countryIso2":"ET","countryName":"Ethiopia","hotelRating":"3","latitude":"8.98896","longitude":"38.7793","state_id":null,"state_name":null,"country_id":null},{"active":false,"Giataid":"301300","cityId":null,"cityName":"Addis Abeba","hotelId":20008122,"hotelName":"Yaya Africa Athletics Village","address":"Weserbi Street,Gergis area,Addis Abeba,Ethiopia","phones":"+251118961346","fax":"","email":"info@yayavillage.com","url":"http://yayavillage.com","countryIso2":"ET","countryName":"Ethiopia","hotelRating":"4","latitude":"9.10434","longitude":"38.71","state_id":null,"state_name":null,"country_id":null},{"active":false,"Giataid":"99681","cityId":38598,"cityName":"Bahir Dar","hotelId":20008274,"hotelName":"Summerland Hotel","address":"Main Road,PO Box 1407,Bahir Dar,Ethiopia","phones":"+251918141268","fax":"","email":"","url":"","countryIso2":"ET","countryName":"Ethiopia","hotelRating":"0","latitude":"11.5945","longitude":"37.3918","state_id":3,"state_name":"Amhara Region","country_id":70},{"active":false,"Giataid":"463332","cityId":null,"cityName":"Addis Abeba","hotelId":20008352,"hotelName":"Addissinia Hotel","address":"Djibouti Street House 172,Bole,Woreda 03,Addis Ababa,Ethiopia","phones":"+251116623634","fax":"+251116627002","email":"info@addissiniahotel.com","url":"http://www.addissiniahotel.com","countryIso2":"ET","countryName":"Ethiopia","hotelRating":"4","latitude":"9.00423","longitude":"38.789","state_id":null,"state_name":null,"country_id":null},