[{"active":false,"Giataid":"221433","cityId":null,"cityName":"Dakhla (Dajla)","hotelId":221433,"hotelName":"Calipau Sahara","address":"Km 5 Avenue El Walae,73000 Dakhla,Western Sahara","phones":"+212661191634","fax":"","email":"","url":"","countryIso2":"EH","countryName":"Western Sahara","hotelRating":"4","latitude":"23.749","longitude":"-15.9089","state_id":null,"state_name":null,"country_id":null},{"active":false,"Giataid":"239897","cityId":null,"cityName":"Dakhla (Dajla)","hotelId":239897,"hotelName":"Bab Al Bahar Hotel & Spa","address":"Avenue Mohamed V,Dakhla 73000,Western Sahara","phones":"+212528931440","fax":"+212528931443","email":"","url":"http://book.bestwestern.com/bestwestern/MA/Dakhla-hotels/BEST-WESTERN-Bab-Al-Bahar/Hotel-Overview.do?propertyCode=93687&amp;group=false&amp;disablenav=false&amp;hideProgressBar=false&amp;photoCategory=HOME","countryIso2":"EH","countryName":"Western Sahara","hotelRating":"4","latitude":"23.6935","longitude":"-15.9339","state_id":null,"state_name":null,"country_id":null},{"active":false,"Giataid":"239973","cityId":null,"cityName":"Dakhla (Dajla)","hotelId":239973,"hotelName":"Sahara Regency","address":"Av.El Walae,Dakhla,Western Sahara","phones":"+212528931666","fax":"+212528930006","email":"sahararegency@yahoo.fr","url":"http://www.sahararegency.com","countryIso2":"EH","countryName":"Western Sahara","hotelRating":"4","latitude":"23.7021","longitude":"-15.9282","state_id":null,"state_name":null,"country_id":null},{"active":false,"Giataid":"406347","cityId":null,"cityName":"El Aai?n","hotelId":406347,"hotelName":"Hotel Salwan","address":"60 Bloc C,Hay Mly Rachid Route,Es Smara,70000 Laayoune,Western Sahara","phones":"","fax":"","email":"","url":"","countryIso2":"EH","countryName":"Western Sahara","hotelRating":"3","latitude":"27.1253","longitude":"-13.1625","state_id":null,"state_name":null,"country_id":null},{"active":false,"Giataid":"453600","cityId":null,"cityName":"El Aai?n","hotelId":453600,"hotelName":"Hotel Nagjir Ville","address":"","phones":"","fax":"","email":"","url":"","countryIso2":"EH","countryName":"Western Sahara","hotelRating":"4","latitude":"27.1501","longitude":"-13.1986","state_id":null,"state_name":null,"country_id":null},{"active":false,"Giataid":"466718","cityId":67064,"cityName":"Aousserd","hotelId":466718,"hotelName":"Hotel Barbas","address":"Lamhairiz Aousserd,73000,Western Sahara","phones":"","fax":"","email":"","url":"","countryIso2":"EH","countryName":"Western Sahara","hotelRating":"2","latitude":"0","longitude":"0","state_id":3319,"state_name":"Oued Ed-Dahab (EH)","country_id":149},{"active":false,"Giataid":"471392","cityId":null,"cityName":"El Aai?n","hotelId":471392,"hotelName":"Hotel Emilio Moretti","address":"","phones":"","fax":"","email":"","url":"","countryIso2":"EH","countryName":"Western Sahara","hotelRating":"4","latitude":"27.1529","longitude":"-13.208","state_id":null,"state_name":null,"country_id":null},{"active":false,"Giataid":"473209","cityId":null,"cityName":"El Aai?n","hotelId":473209,"hotelName":"Hotel Grande Gare","address":"Boulevard Sidi Bouya Rue Jaber,73000 Laayoune (El Aaiaun),Western Sahara","phones":"","fax":"","email":"","url":"http://www.letsbookhotel.com/fr/morocco/laayoune/hotel/hotel-grande-gare.aspx","countryIso2":"EH","countryName":"Western Sahara","hotelRating":"1","latitude":"27.1501","longitude":"-13.1987","state_id":null,"state_name":null,"country_id":null},{"active":false,"Giataid":"508485","cityId":null,"cityName":"Dakhla (Dajla)","hotelId":508485,"hotelName":"Hotel Tahiti","address":"13 Boulevard Mohamed Bahnini,73000 Dakhla,Western Sahara","phones":"","fax":"","email":"","url":"","countryIso2":"EH","countryName":"Western Sahara","hotelRating":"3","latitude":"23.6894","longitude":"-15.943","state_id":null,"state_name":null,"country_id":null},{"active":false,"Giataid":"508487","cityId":null,"cityName":"Dakhla (Dajla)","hotelId":508487,"hotelName":"Zenith Dakhla","address":"Dakhla Lagoon,73000 Dakhla,Western Sahara","phones":"+212653624584","fax":"","email":"contact@zenith-dakhla.com","url":"http://www.zenith-dakhla.com/index.html","countryIso2":"EH","countryName":"Western Sahara","hotelRating":"3","latitude":"23.7642","longitude":"-15.8862","state_id":null,"state_name":null,"country_id":null},{"active":false,"Giataid":"508505","cityId":null,"cityName":"El Aai?n","hotelId":508505,"hotelName":"Al Massira","address":"Avenue De La Meque,El Aaiun 70000,Western Sahara","phones":"","fax":"","email":"","url":"","countryIso2":"EH","countryName":"Western Sahara","hotelRating":"4","latitude":"27.1563","longitude":"-13.2015","state_id":null,"state_name":null,"country_id":null},{"active":false,"Giataid":"622398","cityId":null,"cityName":"El Aai?n","hotelId":622398,"hotelName":"Oscar Hotel","address":"38 Avenue Prince Moulay Abdallah,70000 Laayoune,Western Sahara","phones":"","fax":"","email":"","url":"","countryIso2":"EH","countryName":"Western Sahara","hotelRating":"1","latitude":"27.1574","longitude":"-13.1998","state_id":null,"state_name":null,"country_id":null},{"active":false,"Giataid":"622472","cityId":null,"cityName":"El Aai?n","hotelId":622472,"hotelName":"Hotel Parador","address":"Avenue Oukba Ibn Nafiaa,70000 Laayoune,Western Sahara","phones":"","fax":"","email":"","url":"","countryIso2":"EH","countryName":"Western Sahara","hotelRating":"1","latitude":"27.1501","longitude":"-13.1987","state_id":null,"state_name":null,"country_id":null},{"active":false,"Giataid":"634092","cityId":null,"cityName":"Dakhla (Dajla)","hotelId":634092,"hotelName":"Dakhla Spirit Lagoon Cam","address":"Km 26 El Argoub Dakhla,73000 Dakhla,Western Sahara","phones":"+212661661863","fax":"","email":"info@dakhlaspirit.com","url":"http://www.dakhlaspirit.com/lagoon-camp/","countryIso2":"EH","countryName":"Western Sahara","hotelRating":"1","latitude":"23.7642","longitude":"-15.8862","state_id":null,"state_name":null,"country_id":null},{"active":false,"Giataid":"634095","cityId":null,"cityName":"Dakhla (Dajla)","hotelId":634095,"hotelName":"Dakhla Spirit Surf House","address":"C26 Quartier Al Walla Kassam 1,73000 Dakhla,Western Sahara","phones":"+212661661863","fax":"","email":"info@dakhlaspirit.com","url":"http://www.dakhlaspirit.com/surf-house/","countryIso2":"EH","countryName":"Western Sahara","hotelRating":"1","latitude":"23.7642","longitude":"-15.8862","state_id":null,"state_name":null,"country_id":null},{"active":false,"Giataid":"649755","cityId":null,"cityName":"Dakhla (Dajla)","hotelId":649755,"hotelName":"Hotel Doumss","address":"Avenue Al Walaa,73000 Dakhla,Dakhla-Oued Ed Dahab,Sahara occidental,Western Sahara","phones":"+212528898046","fax":"+212528898045","email":"hoteldoumss@hotmail.com","url":"http://www.hoteldoumss.ma","countryIso2":"EH","countryName":"Western Sahara","hotelRating":"1","latitude":"23.7077","longitude":"-15.9259","state_id":null,"state_name":null,"country_id":null},{"active":false,"Giataid":"678053","cityId":null,"cityName":"Dakhla (Dajla)","hotelId":678053,"hotelName":"Dar Dakhla","address":"27 Avenue Mohamed V,Boulevard Mohamed V,73000 Dakhla,Western Sahara","phones":"","fax":"","email":"","url":"","countryIso2":"EH","countryName":"Western Sahara","hotelRating":"3","latitude":"23.7008","longitude":"-15.9266","state_id":null,"state_name":null,"country_id":null},{"active":false,"Giataid":"678497","cityId":null,"cityName":"Dakhla (Dajla)","hotelId":678497,"hotelName":"Dar Rio Oro","address":"Boulevard Mohamed V,73000 Dakhla,Western Sahara","phones":"+212655821360","fax":"","email":"","url":"http://www.darriooro.com","countryIso2":"EH","countryName":"Western Sahara","hotelRating":"1","latitude":"23.7032","longitude":"-15.9256","state_id":null,"state_name":null,"country_id":null},{"active":false,"Giataid":"687307","cityId":null,"cityName":"Dakhla (Dajla)","hotelId":687307,"hotelName":"Dakhla Attitude Hotel","address":"11 Avenue Al Moukawama,BP41 Ad-Dakhla,Dakhla-Oued Ed Dahab,Western Sahara","phones":"+212661835010","fax":"","email":"booking@dakhla-attitude.ma","url":"http://dakhla-attitude.ma","countryIso2":"EH","countryName":"Western Sahara","hotelRating":"3","latitude":"23.8937","longitude":"-15.7712","state_id":null,"state_name":null,"country_id":null},{"active":false,"Giataid":"690104","cityId":null,"cityName":"Dakhla (Dajla)","hotelId":690104,"hotelName":"Residence Malak Ikamati","address":"Lot B52 - 54 Quartier El Kassam,73000 Dakhla,Western Sahara,Western Sahara","phones":"","fax":"","email":"","url":"","countryIso2":"EH","countryName":"Western Sahara","hotelRating":"3","latitude":"23.733","longitude":"-15.9177","state_id":null,"state_name":null,"country_id":null},{"active":false,"Giataid":"705802","cityId":null,"cityName":"Dakhla (Dajla)","hotelId":705802,"hotelName":"West Point Dakhla","address":"Ad-Dakhla,Westsahara,Western Sahara","phones":"+212537864467","fax":"","email":"booking@westpointdakhla.ma","url":"http://www.westpointdakhla.com","countryIso2":"EH","countryName":"Western Sahara","hotelRating":"3","latitude":"23.7679","longitude":"-15.9248","state_id":null,"state_name":null,"country_id":null},{"active":false,"Giataid":"706125","cityId":null,"cityName":"Dakhla (Dajla)","hotelId":706125,"hotelName":"Hotel Imperial Playa","address":"Avenue Mohammed V,Quartier Mly Rachid,73000 Dakhla,Western Sahara,Western Sahara","phones":"","fax":"","email":"","url":"","countryIso2":"EH","countryName":"Western Sahara","hotelRating":"2","latitude":"23.7075","longitude":"-15.9238","state_id":null,"state_name":null,"country_id":null},{"active":false,"Giataid":"717042","cityId":null,"cityName":"Dakhla (Dajla)","hotelId":717042,"hotelName":"Residence Sahel","address":"Avenue Oqba Ibn Nafiaa No. 48","phones":"","fax":"","email":"","url":"","countryIso2":"EH","countryName":"Western Sahara","hotelRating":"3","latitude":"23.7349","longitude":"-15.9154","state_id":null,"state_name":null,"country_id":null},{"active":false,"Giataid":"717177","cityId":null,"cityName":"Dakhla (Dajla)","hotelId":717177,"hotelName":"Residence Marhaba","address":"8 Avenue Ahmed Ben Chakroune,Hay Massira 2,73000 Dakhla,Western Sahara","phones":"","fax":"","email":"","url":"","countryIso2":"EH","countryName":"Western Sahara","hotelRating":"3","latitude":"23.6905","longitude":"-15.9391","state_id":null,"state_name":null,"country_id":null},{"active":false,"Giataid":"742049","cityId":null,"cityName":"Dakhla (Dajla)","hotelId":742049,"hotelName":"Dakhla Club Hotel & Spa","address":"Point De Dragon PK 28,73000 Dakhla,Western Sahara","phones":"","fax":"","email":"direction@dakhlaclub.com","url":"http://www.dakhlaclub.com","countryIso2":"EH","countryName":"Western Sahara","hotelRating":"4","latitude":"23.7642","longitude":"-15.8862","state_id":null,"state_name":null,"country_id":null},{"active":false,"Giataid":"742715","cityId":null,"cityName":"Dakhla (Dajla)","hotelId":742715,"hotelName":"Residence Annasime","address":"Boulevard Mohamed V,Hay Moulay Rachid,73000 Dakhla,Western Sahara,Western Sahara","phones":"","fax":"","email":"","url":"","countryIso2":"EH","countryName":"Western Sahara","hotelRating":"3","latitude":"23.7642","longitude":"-15.8862","state_id":null,"state_name":null,"country_id":null},{"active":false,"Giataid":"744485","cityId":null,"cityName":"Dakhla (Dajla)","hotelId":744485,"hotelName":"Dakhla Camp","address":"Pk 28 Trouke,Vers Dakhla,73000 Dakhla,Western Sahara","phones":"","fax":"","email":"booking@dakhlacamp.com","url":"http://www.dakhlacamp.com/","countryIso2":"EH","countryName":"Western Sahara","hotelRating":"2","latitude":"23.7642","longitude":"-15.8862","state_id":null,"state_name":null,"country_id":null},{"active":false,"Giataid":"755105","cityId":null,"cityName":"Dakhla (Dajla)","hotelId":755105,"hotelName":"Dakhla Kitesurf World","address":"Pk 26 El Aargoub Dakhla,73000 Dakhla,Western Sahara","phones":"","fax":"","email":"","url":"","countryIso2":"EH","countryName":"Western Sahara","hotelRating":"2","latitude":"23.7642","longitude":"-15.8862","state_id":null,"state_name":null,"country_id":null},{"active":false,"Giataid":"756082","cityId":null,"cityName":"Dakhla (Dajla)","hotelId":756082,"hotelName":"Hotel Buenavista","address":"Boulevard Mohammed V,73000 Ad-Dakhla,Province of Oued Ed-Dahab Lagouira,Western Sahara","phones":"+212528930063","fax":"","email":"hotelbuenavista.dakhla@gmail.com","url":"http://www.hotel-buenavista-dakhla.com/.index.html","countryIso2":"EH","countryName":"Western Sahara","hotelRating":"4","latitude":"23.7642","longitude":"-15.8862","state_id":null,"state_name":null,"country_id":null},{"active":false,"Giataid":"797087","cityId":null,"cityName":"Dakhla (Dajla)","hotelId":797087,"hotelName":"Hotel Albaraka","address":"Avenue Allal Ben Abdellah,73000 Dakhla,Western Sahara","phones":"+212528934744","fax":"","email":"hotelalbarakadakhla@gmail.com","url":"http://www.hotelalbaraka.com","countryIso2":"EH","countryName":"Western Sahara","hotelRating":"1","latitude":"23.7642","longitude":"-15.8862","state_id":null,"state_name":null,"country_id":null},{"active":false,"Giataid":"805867","cityId":null,"cityName":"Dakhla (Dajla)","hotelId":805867,"hotelName":"Hostel Imlili","address":"Avenue Imlili,73000 Dakhla,Western Sahara","phones":"","fax":"","email":"","url":"","countryIso2":"EH","countryName":"Western Sahara","hotelRating":"1","latitude":"23.7642","longitude":"-15.8862","state_id":null,"state_name":null,"country_id":null},{"active":false,"Giataid":"812066","cityId":null,"cityName":"El Aai?n","hotelId":812066,"hotelName":"Hotel Rimal Sahara","address":"Rue Ibn Battouta,Hay El Kassam,70000 Laayoune,Western Sahara","phones":"","fax":"","email":"","url":"","countryIso2":"EH","countryName":"Western Sahara","hotelRating":"1","latitude":"27.1501","longitude":"-13.1987","state_id":null,"state_name":null,"country_id":null},{"active":false,"Giataid":"842538","cityId":null,"cityName":"Dakhla (Dajla)","hotelId":842538,"hotelName":"PK25","address":"Ad-Dakhla,Westsahara,Western Sahara","phones":"+212537864505","fax":"","email":"Bookingpk25@dakhla-attitude.com","url":"https://www.dakhlapk25.com","countryIso2":"EH","countryName":"Western Sahara","hotelRating":"1","latitude":"23.7642","longitude":"-15.8862","state_id":null,"state_name":null,"country_id":null}]