[{"active":false,"Giataid":"135904","cityId":53294,"cityName":"Tripoli","hotelId":135904,"hotelName":"Ancient Zumit","address":"","phones":"","fax":"","email":"","url":"","countryIso2":"LY","countryName":"Libya","hotelRating":"4","latitude":"32.8849","longitude":"13.1762","state_id":2119,"state_name":"Peloponnese Region","country_id":85},{"active":false,"Giataid":"229254","cityId":53294,"cityName":"Tripoli","hotelId":229254,"hotelName":"Al Waddan","address":"Dahra,Tripoli,Libya","phones":"+218213330044","fax":"+218213330041","email":"sales@alwaddan.com.ly","url":"http://www.alwaddanhotel.com/","countryIso2":"LY","countryName":"Libya","hotelRating":"5","latitude":"32.8937","longitude":"13.1915","state_id":2119,"state_name":"Peloponnese Region","country_id":85},{"active":false,"Giataid":"229255","cityId":53294,"cityName":"Tripoli","hotelId":229255,"hotelName":"Radisson Blu Al Mahary","address":"Al Fatah Street,The Corniche,Tripoli,Libya","phones":"+218213407878","fax":"+218213407888","email":"info.tripoli@radissonblu.com","url":"http://www.radissonblu.com/hotel-tripoli","countryIso2":"LY","countryName":"Libya","hotelRating":"5","latitude":"32.8965","longitude":"13.1976","state_id":2119,"state_name":"Peloponnese Region","country_id":85},{"active":false,"Giataid":"424693","cityId":53294,"cityName":"Tripoli","hotelId":424693,"hotelName":"Haroon Hotel","address":"","phones":"","fax":"","email":"","url":"","countryIso2":"LY","countryName":"Libya","hotelRating":"1","latitude":"32.8849","longitude":"13.1762","state_id":2119,"state_name":"Peloponnese Region","country_id":85},{"active":false,"Giataid":"450598","cityId":53294,"cityName":"Tripoli","hotelId":450598,"hotelName":"Plasma Hotel Tripoli","address":"Omar Almoktar Street,Tripoli,Libya","phones":"","fax":"","email":"","url":"","countryIso2":"LY","countryName":"Libya","hotelRating":"4","latitude":"32.8857","longitude":"13.1639","state_id":2119,"state_name":"Peloponnese Region","country_id":85},{"active":false,"Giataid":"542881","cityId":53294,"cityName":"Tripoli","hotelId":542881,"hotelName":"Four Seasons 1","address":"Omar El Mokhtar Street,Tripoli,Libya","phones":"+218213332151","fax":"+218213340164","email":"info@fourseasons.com.ly","url":"http://www.fourseasons.com.ly","countryIso2":"LY","countryName":"Libya","hotelRating":"4","latitude":"32.8908","longitude":"13.1735","state_id":2119,"state_name":"Peloponnese Region","country_id":85},{"active":false,"Giataid":"298697","cityId":63198,"cityName":"Sabha","hotelId":20000877,"hotelName":"Akakus Magic Lodges","address":"400 km South-west of Sehba Airport,Libya","phones":"+218213408355","fax":"+218213408356","email":"info@magic-dmc.com","url":"http://www.magic-lodges.biz/en/lodges","countryIso2":"LY","countryName":"Libya","hotelRating":"0","latitude":"27.0365","longitude":"14.429","state_id":962,"state_name":"Mafraq Governorate","country_id":111},{"active":false,"Giataid":"623473","cityId":53294,"cityName":"Tripoli","hotelId":20000944,"hotelName":"An-Naher Hotel","address":"Tariq Street,Next To Aborgiba Mosque,Tripoli,Libya","phones":"+218214446896","fax":"","email":"","url":"","countryIso2":"LY","countryName":"Libya","hotelRating":"2","latitude":"32.8935","longitude":"13.1708","state_id":2119,"state_name":"Peloponnese Region","country_id":85},{"active":false,"Giataid":"642949","cityId":53294,"cityName":"Tripoli","hotelId":20001046,"hotelName":"Sahara Libya Hotel","address":"Omar Mokhtar Street,Opposite of Infant Hospital,Tripoli,Libya","phones":"","fax":"","email":"","url":"","countryIso2":"LY","countryName":"Libya","hotelRating":"0","latitude":"32.8892","longitude":"13.1918","state_id":2119,"state_name":"Peloponnese Region","country_id":85},{"active":false,"Giataid":"682926","cityId":53294,"cityName":"Tripoli","hotelId":20001141,"hotelName":"Ribas Hotel","address":"Alfaksh Street,Zawiet Alda Hamani,Tripoli,Libya","phones":"","fax":"","email":"","url":"","countryIso2":"LY","countryName":"Libya","hotelRating":"0","latitude":"32.8849","longitude":"13.1762","state_id":2119,"state_name":"Peloponnese Region","country_id":85},{"active":false,"Giataid":"642956","cityId":53294,"cityName":"Tripoli","hotelId":20001290,"hotelName":"Al Batra Hotel Tripoli","address":"Ahmed Shawky Street,Tripoli,Libya","phones":"","fax":"","email":"","url":"","countryIso2":"LY","countryName":"Libya","hotelRating":"0","latitude":"32.8849","longitude":"13.1762","state_id":2119,"state_name":"Peloponnese Region","country_id":85},{"active":false,"Giataid":"542594","cityId":67010,"cityName":"Benghazi","hotelId":20001479,"hotelName":"Al Fadeel Hotel","address":"El shatst,El jazira avenue(juliana),Benghazi,Libya","phones":"","fax":"","email":"","url":"","countryIso2":"LY","countryName":"Libya","hotelRating":"3","latitude":"32.0948","longitude":"20.1879","state_id":2981,"state_name":"Benghazi","country_id":124},{"active":false,"Giataid":"296501","cityId":67010,"cityName":"Benghazi","hotelId":20001663,"hotelName":"Tibesti","address":"P.O. Box : 9414,Libya","phones":"+218619090016","fax":"+218619097160","email":"","url":"http://www.tebistyhotel.com/contact-en.html","countryIso2":"LY","countryName":"Libya","hotelRating":"0","latitude":"32.1156","longitude":"20.0687","state_id":2981,"state_name":"Benghazi","country_id":124},{"active":false,"Giataid":"298701","cityId":53294,"cityName":"Tripoli","hotelId":20001867,"hotelName":"Alkabir","address":"Elfatah Street,Tripoli,Libya","phones":"","fax":"","email":"","url":"","countryIso2":"LY","countryName":"Libya","hotelRating":"0","latitude":"32.8872","longitude":"13.1913","state_id":2119,"state_name":"Peloponnese Region","country_id":85},{"active":false,"Giataid":"684511","cityId":53294,"cityName":"Tripoli","hotelId":20002073,"hotelName":"Attawfik Hotel","address":"Aldhra Qes Ben Sada Street,Behind Jahomrya Bank,Tripoli,Libya","phones":"","fax":"","email":"","url":"","countryIso2":"LY","countryName":"Libya","hotelRating":"0","latitude":"32.8849","longitude":"13.1762","state_id":2119,"state_name":"Peloponnese Region","country_id":85},{"active":false,"Giataid":"229256","cityId":53294,"cityName":"Tripoli","hotelId":20002278,"hotelName":"El Khan","address":"Arbaa Arsat Street,Tripoli Old Town,Tripolis,Libya","phones":"+218213344917","fax":"+218213344916","email":"info@elkhanhotel.com","url":"http://www.elkhanhotel.com/","countryIso2":"LY","countryName":"Libya","hotelRating":"5","latitude":"32.8985","longitude":"13.1764","state_id":2119,"state_name":"Peloponnese Region","country_id":85},{"active":false,"Giataid":"682911","cityId":53294,"cityName":"Tripoli","hotelId":20002476,"hotelName":"Al Khayam Hotel","address":"Alkfsh Street,Zaniet Alad Hanani,Tripoli,Libya","phones":"","fax":"","email":"","url":"","countryIso2":"LY","countryName":"Libya","hotelRating":"0","latitude":"32.8849","longitude":"13.1762","state_id":2119,"state_name":"Peloponnese Region","country_id":85},{"active":false,"Giataid":"682566","cityId":67010,"cityName":"Benghazi","hotelId":20002757,"hotelName":"Alnoran Hotel","address":"Al Jazayer Street,Benghazi,P.O.Box  2727,Libya","phones":"+218613372091","fax":"+218613372094","email":"info@alnoranhotel.com","url":"http://www.alnoranhotel.com","countryIso2":"LY","countryName":"Libya","hotelRating":"0","latitude":"32.1156","longitude":"20.0748","state_id":2981,"state_name":"Benghazi","country_id":124},{"active":false,"Giataid":"682572","cityId":53294,"cityName":"Tripoli","hotelId":20002939,"hotelName":"Safeer Hotel","address":"Al Ahwas Street,Off Omar Al Mukhtar Street,Tripoli 11110,Libya","phones":"","fax":"","email":"","url":"","countryIso2":"LY","countryName":"Libya","hotelRating":"0","latitude":"32.8849","longitude":"13.1762","state_id":2119,"state_name":"Peloponnese Region","country_id":85},{"active":false,"Giataid":"530934","cityId":53294,"cityName":"Tripoli","hotelId":20003179,"hotelName":"Safwa hotel","address":"Baladiya Street,opposite the U.N. Mission H.Q.,P.O.Box 255,Tripoli,Libya","phones":"+218213334422","fax":"+218214447472","email":"info@safwahotel.com","url":"http://www.safwahotel.com/","countryIso2":"LY","countryName":"Libya","hotelRating":"3","latitude":"32.8896","longitude":"13.1889","state_id":2119,"state_name":"Peloponnese Region","country_id":85},{"active":false,"Giataid":"684426","cityId":53294,"cityName":"Tripoli","hotelId":20003382,"hotelName":"Golden Beach Hotel","address":"Facing Sendebad Street,Front Of Sendebad Beach,Tripoli,Libya,Libya","phones":"","fax":"","email":"","url":"","countryIso2":"LY","countryName":"Libya","hotelRating":"0","latitude":"32.8861","longitude":"13.1626","state_id":2119,"state_name":"Peloponnese Region","country_id":85},{"active":false,"Giataid":"682917","cityId":53294,"cityName":"Tripoli","hotelId":20003615,"hotelName":"Hotel Alaseema","address":"Omar Al Mukhtar Street,Tripoli,Libya","phones":"","fax":"","email":"","url":"","countryIso2":"LY","countryName":"Libya","hotelRating":"0","latitude":"32.8849","longitude":"13.1762","state_id":2119,"state_name":"Peloponnese Region","country_id":85},{"active":false,"Giataid":"684423","cityId":53294,"cityName":"Tripoli","hotelId":20003780,"hotelName":"Al Yousser Hotel","address":"Anter Street,Al Dahra,Tripoli,Libya","phones":"","fax":"","email":"","url":"","countryIso2":"LY","countryName":"Libya","hotelRating":"0","latitude":"32.8849","longitude":"13.1762","state_id":2119,"state_name":"Peloponnese Region","country_id":85},{"active":false,"Giataid":"298695","cityId":63198,"cityName":"Sabha","hotelId":20003927,"hotelName":"Ubari Magic Lodges","address":"Akakus-Gebirge,Erg Ubari,Libya","phones":"+218213408355","fax":"+218213408356","email":"info@magic-dmc.com","url":"http://www.magic-lodges.biz/en/lodges","countryIso2":"LY","countryName":"Libya","hotelRating":"0","latitude":"26.5881","longitude":"12.7733","state_id":962,"state_name":"Mafraq Governorate","country_id":111},{"active":false,"Giataid":"610473","cityId":53294,"cityName":"Tripoli","hotelId":20004062,"hotelName":"Asshajara Hotel","address":"Seedy Eassa Street,Dahra area,P.O. Box 2142,Tripoli,Libya","phones":"+218214442205","fax":"+218213342386","email":"info@asshajarahotel.com","url":"http://www.asshajarahotel.com","countryIso2":"LY","countryName":"Libya","hotelRating":"4","latitude":"32.8934","longitude":"13.195","state_id":2119,"state_name":"Peloponnese Region","country_id":85},{"active":false,"Giataid":"586746","cityId":53294,"cityName":"Tripoli","hotelId":20004268,"hotelName":"Thobacts Hotel","address":"424 Omar Al Mokhtar Street,Tripoli,Libya","phones":"","fax":"","email":"","url":"","countryIso2":"LY","countryName":"Libya","hotelRating":"4","latitude":"32.8862","longitude":"13.1647","state_id":2119,"state_name":"Peloponnese Region","country_id":85},{"active":false,"Giataid":"682817","cityId":53294,"cityName":"Tripoli","hotelId":20004448,"hotelName":"Dekna Hotel","address":"Sharia Abdul Nasser,East of Green Square,Central Tripoli,Tripoli,Libya","phones":"","fax":"","email":"","url":"","countryIso2":"LY","countryName":"Libya","hotelRating":"0","latitude":"32.8884","longitude":"13.1765","state_id":2119,"state_name":"Peloponnese Region","country_id":85},{"active":false,"Giataid":"122588","cityId":53294,"cityName":"Tripoli","hotelId":20004619,"hotelName":"Plazma","address":"Omar Almokhtar street 428,Tripoli,Libya","phones":"+218213331172","fax":"+218213331762","email":"","url":"http://plasmahotel.net/","countryIso2":"LY","countryName":"Libya","hotelRating":"3","latitude":"32.8895","longitude":"13.1715","state_id":2119,"state_name":"Peloponnese Region","country_id":85},{"active":false,"Giataid":"683570","cityId":53294,"cityName":"Tripoli","hotelId":20004811,"hotelName":"Assafi Hotel","address":"Rue Omar Al Mokhtar,Tripoli,Libya","phones":"","fax":"","email":"","url":"","countryIso2":"LY","countryName":"Libya","hotelRating":"0","latitude":"32.8716","longitude":"13.18","state_id":2119,"state_name":"Peloponnese Region","country_id":85},{"active":false,"Giataid":"684019","cityId":53294,"cityName":"Tripoli","hotelId":20004989,"hotelName":"Al Okhoa Hotel","address":"Al Rafai Sub-Street,Omar Al Mokhtar,P.O.Box 10095,Tripoli,Libya","phones":"+218213332191","fax":"+218214449173","email":"info@okhowahotel.com","url":"http://www.okhowahotel.com","countryIso2":"LY","countryName":"Libya","hotelRating":"0","latitude":"32.8849","longitude":"13.1762","state_id":2119,"state_name":"Peloponnese Region","country_id":85}]