[{"active":false,"Giataid":"1902","cityId":67046,"cityName":"Agadir","hotelId":1902,"hotelName":"Adrar","address":"Boulevard Mohammed 5,80000 Agadir,Morocco","phones":"+21228840417","fax":"+21248840545","email":"","url":"","countryIso2":"MA","countryName":"Morocco","hotelRating":"3","latitude":"30.4128","longitude":"-9.59732","state_id":3297,"state_name":"Assa-Zag (EH-partial)","country_id":149},{"active":false,"Giataid":"1903","cityId":67046,"cityName":"Agadir","hotelId":1903,"hotelName":"lti Agadir Beach Club","address":"Boulevard Oued Souss,BP 310,80000 Agadir,Morocco","phones":"+212528844343","fax":"+21228840863","email":"","url":"http://www.lti.de/hotel/marokko/lti-agadir-beach-club","countryIso2":"MA","countryName":"Morocco","hotelRating":"4","latitude":"30.4104","longitude":"-9.60119","state_id":3297,"state_name":"Assa-Zag (EH-partial)","country_id":149},{"active":false,"Giataid":"1905","cityId":67046,"cityName":"Agadir","hotelId":1905,"hotelName":"Club Al Moggar Garden Beach","address":"Boulevard Mohamed V,Agadir,Morocco","phones":"+21228842270","fax":"+21228840119","email":"contact@hotelclubalmoggar.com","url":"http://www.hotelclubalmoggar.com","countryIso2":"MA","countryName":"Morocco","hotelRating":"3","latitude":"30.4228","longitude":"-9.60925","state_id":3297,"state_name":"Assa-Zag (EH-partial)","country_id":149},{"active":false,"Giataid":"1906","cityId":67046,"cityName":"Agadir","hotelId":1906,"hotelName":"Hotel Al Mountassir","address":"Rue de la Jeunesse,80000 Agadir,Morocco","phones":"","fax":"","email":"","url":"","countryIso2":"MA","countryName":"Morocco","hotelRating":"1","latitude":"30.4105","longitude":"-9.5982","state_id":3297,"state_name":"Assa-Zag (EH-partial)","country_id":149},{"active":false,"Giataid":"1908","cityId":67046,"cityName":"Agadir","hotelId":1908,"hotelName":"LABRANDA Amadil Beach","address":"Chemin des Dunes BP 320,Agadir 80000,Morocco","phones":"+21228829300","fax":"+21228842248","email":"AMADIL@IAM.NET.MA","url":"http://www.hotelsatlas.com/index.php?lang=en&amp;contenu=hotel&amp;cat=4&amp;hot=3","countryIso2":"MA","countryName":"Morocco","hotelRating":"4","latitude":"30.4039","longitude":"-9.59978","state_id":3297,"state_name":"Assa-Zag (EH-partial)","country_id":149},{"active":false,"Giataid":"1909","cityId":67046,"cityName":"Agadir","hotelId":1909,"hotelName":"Argana","address":"Boulevard Mohammed,P.O. Box 93,Agadir,Morocco","phones":"+21228848304","fax":"+21228848887","email":"h.argana@menara.ma","url":"http://www.argana-hotel.com/francais/index.html","countryIso2":"MA","countryName":"Morocco","hotelRating":"4","latitude":"30.4136","longitude":"-9.59816","state_id":3297,"state_name":"Assa-Zag (EH-partial)","country_id":149},{"active":false,"Giataid":"1910","cityId":67046,"cityName":"Agadir","hotelId":1910,"hotelName":"Kenzi Europa Hotel","address":"Boulevard 20 ao?t,B.P. 808,Agadir,Morocco","phones":"+212528821212","fax":"+212528823435","email":"resaeuropa@kenzi-hotels.com","url":"http://www.kenzi-hotels.com/hotels/agadir/agadir.html","countryIso2":"MA","countryName":"Morocco","hotelRating":"4","latitude":"30.4172","longitude":"-9.60282","state_id":3297,"state_name":"Assa-Zag (EH-partial)","country_id":149},{"active":false,"Giataid":"1911","cityId":67046,"cityName":"Agadir","hotelId":1911,"hotelName":"LABRANDA Les Dunes d'Or","address":"Secteur Baln?aire,Agadir 90000,Morocco","phones":"+212528848550","fax":"","email":"","url":"","countryIso2":"MA","countryName":"Morocco","hotelRating":"4","latitude":"30.4058","longitude":"-9.60021","state_id":3297,"state_name":"Assa-Zag (EH-partial)","country_id":149},{"active":false,"Giataid":"1912","cityId":67046,"cityName":"Agadir","hotelId":1912,"hotelName":"Agadir Les Omayades","address":"Boulevard Du 20 Aout,Secteur Balneaire,Agadir,Morocco","phones":"","fax":"","email":"","url":"","countryIso2":"MA","countryName":"Morocco","hotelRating":"4","latitude":"30.4074","longitude":"-9.59525","state_id":3297,"state_name":"Assa-Zag (EH-partial)","country_id":149},{"active":false,"Giataid":"1913","cityId":67046,"cityName":"Agadir","hotelId":1913,"hotelName":"Mogador AL MADINA","address":"Boulevard 20 Ao?t,secteur baln?aire,80000 Agadir,Morocco","phones":"+212530530530","fax":"+212528845318","email":"hmadinaresa@ryadmogador.com","url":"http://www.ryadmogador.com/","countryIso2":"MA","countryName":"Morocco","hotelRating":"4","latitude":"30.4155","longitude":"-9.6021","state_id":3297,"state_name":"Assa-Zag (EH-partial)","country_id":149},{"active":false,"Giataid":"1914","cityId":67046,"cityName":"Agadir","hotelId":1914,"hotelName":"Hotel Oasis","address":"Boulevard Mohammed V,Angle Rue Paul Doumer,70100 Agadir,Morocco","phones":"+21248843313","fax":"+21248844260","email":"","url":"","countryIso2":"MA","countryName":"Morocco","hotelRating":"4","latitude":"30.4229","longitude":"-9.60691","state_id":3297,"state_name":"Assa-Zag (EH-partial)","country_id":149},{"active":false,"Giataid":"1915","cityId":67046,"cityName":"Agadir","hotelId":1915,"hotelName":"Residence Shems","address":"Rue de l'Hotel de Ville,80000 Agadir,Souss-Massa-Draa,Morocco","phones":"+21248844561","fax":"+21248844561","email":"chems@iam.net.ma","url":"http://www.shems.ma/SHEMS/Index.asp","countryIso2":"MA","countryName":"Morocco","hotelRating":"3","latitude":"30.4026","longitude":"-9.5997","state_id":3297,"state_name":"Assa-Zag (EH-partial)","country_id":149},{"active":false,"Giataid":"1916","cityId":67046,"cityName":"Agadir","hotelId":1916,"hotelName":"Sahara","address":"Boulevard Mohamed V,Agadir 80000,Morocco","phones":"+212528840660","fax":"+212528840738","email":"booking@saharahotelagadir.com","url":"http://www.saharahotelagadir.com","countryIso2":"MA","countryName":"Morocco","hotelRating":"4","latitude":"30.4117","longitude":"-9.59626","state_id":3297,"state_name":"Assa-Zag (EH-partial)","country_id":149},{"active":false,"Giataid":"1918","cityId":67046,"cityName":"Agadir","hotelId":1918,"hotelName":"Bahia City Hotel","address":"Rue des Administrations Publiques,80000 Agadir,Morocco","phones":"+21228846388","fax":"+21228846386","email":"","url":"http://www.sudbahiahotel.ma/","countryIso2":"MA","countryName":"Morocco","hotelRating":"3","latitude":"30.4224","longitude":"-9.60318","state_id":3297,"state_name":"Assa-Zag (EH-partial)","country_id":149},{"active":false,"Giataid":"1919","cityId":67046,"cityName":"Agadir","hotelId":1919,"hotelName":"Hotel Tagadirt","address":"Boulevard du 20 Ao?t,80000 Agadir,Morocco","phones":"+212528847102","fax":"+212528847113","email":"resa.agador@groupesahara.com","url":"http://www.trivago.de/agadir-85734/hotel/tagadirt-94011","countryIso2":"MA","countryName":"Morocco","hotelRating":"3","latitude":"30.4149","longitude":"-9.60067","state_id":3297,"state_name":"Assa-Zag (EH-partial)","country_id":149},{"active":false,"Giataid":"1920","cityId":67046,"cityName":"Agadir","hotelId":1920,"hotelName":"Talborjt","address":"Rue de l'Entraide,Agadir,Morocco","phones":"","fax":"","email":"","url":"","countryIso2":"MA","countryName":"Morocco","hotelRating":"2","latitude":"30.4105","longitude":"-9.5982","state_id":3297,"state_name":"Assa-Zag (EH-partial)","country_id":149},{"active":false,"Giataid":"1921","cityId":67046,"cityName":"Agadir","hotelId":1921,"hotelName":"Agador Tamlelt","address":"Boulevard du 20 Aout,80000 Agadir,Morocco","phones":"","fax":"","email":"","url":"","countryIso2":"MA","countryName":"Morocco","hotelRating":"3","latitude":"30.4087","longitude":"-9.59861","state_id":3297,"state_name":"Assa-Zag (EH-partial)","country_id":149},{"active":false,"Giataid":"1922","cityId":67046,"cityName":"Agadir","hotelId":1922,"hotelName":"Hotel Le Tivoli","address":"Boulevard du 20 Aout,Secteur Touristique,Agadir,Morocco","phones":"+212528847640","fax":"","email":"","url":"http://www.hoteltivoli.com/EN/233399.html","countryIso2":"MA","countryName":"Morocco","hotelRating":"4","latitude":"30.4078","longitude":"-9.59641","state_id":3297,"state_name":"Assa-Zag (EH-partial)","country_id":149},{"active":false,"Giataid":"1923","cityId":148455,"cityName":"Casablanca","hotelId":1923,"hotelName":"Casablanca Le Lido Thalasso & Spa","address":"Boulevard de la Corniche,Ain Diab,21000 Casablanca,Morocco","phones":"+212522952580","fax":"","email":"","url":"","countryIso2":"MA","countryName":"Morocco","hotelRating":"4","latitude":"33.5972","longitude":"-7.67065","state_id":2830,"state_name":"Valparaiso","country_id":44},{"active":false,"Giataid":"1925","cityId":67151,"cityName":"Khouribga","hotelId":1925,"hotelName":"Safir Khouribga","address":"13 Boulevard Moulay Youssef,Khouribga,Morocco","phones":"","fax":"","email":"","url":"","countryIso2":"MA","countryName":"Morocco","hotelRating":"1","latitude":"0","longitude":"0","state_id":3317,"state_name":"Khenifra","country_id":149},{"active":false,"Giataid":"1926","cityId":67158,"cityName":"Marrakech","hotelId":1926,"hotelName":"Kenzi Farah","address":"Avenue du Pr?sident Kennedy,Hivernage,Marrakech,Morocco","phones":"+212524447400","fax":"+21224438216","email":"resafarah@kenzi-hotels.com","url":"http://www.kenzi-hotels.com/eng/hotels/marrakech/marrakech_s.html","countryIso2":"MA","countryName":"Morocco","hotelRating":"5","latitude":"31.6223","longitude":"-8.00662","state_id":3311,"state_name":"Safi","country_id":149},{"active":false,"Giataid":"1927","cityId":67158,"cityName":"Marrakech","hotelId":1927,"hotelName":"Marrakech Le Tichka","address":"Route de Casablanca,BP 894,Semlalia,40000 Marrakech,Morocco","phones":"+212524448710","fax":"+212 (0)5 24 43 61 19","email":"resa-rak1@hrm.ma","url":"http://www.hotel-marrakech-tichka.com/index.php/en/","countryIso2":"MA","countryName":"Morocco","hotelRating":"4","latitude":"31.6468","longitude":"-8.01809","state_id":3311,"state_name":"Safi","country_id":149},{"active":false,"Giataid":"1931","cityId":63182,"cityName":"Safi","hotelId":1931,"hotelName":"Safir Safi","address":"Street Zerktouni,Safi,Morocco","phones":"","fax":"","email":"","url":"","countryIso2":"MA","countryName":"Morocco","hotelRating":"1","latitude":"32.299","longitude":"-9.23975","state_id":956,"state_name":"Karak Governorate","country_id":111},{"active":false,"Giataid":"1933","cityId":null,"cityName":"Tanger","hotelId":1933,"hotelName":"Kenzi Solazur Hotel","address":"Boulevard Mohamed VI,90000 Tanger,Morocco","phones":"+212539348383","fax":"+212539340498","email":"reservations.solazur@husa.es","url":"http://www.husa.es/de/nuestros-hoteles/hotel/v/u/husa-solazur-business-spa","countryIso2":"MA","countryName":"Morocco","hotelRating":"4","latitude":"35.7767","longitude":"-5.79767","state_id":null,"state_name":null,"country_id":null},{"active":false,"Giataid":"1934","cityId":null,"cityName":"Tanger","hotelId":1934,"hotelName":"Tanjah Flandria","address":"6 Boulevard Mohamed V,90000 Tanger,Morocco","phones":"+212539933279","fax":"+212539934347","email":"info@tanjahflandria.ma","url":"http://www.trivago.de/tanger-85739/hotel/tanjah-flandria-112130","countryIso2":"MA","countryName":"Morocco","hotelRating":"4","latitude":"35.7767","longitude":"-5.80346","state_id":null,"state_name":null,"country_id":null},{"active":false,"Giataid":"1935","cityId":67242,"cityName":"Taroudant","hotelId":1935,"hotelName":"Palais Salam","address":"Avenue Moulay Ismail,83000 Taroudant,Morocco","phones":"+21248852501","fax":"+21248852654","email":"","url":"","countryIso2":"MA","countryName":"Morocco","hotelRating":"4","latitude":"30.4676","longitude":"-8.87455","state_id":3297,"state_name":"Assa-Zag (EH-partial)","country_id":149},{"active":false,"Giataid":"1936","cityId":67250,"cityName":"Tetouan","hotelId":1936,"hotelName":"Safir Tetouan","address":"","phones":"","fax":"","email":"","url":"","countryIso2":"MA","countryName":"Morocco","hotelRating":"1","latitude":"35.6045","longitude":"-5.34822","state_id":3324,"state_name":"Tanger-Tetouan-Al Hoceïma","country_id":149},{"active":false,"Giataid":"5712","cityId":67046,"cityName":"Agadir","hotelId":5712,"hotelName":"Best Western Odyssee Park Hotel","address":"Boulevard Mohamed V,80000 Agadir,Morocco","phones":"+212528843326","fax":"+21248841247","email":"odysseehotel@menara.ma","url":"http://www.hotel-odyssee-park.com","countryIso2":"MA","countryName":"Morocco","hotelRating":"4","latitude":"30.4191","longitude":"-9.60174","state_id":3297,"state_name":"Assa-Zag (EH-partial)","country_id":149},{"active":false,"Giataid":"5713","cityId":67046,"cityName":"Agadir","hotelId":5713,"hotelName":"Residence Igoudar","address":"Boulevard du 20 ao?t,80000 Agadir,Morocco","phones":"+21228840399","fax":"+21228845543","email":"","url":"http://www.i-hotels.it/reservhotel.aspx?lang=en&amp;hotelids=98316","countryIso2":"MA","countryName":"Morocco","hotelRating":"3","latitude":"30.411","longitude":"-9.59649","state_id":3297,"state_name":"Assa-Zag (EH-partial)","country_id":149},{"active":false,"Giataid":"5714","cityId":67046,"cityName":"Agadir","hotelId":5714,"hotelName":"Marhaba","address":"Avenue Hassan II,80000 Agadir,Morocco","phones":"+212528840670","fax":"+212528843529","email":"","url":"","countryIso2":"MA","countryName":"Morocco","hotelRating":"3","latitude":"30.4228","longitude":"-9.60598","state_id":3297,"state_name":"Assa-Zag (EH-partial)","country_id":149},{"active":false,"Giataid":"5715","cityId":67046,"cityName":"Agadir","hotelId":5715,"hotelName":"Anezi Tower Hotel & Apartments","address":"Boulevard Mohamed V,B.P. 29,80000 Agadir,Morocco","phones":"+212528840940","fax":"+212528840713","email":"contact@hotelanezi.com","url":"http://www.hotelanezi.com/","countryIso2":"MA","countryName":"Morocco","hotelRating":"4","latitude":"30.4166","longitude":"-9.6009","state_id":3297,"state_name":"Assa-Zag (EH-partial)","country_id":149},{"active":false,"Giataid":"5716","cityId":67046,"cityName":"Agadir","hotelId":5716,"hotelName":"Royal Mirage Agadir","address":"Boulevard Mohammed V,80000 Agadir,Morocco","phones":"+212528843232","fax":"+212528842741","email":"sales.agadir@royalmiragehotels.com","url":"http://www.royalmiragehotels.com","countryIso2":"MA","countryName":"Morocco","hotelRating":"4","latitude":"30.4195","longitude":"-9.60397","state_id":3297,"state_name":"Assa-Zag (EH-partial)","country_id":149},{"active":false,"Giataid":"5717","cityId":67046,"cityName":"Agadir","hotelId":5717,"hotelName":"Transatlantique","address":"Avenue Mohammed V,80000 Agadir,Morocco","phones":"","fax":"","email":"","url":"","countryIso2":"MA","countryName":"Morocco","hotelRating":"3","latitude":"30.4177","longitude":"-9.6001","state_id":3297,"state_name":"Assa-Zag (EH-partial)","country_id":149},{"active":false,"Giataid":"5818","cityId":67046,"cityName":"Agadir","hotelId":5818,"hotelName":"Atlantic Palace Resort","address":"Seaside and Tourism Sector,PO Box 194,80000 Agadir,Souss Massa,Morocco","phones":"+212528824146","fax":"+21228824170","email":"reservation@atlanticpalaceresort.com","url":"http://www.atlanticpalaceresort.com/","countryIso2":"MA","countryName":"Morocco","hotelRating":"5","latitude":"30.4052","longitude":"-9.59591","state_id":3297,"state_name":"Assa-Zag (EH-partial)","country_id":149},{"active":false,"Giataid":"5821","cityId":67046,"cityName":"Agadir","hotelId":5821,"hotelName":"Hotel Royal Agadir","address":"Avenue Mohammed V,Centre Balneaire et Touristique,Agadir,Souss-Massa,Morocco","phones":"","fax":"","email":"","url":"","countryIso2":"MA","countryName":"Morocco","hotelRating":"2","latitude":"30.4122","longitude":"-9.59661","state_id":3297,"state_name":"Assa-Zag (EH-partial)","country_id":149},{"active":false,"Giataid":"5824","cityId":67046,"cityName":"Agadir","hotelId":5824,"hotelName":"Aferni","address":"Avenue G?n?ral Kettani,Agadir,Morocco","phones":"+21228840730","fax":"+21228840330","email":"info@hotelaferni-agadir.com","url":"http://www.hotelaferni-agadir.com/de/marokko/3-Sterne-Hotel/agadir/Buch-hotels-agadir.html","countryIso2":"MA","countryName":"Morocco","hotelRating":"3","latitude":"30.4246","longitude":"-9.60149","state_id":3297,"state_name":"Assa-Zag (EH-partial)","country_id":149},{"active":false,"Giataid":"5825","cityId":67046,"cityName":"Agadir","hotelId":5825,"hotelName":"Coralia Club Agadir La Kasbah","address":"Boulevard du 20 Aout,80000 Agadir,Morocco","phones":"+21248840136","fax":"+21248840375","email":"H3001-FO@accor.com","url":"http://www.la-kasbah-agadir.com","countryIso2":"MA","countryName":"Morocco","hotelRating":"4","latitude":"30.4118","longitude":"-9.59784","state_id":3297,"state_name":"Assa-Zag (EH-partial)","country_id":149},{"active":false,"Giataid":"5826","cityId":67158,"cityName":"Marrakech","hotelId":5826,"hotelName":"Amine","address":"Avenue Abdelkrim El Khettabi,Semlalia,Marrakech 40000,Morocco","phones":"+212524436376","fax":"+212524438143","email":"badoa@menara.ma","url":"http://www.hotel-amine.com","countryIso2":"MA","countryName":"Morocco","hotelRating":"3","latitude":"31.6386","longitude":"-8.01797","state_id":3311,"state_name":"Safi","country_id":149},{"active":false,"Giataid":"6982","cityId":67800,"cityName":"Rabat","hotelId":6982,"hotelName":"Belere Rabat","address":"33 Avenue Moulay Youssef Rabat,10000 Rabat,Morocco","phones":"+212537703897","fax":"+212537709801","email":"belerehotels@menara.ma","url":"http://www.trivago.de/rabat-85733/hotel/belere-113295","countryIso2":"MA","countryName":"Morocco","hotelRating":"4","latitude":"34.0145","longitude":"-6.83641","state_id":101,"state_name":"Victoria","country_id":135},{"active":false,"Giataid":"6993","cityId":67800,"cityName":"Rabat","hotelId":6993,"hotelName":"Majlisse","address":"6 Rue Zahla,Rabat,Morocco","phones":"","fax":"","email":"","url":"","countryIso2":"MA","countryName":"Morocco","hotelRating":"4","latitude":"34.0163","longitude":"-6.83686","state_id":101,"state_name":"Victoria","country_id":135},{"active":false,"Giataid":"7011","cityId":67800,"cityName":"Rabat","hotelId":7011,"hotelName":"Atlantis Palace","address":"","phones":"","fax":"","email":"","url":"","countryIso2":"MA","countryName":"Morocco","hotelRating":"1","latitude":"34.0161","longitude":"-6.83564","state_id":101,"state_name":"Victoria","country_id":135},{"active":false,"Giataid":"7586","cityId":67158,"cityName":"Marrakech","hotelId":7586,"hotelName":"Amanjena","address":"km 12 Route de Ouarzazate,40000 Marrakech,Morocco","phones":"+212524399000","fax":"+212524403477","email":"amanjena@amanresorts.com","url":"http://www.amansara.com","countryIso2":"MA","countryName":"Morocco","hotelRating":"5","latitude":"31.6088","longitude":"-7.93381","state_id":3311,"state_name":"Safi","country_id":149},{"active":false,"Giataid":"11401","cityId":null,"cityName":"Imouzzer","hotelId":11401,"hotelName":"Hotel des Cascades","address":"Imouzzer Ida Ou Tanane,80300 Imouzzer,Agadir,Morocco","phones":"+212528218808","fax":"+212528220757","email":"contact@cascades-hotel.net","url":"http://www.cascades-imouzzer.com/","countryIso2":"MA","countryName":"Morocco","hotelRating":"3","latitude":"30.6771","longitude":"-9.47713","state_id":null,"state_name":null,"country_id":null},{"active":false,"Giataid":"13697","cityId":67046,"cityName":"Agadir","hotelId":13697,"hotelName":"Hacienda","address":"NULL","phones":"","fax":"","email":"","url":"","countryIso2":"MA","countryName":"Morocco","hotelRating":"1","latitude":"30.4278","longitude":"-9.59811","state_id":3297,"state_name":"Assa-Zag (EH-partial)","country_id":149},{"active":false,"Giataid":"14607","cityId":67046,"cityName":"Agadir","hotelId":14607,"hotelName":"Hotel ibis Agadir","address":"Avenue Abderrahim Bouabid,Angle Oued Ziz,80020 Agadir,Morocco","phones":"+212528232842","fax":"+212528232849","email":"H2031@accor.com","url":"http://www.accorhotels.com/gb/hotel-2031-ibis-moussafir-agadir/index.shtml","countryIso2":"MA","countryName":"Morocco","hotelRating":"3","latitude":"30.4105","longitude":"-9.58295","state_id":3297,"state_name":"Assa-Zag (EH-partial)","country_id":149},{"active":false,"Giataid":"14736","cityId":67158,"cityName":"Marrakech","hotelId":14736,"hotelName":"Imperial Borj","address":"Avenue Echouada,Quartier Hivernage,40000 Marrakech,Morocco","phones":"+212524447322","fax":"+212524446206","email":"","url":"","countryIso2":"MA","countryName":"Morocco","hotelRating":"5","latitude":"31.6225","longitude":"-8.00323","state_id":3311,"state_name":"Safi","country_id":149},{"active":false,"Giataid":"15213","cityId":67046,"cityName":"Agadir","hotelId":15213,"hotelName":"Kamal","address":"Viale Aldo Moro 192","phones":"","fax":"","email":"","url":"","countryIso2":"MA","countryName":"Morocco","hotelRating":"3","latitude":"30.4195","longitude":"-9.59913","state_id":3297,"state_name":"Assa-Zag (EH-partial)","country_id":149},{"active":false,"Giataid":"15337","cityId":67158,"cityName":"Marrakech","hotelId":15337,"hotelName":"Marrakech Le Semiramis Hotel","address":"Boulevard Abdelkrim Al Khattabi,40000 Marrakech,Morocco","phones":"+212524431377","fax":"+21224447220","email":"semiramis@kenzi-hotels.com","url":"http://www.kenzi-hotels.com/hotels/marrakech/marrakech_1.html","countryIso2":"MA","countryName":"Morocco","hotelRating":"4","latitude":"31.6478","longitude":"-8.01753","state_id":3311,"state_name":"Safi","country_id":149},{"active":false,"Giataid":"15707","cityId":67158,"cityName":"Marrakech","hotelId":15707,"hotelName":"La Mamounia","address":"Avenue Bab Jdid,40040 Marrakech,Morocco","phones":"+212524388600","fax":"+212524444940","email":"marketing@mamounia.com","url":"http://www.mamounia.com","countryIso2":"MA","countryName":"Morocco","hotelRating":"5","latitude":"31.6215","longitude":"-7.99748","state_id":3311,"state_name":"Safi","country_id":149},{"active":false,"Giataid":"15728","cityId":67158,"cityName":"Marrakech","hotelId":15728,"hotelName":"Le Palmeraie Village","address":"Circuit de la palmeraie,Marrakech,Morocco","phones":"+212524334343","fax":"+212524305050","email":"","url":"http://www.palmeraievillage.com/","countryIso2":"MA","countryName":"Morocco","hotelRating":"4","latitude":"31.6845","longitude":"-7.98492","state_id":3311,"state_name":"Safi","country_id":149},{"active":false,"Giataid":"16083","cityId":67158,"cityName":"Marrakech","hotelId":16083,"hotelName":"Le Meridien N'fis","address":"Avenue Mohammed VI,Marrakesch 40000,Morocco","phones":"+212524339400","fax":"+212524447446","email":"reservations.01817@lemeridien.com","url":"http://www.starwoodhotels.com/lemeridien/property/overview/index.html?propertyID=1817","countryIso2":"MA","countryName":"Morocco","hotelRating":"5","latitude":"31.6191","longitude":"-8.00824","state_id":3311,"state_name":"Safi","country_id":149},{"active":false,"Giataid":"16166","cityId":67158,"cityName":"Marrakech","hotelId":16166,"hotelName":"Le Tamaris","address":"NULL","phones":"","fax":"","email":"","url":"","countryIso2":"MA","countryName":"Morocco","hotelRating":"1","latitude":"31.6295","longitude":"-7.98108","state_id":3311,"state_name":"Safi","country_id":149},{"active":false,"Giataid":"16610","cityId":67046,"cityName":"Agadir","hotelId":16610,"hotelName":"Mabrouk Hotel","address":"Boulevard du 20 Aout,80000 Agadir,Morocco","phones":"","fax":"","email":"","url":"","countryIso2":"MA","countryName":"Morocco","hotelRating":"3","latitude":"30.4129","longitude":"-9.5988","state_id":3297,"state_name":"Assa-Zag (EH-partial)","country_id":149},{"active":false,"Giataid":"18409","cityId":67158,"cityName":"Marrakech","hotelId":18409,"hotelName":"Oudaya Hotel","address":"147 Rue Mohamed El Baqal,Gu?liz,Marrakech,Morocco","phones":"+21244448751","fax":"+21244435400","email":"oudayaho@iam.net.ma","url":"http://www.oudaya.ma","countryIso2":"MA","countryName":"Morocco","hotelRating":"3","latitude":"31.6389","longitude":"-8.01673","state_id":3311,"state_name":"Safi","country_id":149},{"active":false,"Giataid":"18555","cityId":67158,"cityName":"Marrakech","hotelId":18555,"hotelName":"Palmeraie Palace","address":"Circuit de la Palmeraie,PO Box 1488,40000 Marrakech,Morocco","phones":"+212524334343","fax":"+212524302020","email":"reservation@pgp.ma","url":"http://www.pgpmarrakech.com/pgp-anglais/index-en.html","countryIso2":"MA","countryName":"Morocco","hotelRating":"5","latitude":"31.6862","longitude":"-7.96747","state_id":3311,"state_name":"Safi","country_id":149},{"active":false,"Giataid":"20322","cityId":67046,"cityName":"Agadir","hotelId":20322,"hotelName":"Jacaranda Golf","address":"Route Inezgane,Agadir,Morocco","phones":"+212528280316","fax":"+212528280321","email":"hotel@jacaranda-hotel-agadir.com","url":"http://www.jacaranda-hotel-agadir.com","countryIso2":"MA","countryName":"Morocco","hotelRating":"4","latitude":"30.3792","longitude":"-9.56629","state_id":3297,"state_name":"Assa-Zag (EH-partial)","country_id":149},{"active":false,"Giataid":"20456","cityId":67046,"cityName":"Agadir","hotelId":20456,"hotelName":"Royal Decameron Tafoukt Beach","address":"Boulevard du 20 A?ut,80000 Agadir,Morocco","phones":"+21228840123","fax":"+21228840971","email":"contactus@decameron.com","url":"http://www.decameron.com/eng/morocco/tafoukt/overview.html","countryIso2":"MA","countryName":"Morocco","hotelRating":"4","latitude":"30.417","longitude":"-9.60366","state_id":3297,"state_name":"Assa-Zag (EH-partial)","country_id":149},{"active":false,"Giataid":"20460","cityId":67046,"cityName":"Agadir","hotelId":20460,"hotelName":"Hotel Riu Tikida Beach","address":"Chemin des Dunes,B.P. 901,80000 Agadir,Morocco","phones":"+212528845400","fax":"+212528845439","email":"resabeach@tikidahotels.co.ma","url":"http://www.riu.com/de/Paises/marokko/agadir/hotel-riu-tikida-beach/index.jsp","countryIso2":"MA","countryName":"Morocco","hotelRating":"4","latitude":"30.4026","longitude":"-9.59861","state_id":3297,"state_name":"Assa-Zag (EH-partial)","country_id":149},{"active":false,"Giataid":"20782","cityId":67116,"cityName":"Essaouira","hotelId":20782,"hotelName":"Ryad Mogador Essaouira","address":"Route de Marrakech,B.P. 368,Essaouira,Morocco,Morocco","phones":"+212524783555","fax":"+212524783556","email":"hessaouiraresa@ryadmogador.com","url":"http://www.ryadmogador.com/","countryIso2":"MA","countryName":"Morocco","hotelRating":"4","latitude":"31.4951","longitude":"-9.76024","state_id":3311,"state_name":"Safi","country_id":149},{"active":false,"Giataid":"23145","cityId":67158,"cityName":"Marrakech","hotelId":23145,"hotelName":"Hotel Riu Tikida Garden","address":"Circuit de la Palmeraie,B.P. 1585,40007 Marrakech,Morocco","phones":"+212524329595","fax":"+212524329599","email":"tikida@tikidahotels.ma","url":"http://www.marrakech-tikida.com/","countryIso2":"MA","countryName":"Morocco","hotelRating":"4","latitude":"31.65","longitude":"-7.97905","state_id":3311,"state_name":"Safi","country_id":149},{"active":false,"Giataid":"23243","cityId":null,"cityName":"Imlil","hotelId":23243,"hotelName":"Kasbah du Toubkal","address":"Parc National de Toubkal,40000 Imlil,Al Haouz,Morocco","phones":"+212524485611","fax":"","email":"contactkasbah@discover.ltd.uk","url":"http://www.kasbahdutoubkal.com/home.html","countryIso2":"MA","countryName":"Morocco","hotelRating":"3","latitude":"31.1325","longitude":"-7.91885","state_id":null,"state_name":null,"country_id":null},{"active":false,"Giataid":"24573","cityId":67046,"cityName":"Agadir","hotelId":24573,"hotelName":"Yasmina","address":"Rue de la Jeunesse,80000 Agadir,Morocco","phones":"+21228842660","fax":"+21228845657","email":"resyasmina@gmail.com","url":"http://www.residence-yasmina.com","countryIso2":"MA","countryName":"Morocco","hotelRating":"3","latitude":"30.4185","longitude":"-9.59843","state_id":3297,"state_name":"Assa-Zag (EH-partial)","country_id":149},{"active":false,"Giataid":"28239","cityId":67046,"cityName":"Agadir","hotelId":28239,"hotelName":"Palais des Roses","address":"Cite Founty,80000 Agadir,Morocco","phones":"+212528849400","fax":"+212528827275","email":"commercial@palaisroses.ma","url":"http://www.palaisdesroses.com/","countryIso2":"MA","countryName":"Morocco","hotelRating":"4","latitude":"30.3951","longitude":"-9.59629","state_id":3297,"state_name":"Assa-Zag (EH-partial)","country_id":149},{"active":false,"Giataid":"29300","cityId":67118,"cityName":"Fes","hotelId":29300,"hotelName":"Pickalbatros Royal Mirage","address":"Avenue des FAR,30000 Fes,Morocco","phones":"+212535930909","fax":"+212535931201","email":"sales.fes@royalmiragehotels.com","url":"http://www.royalmiragehotels.com/fes/fr/index.php","countryIso2":"MA","countryName":"Morocco","hotelRating":"5","latitude":"34.0371","longitude":"-5.00393","state_id":3313,"state_name":"Fes-Meknes","country_id":149},{"active":false,"Giataid":"29302","cityId":67163,"cityName":"Meknes","hotelId":29302,"hotelName":"Zaki Hotel","address":"Boulevard Al Massira,Meknes,Morocco","phones":"+212535514147","fax":"+21255524836","email":"","url":"","countryIso2":"MA","countryName":"Morocco","hotelRating":"4","latitude":"33.8809","longitude":"-5.53325","state_id":3313,"state_name":"Fes-Meknes","country_id":149},{"active":false,"Giataid":"32650","cityId":67046,"cityName":"Agadir","hotelId":32650,"hotelName":"Iberostar Founty Beach","address":"BP 1039,Cit? Founty,80000 Agadir,Morocco","phones":"+212528844444","fax":"+21228844848","email":"founty.beach@iberostar.com","url":"http://www.iberostar.com/Egadir-hotels/Iberostar-Founty-Beach_3_95.html","countryIso2":"MA","countryName":"Morocco","hotelRating":"4","latitude":"30.3968","longitude":"-9.59692","state_id":3297,"state_name":"Assa-Zag (EH-partial)","country_id":149},{"active":false,"Giataid":"34944","cityId":67046,"cityName":"Agadir","hotelId":34944,"hotelName":"ClubHotel Riu Tikida Dunas","address":"Chemin des Dunes,B.P. 901,80000 Agadir,Morocco","phones":"+21228849090","fax":"+21228849099","email":"","url":"http://www.riu.com/de/Paises/marokko/agadir/clubhotel-riu-tikida-dunas/index.jsp","countryIso2":"MA","countryName":"Morocco","hotelRating":"4","latitude":"30.3984","longitude":"-9.59785","state_id":3297,"state_name":"Assa-Zag (EH-partial)","country_id":149},{"active":false,"Giataid":"38006","cityId":67800,"cityName":"Rabat","hotelId":38006,"hotelName":"La Tour Hassan","address":"26 Rue Chellah,P.O. Box 14,Rabat,Morocco","phones":"+212537239000","fax":"+212537725408","email":"","url":"http://www.latourhassan.com","countryIso2":"MA","countryName":"Morocco","hotelRating":"5","latitude":"34.0232","longitude":"-6.83235","state_id":101,"state_name":"Victoria","country_id":135},{"active":false,"Giataid":"38005","cityId":67116,"cityName":"Essaouira","hotelId":38005,"hotelName":"Le Medina Essaouira Hotel Thalassa Sea & Spa, MGallery by Sofitel","address":"Avenue Mohamed V,44000 Essaouira,Morocco","phones":"+212525072526","fax":"+2125244479080","email":"H2967@accor.com","url":"http://www.sofitel.com/gb/hotel-2967-sofitel-essaouira-medina-spa/index.shtml","countryIso2":"MA","countryName":"Morocco","hotelRating":"5","latitude":"31.5084","longitude":"-9.7656","state_id":3311,"state_name":"Safi","country_id":149},{"active":false,"Giataid":"38008","cityId":67046,"cityName":"Agadir","hotelId":38008,"hotelName":"Sofitel Agadir Royal Bay Resort","address":"BP 226 Cit? Founty P4,Baie des Palmiers,80007 Agadir,Commune de Bensergao,Morocco","phones":"+212528849200","fax":"+212528820033","email":"h5707@sofitel.com","url":"http://www.sofitel.com/sofitel/fichehotel/gb/sof/5707/fiche_hotel.shtml","countryIso2":"MA","countryName":"Morocco","hotelRating":"5","latitude":"30.3932","longitude":"-9.59664","state_id":3297,"state_name":"Assa-Zag (EH-partial)","country_id":149},{"active":false,"Giataid":"38017","cityId":148455,"cityName":"Casablanca","hotelId":38017,"hotelName":"Royal Mansour Casablanca","address":"27 Avenue de l'Armee Royale,21000 Casablanca,Morocco","phones":"+212522313011","fax":"+212522540784","email":"reservations.01816@starwoodhotels.com","url":"http://www.starwoodhotels.com/lemeridien/property/overview/index.html?propertyID=1816","countryIso2":"MA","countryName":"Morocco","hotelRating":"5","latitude":"33.5964","longitude":"-7.60866","state_id":2830,"state_name":"Valparaiso","country_id":44},{"active":false,"Giataid":"38333","cityId":null,"cityName":"El Jadida","hotelId":38333,"hotelName":"Pullman Mazagan Royal Golf & Spa Hotel","address":"Route de Casablanca km 7,B.P 116,24000 El Jadida,Morocco","phones":"+212523379100","fax":"+212523355444","email":"H2960@accor.com","url":"http://www.accorhotels.com/de/hotel-2960-pullman-mazagan-royal-golf-spa/index.shtml","countryIso2":"MA","countryName":"Morocco","hotelRating":"5","latitude":"33.2595","longitude":"-8.42288","state_id":null,"state_name":null,"country_id":null},{"active":false,"Giataid":"38369","cityId":null,"cityName":"Skhirat","hotelId":38369,"hotelName":"Amphitrite Palace Beach Hotel & Convention Centre","address":"Skhirat Plage,12050 Skhirat,Rabat,Morocco","phones":"+212537621000","fax":"+212537621021","email":"sales@Lamphitritepalace.com","url":"http://www.lamphitritepalace.net","countryIso2":"MA","countryName":"Morocco","hotelRating":"5","latitude":"33.8683","longitude":"-7.05585","state_id":null,"state_name":null,"country_id":null},{"active":false,"Giataid":"38442","cityId":67158,"cityName":"Marrakech","hotelId":38442,"hotelName":"Sofitel Marrakech Lounge & Spa","address":"Rue Harroun Errachid,Quartier de l'hivernage,40000 Marrakech,Morocco","phones":"+212524425600","fax":"+212524420505","email":"H3569@sofitel.com","url":"http://www.sofitel.com/gb/hotel-3569-sofitel-marrakech-lounge-and-spa/index.shtml","countryIso2":"MA","countryName":"Morocco","hotelRating":"5","latitude":"31.6217","longitude":"-8.00219","state_id":3311,"state_name":"Safi","country_id":149},{"active":false,"Giataid":"38681","cityId":67046,"cityName":"Agadir","hotelId":38681,"hotelName":"Louban","address":"Avenue Prince Heritier,Agadir,Morocco","phones":"","fax":"","email":"","url":"","countryIso2":"MA","countryName":"Morocco","hotelRating":"1","latitude":"30.4026","longitude":"-9.59701","state_id":3297,"state_name":"Assa-Zag (EH-partial)","country_id":149},{"active":false,"Giataid":"40194","cityId":67116,"cityName":"Essaouira","hotelId":40194,"hotelName":"Al Jasira Hotel","address":"18 Rue Mly Ali Cherif,Quartier des Dunes,B.P. 1026,44000 Essaouira,Morocco","phones":"+212524475956","fax":"+212524476593","email":"","url":"http://www.aljasirahotel-mogador.com","countryIso2":"MA","countryName":"Morocco","hotelRating":"3","latitude":"31.4995","longitude":"-9.76004","state_id":3311,"state_name":"Safi","country_id":149},{"active":false,"Giataid":"42655","cityId":67046,"cityName":"Agadir","hotelId":42655,"hotelName":"Les Almohades Beach Resort Agadir","address":"BD 20 Aout Cite Balneaire,Agadir,Morocco,Morocco","phones":"+212528840233","fax":"+212528840130","email":"agadir.almohade@ramadaglobal.com","url":"http://www.ramadahotelsmaroc.com/agadir/Hotel-Ramada-Les-Almohades-Agadir-Maroc/","countryIso2":"MA","countryName":"Morocco","hotelRating":"4","latitude":"30.4128","longitude":"-9.60001","state_id":3297,"state_name":"Assa-Zag (EH-partial)","country_id":149},{"active":false,"Giataid":"46600","cityId":67118,"cityName":"Fes","hotelId":46600,"hotelName":"Hotel Wassim","address":"Avenue Hassan II,Rue du Liban,30000 F?s,Morocco","phones":"+212535654939","fax":"+212535930220","email":"","url":"","countryIso2":"MA","countryName":"Morocco","hotelRating":"4","latitude":"34.0385","longitude":"-5.00222","state_id":3313,"state_name":"Fes-Meknes","country_id":149},{"active":false,"Giataid":"46601","cityId":67118,"cityName":"Fes","hotelId":46601,"hotelName":"Fes Marriott Hotel Jnan Palace","address":"8 Avenue Ahmed Chaouki,30000  Fes,Morocco","phones":"+212535947250","fax":"+212535651917","email":"5","url":"","countryIso2":"MA","countryName":"Morocco","hotelRating":"5","latitude":"34.0328","longitude":"-5.00395","state_id":3313,"state_name":"Fes-Meknes","country_id":149},{"active":false,"Giataid":"46604","cityId":67158,"cityName":"Marrakech","hotelId":46604,"hotelName":"Villa Des Orangers","address":"Rue Sidi Mimoun,40000 Marrakech,Morocco","phones":"+212524384638","fax":"+212524385123","email":"message@villadesorangers.com","url":"http://www.villadesorangers.com","countryIso2":"MA","countryName":"Morocco","hotelRating":"5","latitude":"31.6205","longitude":"-7.99129","state_id":3311,"state_name":"Safi","country_id":149},{"active":false,"Giataid":"46605","cityId":67158,"cityName":"Marrakech","hotelId":46605,"hotelName":"Es Saadi Marrakech Resort","address":"Rue Ibrahim El Mazini,Hivernage,Marrakesch,Morocco","phones":"+212524337400","fax":"+212524447644","email":"info@essaadi.com","url":"http://www.essaadi.com","countryIso2":"MA","countryName":"Morocco","hotelRating":"5","latitude":"31.6211","longitude":"-8.00432","state_id":3311,"state_name":"Safi","country_id":149},{"active":false,"Giataid":"46606","cityId":148455,"cityName":"Casablanca","hotelId":46606,"hotelName":"Kenzi Basma","address":"Avenue Moulay Hassan 1er,20000 Casablanca,Morocco","phones":"+212522223323","fax":"+212522268936","email":"resabasma@kenzi-hotels.com","url":"http://www.trivago.de/casablanca-85721/hotel/kenzi-basma-97816","countryIso2":"MA","countryName":"Morocco","hotelRating":"4","latitude":"33.5944","longitude":"-7.62071","state_id":2830,"state_name":"Valparaiso","country_id":44},{"active":false,"Giataid":"46607","cityId":148455,"cityName":"Casablanca","hotelId":46607,"hotelName":"Sheraton Casablanca Hotel & Towers","address":"Avenue des F.A.R. 100,20000 Casablanca,Morocco","phones":"+212522439494","fax":"+212522439433","email":"reservations.00307@sheraton.com","url":"http://www.starwoodhotels.com/sheraton/property/dining/index.html?propertyID=307","countryIso2":"MA","countryName":"Morocco","hotelRating":"5","latitude":"33.5964","longitude":"-7.61208","state_id":2830,"state_name":"Valparaiso","country_id":44},{"active":false,"Giataid":"46610","cityId":53357,"cityName":"Zagora","hotelId":46610,"hotelName":"Ksar Tinsouline","address":"Avenue Hassan II,45900 Zagora,Morocco","phones":"+212534847252","fax":"","email":"","url":"","countryIso2":"MA","countryName":"Morocco","hotelRating":"4","latitude":"30.3279","longitude":"-5.83413","state_id":2104,"state_name":"Lefkada Regional Unit","country_id":85},{"active":false,"Giataid":"47312","cityId":148455,"cityName":"Casablanca","hotelId":47312,"hotelName":"Hyatt Regency Casablanca","address":"Place des Nations Unies,Casablanca 20000,Morocco","phones":"+212522431234","fax":"+212522431334","email":"casablanca.regency@hyatt.com","url":"http://casablanca.regency.hyatt.com/","countryIso2":"MA","countryName":"Morocco","hotelRating":"5","latitude":"33.596","longitude":"-7.61853","state_id":2830,"state_name":"Valparaiso","country_id":44},{"active":false,"Giataid":"47314","cityId":148455,"cityName":"Casablanca","hotelId":47314,"hotelName":"Atlas Almohades Casablanca City Center","address":"Avenue Moulay Hassani 1Er,20000 Casablanca,Morocco","phones":"+21222220505","fax":"+21222260242","email":"casa.almohade@ramadaglobal.com","url":"http://www.ramadahotelsmaroc.com/casa/Hotel-Ramada-Les-Almohades-Agadir-Maroc/?s=a","countryIso2":"MA","countryName":"Morocco","hotelRating":"4","latitude":"33.5931","longitude":"-7.6233","state_id":2830,"state_name":"Valparaiso","country_id":44},{"active":false,"Giataid":"47881","cityId":67046,"cityName":"Agadir","hotelId":47881,"hotelName":"XXL Luxus","address":"NULL","phones":"","fax":"","email":"","url":"","countryIso2":"MA","countryName":"Morocco","hotelRating":"1","latitude":"30.4074","longitude":"-9.58784","state_id":3297,"state_name":"Assa-Zag (EH-partial)","country_id":149},{"active":false,"Giataid":"48277","cityId":67158,"cityName":"Marrakech","hotelId":48277,"hotelName":"Atlas Medina & Spa","address":"Avenue Hassan 1Er,L�Hivernage,40000 Marrakech,Morocco","phones":"+212524339950","fax":"+212524420019","email":"atlasmedina@menara.ma","url":"http://www.hotelsatlas.com/?lang=fr&amp;contenu=hotel&amp;cat=5&amp;hot=1&amp;rub=8","countryIso2":"MA","countryName":"Morocco","hotelRating":"5","latitude":"31.6236","longitude":"-8.01362","state_id":3311,"state_name":"Safi","country_id":149},{"active":false,"Giataid":"48343","cityId":67046,"cityName":"Agadir","hotelId":48343,"hotelName":"Residence Intouriste Hotel","address":"Lot G9,Founty,Agadir,Morocco","phones":"+21228237515","fax":"+21228237520","email":"","url":"http://www.trivago.de/agadir-85734/hotel/residence-intouriste-96897","countryIso2":"MA","countryName":"Morocco","hotelRating":"3","latitude":"30.4003","longitude":"-9.59114","state_id":3297,"state_name":"Assa-Zag (EH-partial)","country_id":149},{"active":false,"Giataid":"48374","cityId":67158,"cityName":"Marrakech","hotelId":48374,"hotelName":"Kasbah Agafay","address":"Route de Guemassa Km 20,40000 Marrakech,Morocco","phones":"","fax":"","email":"","url":"","countryIso2":"MA","countryName":"Morocco","hotelRating":"5","latitude":"31.5041","longitude":"-8.16179","state_id":3311,"state_name":"Safi","country_id":149},{"active":false,"Giataid":"48484","cityId":67158,"cityName":"Marrakech","hotelId":48484,"hotelName":"Les Jardins La Medina","address":"Derb chtouka 21,Kasbah,40000 Marrakech,Morocco","phones":"+212524381851","fax":"+212524385385","email":"info@lesjardinsdelamedina.com","url":"http://www.lesjardinsdelamedina.com/","countryIso2":"MA","countryName":"Morocco","hotelRating":"5","latitude":"31.6128","longitude":"-7.98746","state_id":3311,"state_name":"Safi","country_id":149},{"active":false,"Giataid":"49942","cityId":148455,"cityName":"Casablanca","hotelId":49942,"hotelName":"Movenpick Hotel Casablanca","address":"Rond Point Hassan II,20070 Casablanca,Morocco","phones":"+212522488000","fax":"+212522293035","email":"casablancaplaza@husa.es","url":"http://www.husa.es/de/nuestros-hoteles/hotel/v/u/husa-casablanca-plaza","countryIso2":"MA","countryName":"Morocco","hotelRating":"5","latitude":"33.5837","longitude":"-7.62385","state_id":2830,"state_name":"Valparaiso","country_id":44},{"active":false,"Giataid":"49944","cityId":67158,"cityName":"Marrakech","hotelId":49944,"hotelName":"Movenpick Hotel Mansour Eddahbi & Palais des Congres Marrakech","address":"Avenue Mohammed VI,Hivernage,40000  Marrakech,Morocco","phones":"+212524339100","fax":"+21224339121","email":"lemansour@iam.net.ma","url":"http://www.hotel-mansoureddahbi.com/","countryIso2":"MA","countryName":"Morocco","hotelRating":"5","latitude":"31.6246","longitude":"-8.01567","state_id":3311,"state_name":"Safi","country_id":149},{"active":false,"Giataid":"49945","cityId":67800,"cityName":"Rabat","hotelId":49945,"hotelName":"Sofitel Rabat Jardin Des Roses","address":"PO Box 450,Souissi,10000 Rabat,Morocco","phones":"+212537675656","fax":"+212537671492","email":"H6813@sofitel.com","url":"http://www.sofitel.com/gb/hotel-6813-sofitel-rabat-jardin-des-roses/index.shtml","countryIso2":"MA","countryName":"Morocco","hotelRating":"5","latitude":"33.9907","longitude":"-6.83738","state_id":101,"state_name":"Victoria","country_id":135},{"active":false,"Giataid":"49946","cityId":null,"cityName":"Tanger","hotelId":49946,"hotelName":"El Minzah","address":"85 Rue De La Liberte,90000 Tangiers,Morocco","phones":"+212539333444","fax":"+212539333999","email":"reservation@elminzah.com","url":"http://elminzah.com/static/main.php?lang=3&amp;page=home","countryIso2":"MA","countryName":"Morocco","hotelRating":"5","latitude":"35.7817","longitude":"-5.81228","state_id":null,"state_name":null,"country_id":null},{"active":false,"Giataid":"50191","cityId":67118,"cityName":"Fes","hotelId":50191,"hotelName":"Hotel Les Merinides","address":"Douar El Magta,Fes,Morocco","phones":"+212535645226","fax":"+21255645225","email":"","url":"http://www.splendia.com/pagehotel.php?hotelid=11030","countryIso2":"MA","countryName":"Morocco","hotelRating":"5","latitude":"34.0431","longitude":"-4.99545","state_id":3313,"state_name":"Fes-Meknes","country_id":149},{"active":false,"Giataid":"50193","cityId":67118,"cityName":"Fes","hotelId":50193,"hotelName":"Menzeh Zalagh","address":"10 Rue Mohamed Diouri,30000 F?s,Morocco","phones":"+212535626531","fax":"+21235651995","email":"servation@zalagh-palace.ma","url":"http://www.zalagh-palace.ma/indexmz.html","countryIso2":"MA","countryName":"Morocco","hotelRating":"4","latitude":"34.0415","longitude":"-4.99442","state_id":3313,"state_name":"Fes-Meknes","country_id":149},{"active":false,"Giataid":"50194","cityId":67118,"cityName":"Fes","hotelId":50194,"hotelName":"Splendid","address":"9 Rue Abdelkrim El Khattabi,30000 F?s,Morocco","phones":"+212535622148","fax":"+212535654892","email":"","url":"","countryIso2":"MA","countryName":"Morocco","hotelRating":"3","latitude":"34.0379","longitude":"-5.0005","state_id":3313,"state_name":"Fes-Meknes","country_id":149},{"active":false,"Giataid":"50195","cityId":67158,"cityName":"Marrakech","hotelId":50195,"hotelName":"Nassim","address":"Boulevard Mohammed V 115,40000 Marrakech,Morocco","phones":"+21244446401","fax":"+21244436710","email":"hotelnassim@iam.net.ma","url":"http://www.hotelnassim.ma/","countryIso2":"MA","countryName":"Morocco","hotelRating":"4","latitude":"31.6352","longitude":"-8.01355","state_id":3311,"state_name":"Safi","country_id":149},{"active":false,"Giataid":"50196","cityId":67158,"cityName":"Marrakech","hotelId":50196,"hotelName":"Ibis Marrakech Center Gare","address":"Avenue Hassan II,Place de la Gare,40000 Marrakech,Morocco","phones":"+212525072527","fax":"+212524435936","email":"","url":"http://www.ibishotel.com/de/hotel-2034-ibis-moussafir-marrakech-centre-gare/index.shtml","countryIso2":"MA","countryName":"Morocco","hotelRating":"3","latitude":"31.6297","longitude":"-8.01839","state_id":3311,"state_name":"Safi","country_id":149},{"active":false,"Giataid":"76261","cityId":67158,"cityName":"Marrakech","hotelId":76261,"hotelName":"Les Jardins De La Koutoubia","address":"26 Rue de la Koutoubia,40000 Marrakesch,Morocco","phones":"+212524388800","fax":"+21224442222","email":"hoteljardinkoutoubia@menara.ma","url":"http://www.lesjardinsdelakoutoubia.com/uk/navigation.htm","countryIso2":"MA","countryName":"Morocco","hotelRating":"5","latitude":"31.6262","longitude":"-7.99174","state_id":3311,"state_name":"Safi","country_id":149},{"active":false,"Giataid":"126909","cityId":null,"cityName":"Moulay Idris","hotelId":126909,"hotelName":"Volubilis Inn","address":"P.O. Box 144,50350 Moulay Idriss,Morocco","phones":"+212535544405","fax":"+212535544280","email":"hotelvolubilisinn@gmail.com","url":"http://www.trivago.de/moulay-idriss-zerhoun-103080/hotel/volubilis-inn-521316","countryIso2":"MA","countryName":"Morocco","hotelRating":"4","latitude":"34.0542","longitude":"-5.52722","state_id":null,"state_name":null,"country_id":null},{"active":false,"Giataid":"126910","cityId":67118,"cityName":"Fes","hotelId":126910,"hotelName":"Riad Sara Resort","address":"17 Derb El Gabasse,Douh,Batha,30000 F?s,Morocco","phones":"+212535636820","fax":"","email":"","url":"","countryIso2":"MA","countryName":"Morocco","hotelRating":"4","latitude":"34.0571","longitude":"-4.97698","state_id":3313,"state_name":"Fes-Meknes","country_id":149},{"active":false,"Giataid":"126911","cityId":67118,"cityName":"Fes","hotelId":126911,"hotelName":"Riad 9","address":"9 Derb Lamsside,Zkak El Ma,30200 Fez Medina,Morocco","phones":"","fax":"","email":"stephen@riad9.com","url":"http://www.riad9.com","countryIso2":"MA","countryName":"Morocco","hotelRating":"1","latitude":"34.0635","longitude":"-4.97903","state_id":3313,"state_name":"Fes-Meknes","country_id":149},{"active":false,"Giataid":"127752","cityId":null,"cityName":"Merzouga","hotelId":127752,"hotelName":"Hotel Kanz Erremal Merzouga","address":"Touz Aci el Bide,52202 Merzouga,Morocco","phones":"+212535578482","fax":"","email":"","url":"","countryIso2":"MA","countryName":"Morocco","hotelRating":"3","latitude":"31.11","longitude":"-3.97","state_id":null,"state_name":null,"country_id":null},{"active":false,"Giataid":"128827","cityId":67158,"cityName":"Marrakech","hotelId":128827,"hotelName":"Dar Ayniwen","address":"Tafrata � Palmeraie de Marrakech,40000  Marrakesch,Morocco","phones":"+212524329684","fax":"","email":"","url":"","countryIso2":"MA","countryName":"Morocco","hotelRating":"5","latitude":"31.6649","longitude":"-7.95971","state_id":3311,"state_name":"Safi","country_id":149},{"active":false,"Giataid":"129706","cityId":67116,"cityName":"Essaouira","hotelId":129706,"hotelName":"Riad Omarine","address":"17 Rue Abderrahmane Eddakhil,M?dina,44000 Essaouria,Morocco","phones":"+212524431537","fax":"+212524437942","email":"","url":"http://www.trivago.de/essaouira-116941/hotel/riad-lotus-marine-476611","countryIso2":"MA","countryName":"Morocco","hotelRating":"5","latitude":"31.5145","longitude":"-9.77029","state_id":3311,"state_name":"Safi","country_id":149},{"active":false,"Giataid":"129708","cityId":67158,"cityName":"Marrakech","hotelId":129708,"hotelName":"Riad Les Bougainvilliers","address":"5 Derb Ben Amrane,Riad Zitoun Lakdim,40000 Marrakech,Medina,Morocco","phones":"+212524391717","fax":"+212524391717","email":"reservation@riadlesbougainvilliers.com","url":"http://www.trivago.de/marrakesch-85724/hotel/riad-les-bougainvilliers-909353","countryIso2":"MA","countryName":"Morocco","hotelRating":"4","latitude":"31.6213","longitude":"-7.98609","state_id":3311,"state_name":"Safi","country_id":149},{"active":false,"Giataid":"129709","cityId":67158,"cityName":"Marrakech","hotelId":129709,"hotelName":"Las Palmeras","address":"Route de Ouarzazate,40000 Marrakech,Morocco","phones":"+212524328387","fax":"+212524328077","email":"resa@laspalmeras-marrakech.com","url":"http://www.laspalmeras-marrakech.com/","countryIso2":"MA","countryName":"Morocco","hotelRating":"4","latitude":"31.6326","longitude":"-7.89369","state_id":3311,"state_name":"Safi","country_id":149},{"active":false,"Giataid":"129711","cityId":67118,"cityName":"Fes","hotelId":129711,"hotelName":"Moulay Yacoub","address":"P.O. Box 40,Moulay Yacoub,Fes,Morocco","phones":"+21255694035","fax":"+21255694012","email":"moulayacoub@sogatour.ma","url":"http://www.sogatour.ma/moulayacoub.html","countryIso2":"MA","countryName":"Morocco","hotelRating":"4","latitude":"34.0875","longitude":"-5.1754","state_id":3313,"state_name":"Fes-Meknes","country_id":149},{"active":false,"Giataid":"129712","cityId":null,"cityName":"Tanger","hotelId":129712,"hotelName":"Chellah","address":"47-49 rue Allal Ben Abdallah,Tanger 90000,Morocco","phones":"+21239321002","fax":"+212539320998","email":"","url":"","countryIso2":"MA","countryName":"Morocco","hotelRating":"3","latitude":"35.7773","longitude":"-5.81129","state_id":null,"state_name":null,"country_id":null},{"active":false,"Giataid":"91190","cityId":148455,"cityName":"Casablanca","hotelId":132685,"hotelName":"Business Hotel","address":"6 Rue Jenner,Casablanca,Morocco","phones":"+212522474709","fax":"+212522204147","email":"","url":"http://www.trivago.de/casablanca-85721/hotel/business-476601","countryIso2":"MA","countryName":"Morocco","hotelRating":"4","latitude":"33.5818","longitude":"-7.62341","state_id":2830,"state_name":"Valparaiso","country_id":44},{"active":false,"Giataid":"132687","cityId":67158,"cityName":"Marrakech","hotelId":132687,"hotelName":"Riad Sable Chaud","address":"135 Derb Jdid - Bab Doukkala,Marrakech Medina,Morocco","phones":"+212524383142","fax":"+212524383142","email":"","url":"http://www.riadsablechaud.com/homepage.aspx","countryIso2":"MA","countryName":"Morocco","hotelRating":"4","latitude":"31.6336","longitude":"-7.99889","state_id":3311,"state_name":"Safi","country_id":149},{"active":false,"Giataid":"132688","cityId":67158,"cityName":"Marrakech","hotelId":132688,"hotelName":"Riad Les Hibiscus","address":"17/18 Derb Sidi Ben Aissa,Derb Dabachi,40000 Marrakech,Medina,Morocco","phones":"+212524383145","fax":"+212524383145","email":"contact@riad-hibiscus.com","url":"http://www.riad-hibiscus.com/hibiscus_espagnol.html","countryIso2":"MA","countryName":"Morocco","hotelRating":"4","latitude":"31.6263","longitude":"-7.98573","state_id":3311,"state_name":"Safi","country_id":149},{"active":false,"Giataid":"132691","cityId":67158,"cityName":"Marrakech","hotelId":132691,"hotelName":"Tachfine","address":"87, Boulevard Mohamed V,Gu?liz, Marrakech 40000,Morocco","phones":"+21252444448685","fax":"+212 (0) 5 24 43 78 62","email":"contact@tachfine-hotel.com","url":"http://www.tachfine-hotel.com/","countryIso2":"MA","countryName":"Morocco","hotelRating":"3","latitude":"31.6308","longitude":"-8.00523","state_id":3311,"state_name":"Safi","country_id":149},{"active":false,"Giataid":"132692","cityId":67158,"cityName":"Marrakech","hotelId":132692,"hotelName":"Le Tafilalet","address":"Avenue Abdelkrim El Khattabi BP 582,40000 Marrakech,Morocco","phones":"+212524449818","fax":"+212524447532","email":"","url":"","countryIso2":"MA","countryName":"Morocco","hotelRating":"3","latitude":"31.6465","longitude":"-8.01931","state_id":3311,"state_name":"Safi","country_id":149},{"active":false,"Giataid":"132693","cityId":67158,"cityName":"Marrakech","hotelId":132693,"hotelName":"Riad Dar Cherif","address":"Km 11 Route de Ouarzazate,Marrakech 40000,Morocco","phones":"+212661458207","fax":"","email":"","url":"http://riaddarcherifhotelmarrakech.priorguest.com/de","countryIso2":"MA","countryName":"Morocco","hotelRating":"5","latitude":"31.6533","longitude":"-7.97216","state_id":3311,"state_name":"Safi","country_id":149},{"active":false,"Giataid":"132695","cityId":67158,"cityName":"Marrakech","hotelId":132695,"hotelName":"Riad Amira","address":"52 Derb Benzina,La Kasbah,M?dina,Marrakech,Morocco","phones":"+212524384323","fax":"","email":"","url":"http://www.riadamira.com/","countryIso2":"MA","countryName":"Morocco","hotelRating":"4","latitude":"31.6153","longitude":"-7.98735","state_id":3311,"state_name":"Safi","country_id":149},{"active":false,"Giataid":"132700","cityId":67178,"cityName":"Ouarzazate","hotelId":132700,"hotelName":"La Perle Du Sud","address":"39/40, Avenue Mohammed V,45000 Ouarzazate,Morocco","phones":"+21224888640","fax":"+21224888646","email":"reservations@hotelperledusud.com","url":"http://hotelperledusud.com","countryIso2":"MA","countryName":"Morocco","hotelRating":"3","latitude":"30.9204","longitude":"-6.92002","state_id":3290,"state_name":"Draa-Tafilalet","country_id":149},{"active":false,"Giataid":"132701","cityId":67178,"cityName":"Ouarzazate","hotelId":132701,"hotelName":"Farah Al Janoub","address":"Avenue Erraha,Ouarzazate,Morocco","phones":"","fax":"","email":"","url":"","countryIso2":"MA","countryName":"Morocco","hotelRating":"4","latitude":"30.9237","longitude":"-6.90463","state_id":3290,"state_name":"Draa-Tafilalet","country_id":149},{"active":false,"Giataid":"132703","cityId":67800,"cityName":"Rabat","hotelId":132703,"hotelName":"Balima","address":"Avenue Mohamed V,Rabat,Morocco","phones":"+212537707967","fax":"+212537707450","email":"hotelbalima@menara.ma","url":"http://www.hotel-balima.net/index.html","countryIso2":"MA","countryName":"Morocco","hotelRating":"3","latitude":"34.0183","longitude":"-6.83522","state_id":101,"state_name":"Victoria","country_id":135},{"active":false,"Giataid":"132704","cityId":67800,"cityName":"Rabat","hotelId":132704,"hotelName":"Riad Dar El Kebira","address":"Rue des Consuls 1,Impasse Belghazi,Ferrane Znaki M?dina,Rabat 10000,Morocco","phones":"+212537724906","fax":"+212537724057","email":"contact@darelkebira.com","url":"http://www.trivago.de/rabat-85733/hotel/riad-dar-el-kebira-944933","countryIso2":"MA","countryName":"Morocco","hotelRating":"5","latitude":"34.0288","longitude":"-6.83491","state_id":101,"state_name":"Victoria","country_id":135},{"active":false,"Giataid":"132706","cityId":67118,"cityName":"Fes","hotelId":132706,"hotelName":"De La Paix","address":"44 Bd Hassan II,F?s,Morocco","phones":"+212535931797","fax":"+212535626880","email":"info@hotellapaixfez.com","url":"http://www.hotellapaixfez.com/","countryIso2":"MA","countryName":"Morocco","hotelRating":"3","latitude":"34.0428","longitude":"-4.99892","state_id":3313,"state_name":"Fes-Meknes","country_id":149},{"active":false,"Giataid":"132707","cityId":67118,"cityName":"Fes","hotelId":132707,"hotelName":"Riad El Yacout","address":"9 Derb Guebbas Batha,Medina,F?s 30200,Morocco","phones":"+212535740020","fax":"","email":"riadyacout@menara.ma","url":"http://www.riadyacout.com/","countryIso2":"MA","countryName":"Morocco","hotelRating":"4","latitude":"34.0616","longitude":"-4.98054","state_id":3313,"state_name":"Fes-Meknes","country_id":149},{"active":false,"Giataid":"132710","cityId":null,"cityName":"Tanger","hotelId":132710,"hotelName":"Ahlen","address":"Km 5 Avenue des Far,90000 Tanger,Morocco","phones":"+212539312356","fax":"+212539313642","email":"info@ahlenhotel.ma","url":"http://www.ahlenhotel.ma/","countryIso2":"MA","countryName":"Morocco","hotelRating":"3","latitude":"35.7323","longitude":"-5.87119","state_id":null,"state_name":null,"country_id":null},{"active":false,"Giataid":"132708","cityId":67118,"cityName":"Fes","hotelId":132708,"hotelName":"Batha","address":"Place De L'istiqlal Batha,BP 505,30000 Fes,Fes,Morocco","phones":"+212535634860","fax":"+212535741078","email":"","url":"","countryIso2":"MA","countryName":"Morocco","hotelRating":"3","latitude":"34.0333","longitude":"-5.0012","state_id":3313,"state_name":"Fes-Meknes","country_id":149},{"active":false,"Giataid":"132712","cityId":67250,"cityName":"Tetouan","hotelId":132712,"hotelName":"Kabila","address":"Km 20 Route De T?touan Ceuta M''diq,T?touan,Morocco","phones":"+212539666013","fax":"+212539666203","email":"","url":"http://www.trivago.de/tetouan-85740/hotel/kabila-1041712","countryIso2":"MA","countryName":"Morocco","hotelRating":"4","latitude":"35.7284","longitude":"-5.34009","state_id":3324,"state_name":"Tanger-Tetouan-Al Hoceïma","country_id":149},{"active":false,"Giataid":"134100","cityId":67158,"cityName":"Marrakech","hotelId":134100,"hotelName":"Riad Daria","address":"186 Derb Chtouka La Kasbah,Marrakech,Morocco","phones":"+212524376767","fax":"+212524376767","email":"contact@riaddaria-marrakech.com","url":"http://www.riaddaria-marrakech.com/","countryIso2":"MA","countryName":"Morocco","hotelRating":"4","latitude":"31.612","longitude":"-7.98704","state_id":3311,"state_name":"Safi","country_id":149},{"active":false,"Giataid":"134169","cityId":null,"cityName":"Tanger","hotelId":134169,"hotelName":"Ibis Tanger Free Zone","address":"Route Nationale 1 Km 12,Zone Franche,Gueznaya,Tanger,Morocco","phones":"+212539393930","fax":"+212539393931","email":"","url":"http://www.ibishotel.com/gb/hotel-3363-ibis-tanger-free-zone/index.shtml","countryIso2":"MA","countryName":"Morocco","hotelRating":"3","latitude":"35.715","longitude":"-5.90441","state_id":null,"state_name":null,"country_id":null},{"active":false,"Giataid":"134210","cityId":148455,"cityName":"Casablanca","hotelId":134210,"hotelName":"ibis Casablanca City Center","address":"Angle Zaid Ou Hmad,Rue Sidi Belyout,20190 Casablanca,Morocco","phones":"+212520484970","fax":"+212522466561","email":"","url":"http://www.ibishotel.com/de/hotel-6573-ibis-moussafir-casablanca-city-center/index.shtml","countryIso2":"MA","countryName":"Morocco","hotelRating":"3","latitude":"33.5987","longitude":"-7.61334","state_id":2830,"state_name":"Valparaiso","country_id":44},{"active":false,"Giataid":"134445","cityId":67118,"cityName":"Fes","hotelId":134445,"hotelName":"Golden Tulip Tghat Fes","address":"28-29 Avenue des Forces Arm?es Royales,30000 F?s,Morocco","phones":"+212535930693","fax":"+212535942498","email":"","url":"","countryIso2":"MA","countryName":"Morocco","hotelRating":"4","latitude":"34.0404","longitude":"-5.01889","state_id":3313,"state_name":"Fes-Meknes","country_id":149},{"active":false,"Giataid":"134497","cityId":67046,"cityName":"Agadir","hotelId":134497,"hotelName":"Agyad Maroc","address":"Quartier Touristique Founty,80000 Agadir,Morocco","phones":"+212528221666","fax":"","email":"","url":"http://agyad-maroc.agadir-hotels.net/en/","countryIso2":"MA","countryName":"Morocco","hotelRating":"4","latitude":"30.4003","longitude":"-9.59177","state_id":3297,"state_name":"Assa-Zag (EH-partial)","country_id":149},{"active":false,"Giataid":"134625","cityId":67158,"cityName":"Marrakech","hotelId":134625,"hotelName":"Dar Tuscia","address":"91 Dior Jdad,Zaouia El Abbessia,Bab Doukkala,40030 Marrakech,Morocco","phones":"+212524381396","fax":"","email":"dartuscia@gmail.com","url":"http://www.dartuscia.com/","countryIso2":"MA","countryName":"Morocco","hotelRating":"4","latitude":"31.6373","longitude":"-7.99455","state_id":3311,"state_name":"Safi","country_id":149},{"active":false,"Giataid":"135827","cityId":null,"cityName":"Sidi Rbat","hotelId":135827,"hotelName":"Ksar Massa","address":"Sidi Rbat,Souss-Massa National Park,Morocco","phones":"+212661280319","fax":"+212528255772","email":"ksarmassa@ksarmassa.com","url":"http://www.ksarmassa.com","countryIso2":"MA","countryName":"Morocco","hotelRating":"4","latitude":"30.0858","longitude":"-9.66643","state_id":null,"state_name":null,"country_id":null},{"active":false,"Giataid":"135828","cityId":67046,"cityName":"Agadir","hotelId":135828,"hotelName":"Golden Beach Appart Hotel","address":"Zone Touristique Founty Sonaba,Secteur C,Lote 3,80000 Agadir,Souss-Massa,Morocco","phones":"+212528211241","fax":"+21228211242","email":"appart_goldenbeach@menara.ma","url":"http://www.goldenbeach.ma","countryIso2":"MA","countryName":"Morocco","hotelRating":"3","latitude":"30.4005","longitude":"-9.59727","state_id":3297,"state_name":"Assa-Zag (EH-partial)","country_id":149},{"active":false,"Giataid":"135831","cityId":null,"cityName":"Oulad Berhil","hotelId":135831,"hotelName":"Palais Riad Hida","address":"RN 10 de Ouarzazate,83300 Oulad Barrehil,Taroudant,Morocco","phones":"+212528531044","fax":"","email":"hide@menara.ma","url":"http://www.riadhida.com/","countryIso2":"MA","countryName":"Morocco","hotelRating":"2","latitude":"30.6377","longitude":"-8.46523","state_id":null,"state_name":null,"country_id":null},{"active":false,"Giataid":"135832","cityId":67242,"cityName":"Taroudant","hotelId":135832,"hotelName":"Dar Zitoune","address":"Boutarial El Berrania,83000 Taroudant,Morocco","phones":"+212528551141","fax":"+212528551143","email":"info@darzitoune.com","url":"http://www.darzitoune.com","countryIso2":"MA","countryName":"Morocco","hotelRating":"4","latitude":"30.4727","longitude":"-8.87098","state_id":3297,"state_name":"Assa-Zag (EH-partial)","country_id":149},{"active":false,"Giataid":"135840","cityId":67116,"cityName":"Essaouira","hotelId":135840,"hotelName":"Casa Lila","address":"Bab Marrakech,94 Rue Mohamed El Qorry,Essaouira,Morocco","phones":"+212524475545","fax":"+212524475545","email":"riadcasalila@hotmail.com","url":"http://www.casalila-riad.com/","countryIso2":"MA","countryName":"Morocco","hotelRating":"4","latitude":"31.5133","longitude":"-9.76732","state_id":3311,"state_name":"Safi","country_id":149},{"active":false,"Giataid":"135837","cityId":67208,"cityName":"Sidi Ifni","hotelId":135837,"hotelName":"Bellevue","address":"","phones":"","fax":"","email":"","url":"","countryIso2":"MA","countryName":"Morocco","hotelRating":"1","latitude":"29.3826","longitude":"-10.1712","state_id":3297,"state_name":"Assa-Zag (EH-partial)","country_id":149},{"active":false,"Giataid":"135839","cityId":67116,"cityName":"Essaouira","hotelId":135839,"hotelName":"Lalla Mira","address":"14 Rue d'Alg?rie,44000 Essaouira,Morocco","phones":"+212524475046","fax":"+212524475850","email":"info@lallamira.net","url":"http://www.lallamira.net/","countryIso2":"MA","countryName":"Morocco","hotelRating":"2","latitude":"31.5129","longitude":"-9.76731","state_id":3311,"state_name":"Safi","country_id":149},{"active":false,"Giataid":"135846","cityId":67175,"cityName":"Oualidia","hotelId":135846,"hotelName":"La Sultana","address":"Parc ? huitres 3,Bled Ga?lla,Oualidia 24250,Morocco","phones":"+212524388008","fax":"+212524389809","email":"reservation@lasultanahotels.com","url":"http://www.lasultanaoualidia.com/index2.php","countryIso2":"MA","countryName":"Morocco","hotelRating":"5","latitude":"32.7397","longitude":"-9.03075","state_id":3303,"state_name":"Casablanca-Settat","country_id":149},{"active":false,"Giataid":"135848","cityId":67118,"cityName":"Fes","hotelId":135848,"hotelName":"Riad Norma","address":"16 Derb Sornas,Quartier Ziat,F?s 30000,Morocco","phones":"+212535634781","fax":"+212535634748","email":"contact@riadnorma.com","url":"http://www.riadnorma.com/","countryIso2":"MA","countryName":"Morocco","hotelRating":"3","latitude":"34.0577","longitude":"-4.97825","state_id":3313,"state_name":"Fes-Meknes","country_id":149},{"active":false,"Giataid":"135850","cityId":67118,"cityName":"Fes","hotelId":135850,"hotelName":"Riad la Cle de Fes","address":"21 Derb el Guebbas Douh,Fes 30000,Morocco","phones":"+212535637499","fax":"","email":"reservation@riadlacledefes.com","url":"http://www.riadlacledefes.com/","countryIso2":"MA","countryName":"Morocco","hotelRating":"4","latitude":"34.0588","longitude":"-4.98063","state_id":3313,"state_name":"Fes-Meknes","country_id":149},{"active":false,"Giataid":"135854","cityId":67118,"cityName":"Fes","hotelId":135854,"hotelName":"Sofia","address":"3 Rue Royaume Arabie Saoudite,30000 F?s,Morocco","phones":"+212535624265","fax":"+212535626478","email":"hotelsofia@yahoo.fr","url":"http://www.trivago.de/fes-85717/hotel/sofia-383876","countryIso2":"MA","countryName":"Morocco","hotelRating":"4","latitude":"34.0405","longitude":"-5.00199","state_id":3313,"state_name":"Fes-Meknes","country_id":149},{"active":false,"Giataid":"135855","cityId":67118,"cityName":"Fes","hotelId":135855,"hotelName":"Riad Louna","address":"21 Derb Serraj,Talaa Sghira,Bab Boujloud,Fes 30200,Morocco","phones":"+212535741985","fax":"+212535740752","email":"riadlouna@gmail.com","url":"http://www.riadlouna.com/homepage.htm","countryIso2":"MA","countryName":"Morocco","hotelRating":"4","latitude":"34.0615","longitude":"-4.98263","state_id":3313,"state_name":"Fes-Meknes","country_id":149},{"active":false,"Giataid":"135857","cityId":67163,"cityName":"Meknes","hotelId":135857,"hotelName":"Riad Palais Didi","address":"30 Derb Hammam Moulay Ismail,Mekn?s,Morocco","phones":"+212535558590","fax":"+212535558653","email":"info@palaisdidi.com","url":"http://www.palaisdidi.com/","countryIso2":"MA","countryName":"Morocco","hotelRating":"3","latitude":"33.8943","longitude":"-5.56022","state_id":3313,"state_name":"Fes-Meknes","country_id":149},{"active":false,"Giataid":"135858","cityId":67163,"cityName":"Meknes","hotelId":135858,"hotelName":"Riad Yacout","address":"22 Place Lalla Aouda,Mekn?s,Morocco","phones":"+212535533110","fax":"+212535533510","email":"riadyacout@hotmail.fr","url":"http://www.riad-yacout-meknes.com","countryIso2":"MA","countryName":"Morocco","hotelRating":"3","latitude":"33.8936","longitude":"-5.56287","state_id":3313,"state_name":"Fes-Meknes","country_id":149},{"active":false,"Giataid":"135860","cityId":67158,"cityName":"Marrakech","hotelId":135860,"hotelName":"El Fenn","address":"Derb Moullay Abdullah Ben Hezzian,Bab El Ksour,Medina,Marrakesch,Morocco","phones":"+212524441210","fax":"+212524441211","email":"contact@riadelfenn.com","url":"http://www.riadelfenn.com/en/","countryIso2":"MA","countryName":"Morocco","hotelRating":"4","latitude":"31.6272","longitude":"-7.99296","state_id":3311,"state_name":"Safi","country_id":149},{"active":false,"Giataid":"135861","cityId":67158,"cityName":"Marrakech","hotelId":135861,"hotelName":"Riad Farnatchi","address":"Derb el Farnatchi,Rue Souk el Fassis,Qua�at Ben Ahid,Marrakech,Medina,Morocco","phones":"+212524384910","fax":"+212524384913","email":"enquiries@riadfarnatchi.com","url":"http://www.riadfarnatchi.com/","countryIso2":"MA","countryName":"Morocco","hotelRating":"5","latitude":"31.621","longitude":"-7.98338","state_id":3311,"state_name":"Safi","country_id":149},{"active":false,"Giataid":"135862","cityId":67158,"cityName":"Marrakech","hotelId":135862,"hotelName":"Palais Calipau","address":"Derb Ben Zina 14,La Kasbah,40000 Marrakech,Morocco","phones":"+212524375583","fax":"+212524382070","email":"info@palais-calipau.com","url":"http://www.palais-calipau.com","countryIso2":"MA","countryName":"Morocco","hotelRating":"5","latitude":"31.6153","longitude":"-7.98856","state_id":3311,"state_name":"Safi","country_id":149},{"active":false,"Giataid":"135866","cityId":67158,"cityName":"Marrakech","hotelId":135866,"hotelName":"Riad KaiSS","address":"65 Riad Zitoun Kedim,40000 Marrakech,Marokko,Morocco","phones":"+212524440141","fax":"+212524384793","email":"info@riadkaiss.com","url":"http://www.riadkaiss.com/","countryIso2":"MA","countryName":"Morocco","hotelRating":"4","latitude":"31.622","longitude":"-7.98639","state_id":3311,"state_name":"Safi","country_id":149},{"active":false,"Giataid":"135882","cityId":67158,"cityName":"Marrakech","hotelId":135882,"hotelName":"Riad Shama","address":"22 Derb Taht Sour Lakbir,Bab Taghzout,Zaouia Ebassia,Medina,40000 Marrakech,Morocco","phones":"+212524375615","fax":"+212524448155","email":"riadshama@menara.ma","url":"http://riad-shama.maisons-traditions.com/","countryIso2":"MA","countryName":"Morocco","hotelRating":"4","latitude":"31.6391","longitude":"-7.98999","state_id":3311,"state_name":"Safi","country_id":149},{"active":false,"Giataid":"135883","cityId":67158,"cityName":"Marrakech","hotelId":135883,"hotelName":"Riad Nouzha","address":"9 Derb Saleh,Riad La?rouss,Marrakech,Morocco","phones":"+21224382671","fax":"","email":"contact@riad-nouzha-marrakech.com","url":"http://www.riad-nouzha-marrakech.com/","countryIso2":"MA","countryName":"Morocco","hotelRating":"3","latitude":"31.64","longitude":"-7.99193","state_id":3311,"state_name":"Safi","country_id":149},{"active":false,"Giataid":"135886","cityId":67158,"cityName":"Marrakech","hotelId":135886,"hotelName":"Riad Saba","address":"2 Derb Cherkaoui,Douar Graoua,Marrakech,Medina,Morocco","phones":"+212524375260","fax":"+212524381436","email":"info@riadsaba.com","url":"http://www.riadsaba.com/","countryIso2":"MA","countryName":"Morocco","hotelRating":"4","latitude":"31.625","longitude":"-7.98318","state_id":3311,"state_name":"Safi","country_id":149},{"active":false,"Giataid":"135891","cityId":67178,"cityName":"Ouarzazate","hotelId":135891,"hotelName":"Le Fint","address":"Kasbah de Taourirte Avenue,Med V,Ouarzazate 45000,Morocco","phones":"+21224884886","fax":"+21224887338","email":"reservation@finthotel.com","url":"http://www.finthotel.com","countryIso2":"MA","countryName":"Morocco","hotelRating":"4","latitude":"30.9215","longitude":"-6.89823","state_id":3290,"state_name":"Draa-Tafilalet","country_id":149},{"active":false,"Giataid":"135888","cityId":67158,"cityName":"Marrakech","hotelId":135888,"hotelName":"Riad La Kahana","address":"Riad Zitoun Kdim,Derb Jdid 39,Marrakesh 80000,Morocco","phones":"+212524386043","fax":"+212524386043","email":"kahana@menara.ma","url":"http://www.lakahana.com/","countryIso2":"MA","countryName":"Morocco","hotelRating":"3","latitude":"31.6212","longitude":"-7.98556","state_id":3311,"state_name":"Safi","country_id":149},{"active":false,"Giataid":"135894","cityId":null,"cityName":"Ait Benhaddou","hotelId":135894,"hotelName":"Dar Mouna","address":"Ait Ben Haddou,Morocco","phones":"+212528843054","fax":"+212528843054","email":"info@darmouna.com","url":"http://www.darmouna.com/eccueil.html","countryIso2":"MA","countryName":"Morocco","hotelRating":"2","latitude":"31.0468","longitude":"-7.12998","state_id":null,"state_name":null,"country_id":null},{"active":false,"Giataid":"135897","cityId":53357,"cityName":"Zagora","hotelId":135897,"hotelName":"Stargazing Hotel Sahara Sky","address":"Bo?te Postale 28,45700  Zagora,Morocco","phones":"+212524848562","fax":"","email":"resa@saharasky.com","url":"http://www.hotel-sahara.com/hotel/","countryIso2":"MA","countryName":"Morocco","hotelRating":"3","latitude":"30.2364","longitude":"-5.60834","state_id":2104,"state_name":"Lefkada Regional Unit","country_id":85},{"active":false,"Giataid":"135898","cityId":67049,"cityName":"Agdz","hotelId":135898,"hotelName":"Kasbah Azul","address":"45050 Agdz,Province de Zagora,Morocco","phones":"+21268698141","fax":"+21224372073","email":"","url":"http://www.kasbahazul.com/index.html","countryIso2":"MA","countryName":"Morocco","hotelRating":"3","latitude":"30.7157","longitude":"-6.44408","state_id":3290,"state_name":"Draa-Tafilalet","country_id":149},{"active":false,"Giataid":"135899","cityId":null,"cityName":"M'Hamid","hotelId":135899,"hotelName":"Komplex Chez le Pacha","address":"M'hamid el Ghizlane,Zagora,Morocco","phones":"+212524848696","fax":"+212524848695","email":"info@chezlepacha.com","url":"http://www.chezlepacha.com/index.html","countryIso2":"MA","countryName":"Morocco","hotelRating":"3","latitude":"29.8257","longitude":"-5.67198","state_id":null,"state_name":null,"country_id":null},{"active":false,"Giataid":"135900","cityId":null,"cityName":"Tanger","hotelId":135900,"hotelName":"Riad Tanja","address":"Rue du Portugal,30000 Tanger,Morocco","phones":"+21239333538","fax":"+21239333054","email":"riadtanja@menara.ma","url":"http://www.riadtanja.com/","countryIso2":"MA","countryName":"Morocco","hotelRating":"3","latitude":"35.7845","longitude":"-5.80921","state_id":null,"state_name":null,"country_id":null},{"active":false,"Giataid":"135903","cityId":null,"cityName":"Chefchaouen","hotelId":135903,"hotelName":"Hotel Atlas Chaouen","address":"Rue Sidi Abdelhamid,B.P. 13,91000 Chefchaouene,Morocco","phones":"","fax":"","email":"","url":"","countryIso2":"MA","countryName":"Morocco","hotelRating":"3","latitude":"35.1701","longitude":"-5.26945","state_id":null,"state_name":null,"country_id":null},{"active":false,"Giataid":"136453","cityId":null,"cityName":"Sa?dia","hotelId":136453,"hotelName":"Iberostar Saidia","address":"BP 331,Station Baln?aire,60600 Sa?dia,Morocco","phones":"+212536630010","fax":"+212536630009","email":"","url":"","countryIso2":"MA","countryName":"Morocco","hotelRating":"5","latitude":"35.1016","longitude":"-2.28224","state_id":null,"state_name":null,"country_id":null},{"active":false,"Giataid":"136454","cityId":67158,"cityName":"Marrakech","hotelId":136454,"hotelName":"Riad Schanez","address":"218 Derb Chtouka,Derb Tadla,Kasbah,40000 Marrakesch,Morocco","phones":"+212682000052","fax":"+212524423113","email":"","url":"","countryIso2":"MA","countryName":"Morocco","hotelRating":"4","latitude":"31.6128","longitude":"-7.98729","state_id":3311,"state_name":"Safi","country_id":149},{"active":false,"Giataid":"136455","cityId":67158,"cityName":"Marrakech","hotelId":136455,"hotelName":"Amani","address":"11 Rue Aboubakr Sediq,Avenue Mohamed 6,40000 Marrakech,Morocco","phones":"+21244425959","fax":"+21244422539","email":"amani@hotelerie.ma","url":"http://www.trivago.de/marrakesch-85724/hotel/amani-residence-1236699","countryIso2":"MA","countryName":"Morocco","hotelRating":"3","latitude":"31.627","longitude":"-8.0153","state_id":3311,"state_name":"Safi","country_id":149},{"active":false,"Giataid":"136460","cityId":67158,"cityName":"Marrakech","hotelId":136460,"hotelName":"Majorelle","address":"25 Avenue Allal El Fassi,40000 Marrakech,Morocco","phones":"+21244309940","fax":"+21244311277","email":"info@hotel-majorelle.com","url":"http://www.trivago.de/marrakesch-85724/hotel/majorelle-523081","countryIso2":"MA","countryName":"Morocco","hotelRating":"3","latitude":"31.6404","longitude":"-8.00134","state_id":3311,"state_name":"Safi","country_id":149},{"active":false,"Giataid":"136461","cityId":67158,"cityName":"Marrakech","hotelId":136461,"hotelName":"Du Pacha","address":"33 Rue De La Libert? Gu?liz,40000 Marrakech,Morocco","phones":"+212524431327","fax":"+212524431326","email":"contact@hotelpacha.net","url":"http://www.hotelpacha.net/","countryIso2":"MA","countryName":"Morocco","hotelRating":"2","latitude":"31.6362","longitude":"-8.0104","state_id":3311,"state_name":"Safi","country_id":149},{"active":false,"Giataid":"136462","cityId":67158,"cityName":"Marrakech","hotelId":136462,"hotelName":"Riad Dar Rassam","address":"103 Derb El Qadi Azbezt,40000 Marrakech,Morocco","phones":"","fax":"","email":"","url":"","countryIso2":"MA","countryName":"Morocco","hotelRating":"3","latitude":"31.6297","longitude":"-7.99453","state_id":3311,"state_name":"Safi","country_id":149},{"active":false,"Giataid":"136464","cityId":67158,"cityName":"Marrakech","hotelId":136464,"hotelName":"Riad Dar Amane","address":"33 Derb Moulayabdel Kader Derb Dabachi,Medina,40000 Marrakech,Morocco","phones":"+21224442448","fax":"","email":"","url":"","countryIso2":"MA","countryName":"Morocco","hotelRating":"3","latitude":"31.6273","longitude":"-7.98518","state_id":3311,"state_name":"Safi","country_id":149},{"active":false,"Giataid":"136465","cityId":67158,"cityName":"Marrakech","hotelId":136465,"hotelName":"Riad Dar Latifa","address":"17 Derb Lalla Azzouna,Kaat Ben Nahid,40000 Marrakech,Medina,Morocco","phones":"+212524375054","fax":"+212524375054","email":"riadmarrakech@darlatifa.fr","url":"http://www.trivago.de/marrakesch-85724/hotel/riad-dar-latifa-1287337","countryIso2":"MA","countryName":"Morocco","hotelRating":"3","latitude":"31.6314","longitude":"-7.98572","state_id":3311,"state_name":"Safi","country_id":149},{"active":false,"Giataid":"136662","cityId":null,"cityName":"Tanger","hotelId":136662,"hotelName":"Riad Dar Nour","address":"20 Rue Gourna,Kasbah,90000 Tanger,Morocco","phones":"+212662112724","fax":"","email":"contactdarnour@yahoo.fr","url":"http://www.darnour.com/","countryIso2":"MA","countryName":"Morocco","hotelRating":"3","latitude":"35.7879","longitude":"-5.81389","state_id":null,"state_name":null,"country_id":null},{"active":false,"Giataid":"136664","cityId":67158,"cityName":"Marrakech","hotelId":136664,"hotelName":"Maison do","address":"1 Derb Hajjama Ben Salah,40000 Marrakech,Morocco","phones":"+212610403193","fax":"","email":"jakcoeur@gmail.com","url":"http://www.maisondo.com/english/dar/index.html","countryIso2":"MA","countryName":"Morocco","hotelRating":"3","latitude":"31.6291","longitude":"-7.98325","state_id":3311,"state_name":"Safi","country_id":149},{"active":false,"Giataid":"136710","cityId":67158,"cityName":"Marrakech","hotelId":136710,"hotelName":"Club les Almoravides","address":"Arset Djenan Lakhdar,40000 Marrakech,Marrakesch-Safi,Marokko,Morocco","phones":"+212524386942","fax":"+212524386933","email":"","url":"","countryIso2":"MA","countryName":"Morocco","hotelRating":"4","latitude":"31.628","longitude":"-7.99546","state_id":3311,"state_name":"Safi","country_id":149},{"active":false,"Giataid":"136719","cityId":67800,"cityName":"Rabat","hotelId":136719,"hotelName":"Oumlil","address":"31 Avenue Okba,Agdal,10000 Rabat,Morocco","phones":"+212537683434","fax":"+212537686557","email":"contact@hoteloumlil.com","url":"http://hoteloumlil.com/en/index.html","countryIso2":"MA","countryName":"Morocco","hotelRating":"4","latitude":"34.0082","longitude":"-6.8446","state_id":101,"state_name":"Victoria","country_id":135},{"active":false,"Giataid":"137046","cityId":67158,"cityName":"Marrakech","hotelId":137046,"hotelName":"Riad Itrane","address":"113 Derb Jam?a / Derb Dabachi,Marrakech,Morocco","phones":"+212524380502","fax":"+212524380503","email":"reservation@riaditrane.com","url":"http://www.riaditrane.com","countryIso2":"MA","countryName":"Morocco","hotelRating":"4","latitude":"31.6272","longitude":"-7.98546","state_id":3311,"state_name":"Safi","country_id":149},{"active":false,"Giataid":"137189","cityId":67158,"cityName":"Marrakech","hotelId":137189,"hotelName":"Riad Altair","address":"21 derb Zaouia,Mosqu?e de Bab Doukkala,M?dina,Marrakech,Morocco","phones":"+212524385224","fax":"","email":"","url":"http://www.riadaltair.com/en/","countryIso2":"MA","countryName":"Morocco","hotelRating":"4","latitude":"31.6313","longitude":"-7.99713","state_id":3311,"state_name":"Safi","country_id":149},{"active":false,"Giataid":"137437","cityId":67158,"cityName":"Marrakech","hotelId":137437,"hotelName":"Villa Amira","address":"78 rue Sakia El Hamra,Semlalia,Marrakech,Morocco","phones":"+212524438682","fax":"","email":"","url":"http://www.villa-amira-spa.com/","countryIso2":"MA","countryName":"Morocco","hotelRating":"4","latitude":"31.6472","longitude":"-8.01458","state_id":3311,"state_name":"Safi","country_id":149},{"active":false,"Giataid":"137461","cityId":67158,"cityName":"Marrakech","hotelId":137461,"hotelName":"Amalay","address":"87, Boulevard Mohamed V,Gu?liz,Marrakesh 40000,Morocco","phones":"+21252444448685","fax":"+21252444431554","email":"amalay@menara.com","url":"http://www.amalay-tachfine.ma","countryIso2":"MA","countryName":"Morocco","hotelRating":"3","latitude":"31.6308","longitude":"-8.00523","state_id":3311,"state_name":"Safi","country_id":149},{"active":false,"Giataid":"137525","cityId":148455,"cityName":"Casablanca","hotelId":137525,"hotelName":"Anfa Port","address":"Angle Bd De L'oc?an Atlantique & Bd De La Corniche,20190 Casablanca,Morocco","phones":"+212522267780","fax":"+212522267833","email":"","url":"","countryIso2":"MA","countryName":"Morocco","hotelRating":"4","latitude":"33.5994","longitude":"-7.61429","state_id":2830,"state_name":"Valparaiso","country_id":44},{"active":false,"Giataid":"137566","cityId":67259,"cityName":"Tiznit","hotelId":137566,"hotelName":"Idou Tiznit","address":"Carrefour de Tiznit,Avenue Hassan II,Tiznit,Morocco","phones":"+212528600333","fax":"","email":"contact@idoutiznit.com","url":"http://www.idoutiznit.com/","countryIso2":"MA","countryName":"Morocco","hotelRating":"4","latitude":"29.6919","longitude":"-9.72414","state_id":3297,"state_name":"Assa-Zag (EH-partial)","country_id":149},{"active":false,"Giataid":"137567","cityId":67158,"cityName":"Marrakech","hotelId":137567,"hotelName":"Mogador ExpreSS Gueliz","address":"Avenue Hassan II,Marrakech,Morocco","phones":"+212524425200","fax":"+212524425203","email":"hguelizresa@ryadmogador.com","url":"http://www.ryadmogador.com/","countryIso2":"MA","countryName":"Morocco","hotelRating":"4","latitude":"31.6299","longitude":"-8.01689","state_id":3311,"state_name":"Safi","country_id":149},{"active":false,"Giataid":"138090","cityId":67078,"cityName":"Beni-Mellal","hotelId":138090,"hotelName":"Beni Mellal Ouzoud","address":"Route de Marrakech Km 3,P.O. Box 93,Beni Mellal,Morocco","phones":"+212523483752","fax":"","email":"","url":"","countryIso2":"MA","countryName":"Morocco","hotelRating":"4","latitude":"32.3224","longitude":"-6.38046","state_id":3317,"state_name":"Khenifra","country_id":149},{"active":false,"Giataid":"138102","cityId":67069,"cityName":"Asilah","hotelId":138102,"hotelName":"Hotel Al Khaima","address":"Route de Tanger Km 2,P.O.Box 101,90050 Assilah,Morocco","phones":"+212539417428","fax":"+212539417566","email":"","url":"http://www.hotelalkhaima.com","countryIso2":"MA","countryName":"Morocco","hotelRating":"3","latitude":"35.4749","longitude":"-6.02544","state_id":3324,"state_name":"Tanger-Tetouan-Al Hoceïma","country_id":149},{"active":false,"Giataid":"138346","cityId":67158,"cityName":"Marrakech","hotelId":138346,"hotelName":"Ushuaia Hotel Club Marrakech","address":"Boulevard Mohamed VI,Gueliz,Marrakech,Morocco","phones":"+212524380407","fax":"+212524375046","email":"contact@palaissoltan.com","url":"http://www.palaissoltan.com/index_en.html","countryIso2":"MA","countryName":"Morocco","hotelRating":"4","latitude":"31.5922","longitude":"-7.98992","state_id":3311,"state_name":"Safi","country_id":149},{"active":false,"Giataid":"138468","cityId":148455,"cityName":"Casablanca","hotelId":138468,"hotelName":"Kenzi Tower","address":"Boulevard Zerktouni,Twin Center,20100 Casablanca,Morocco","phones":"+212522978000","fax":"+212522978090","email":"infotower@kenzi-hotels.com","url":"http://www.kenzi-hotels.com/hotels/casablanca/tower-hotel.html","countryIso2":"MA","countryName":"Morocco","hotelRating":"5","latitude":"33.5865","longitude":"-7.6324","state_id":2830,"state_name":"Valparaiso","country_id":44},{"active":false,"Giataid":"138855","cityId":67158,"cityName":"Marrakech","hotelId":138855,"hotelName":"Dellarosa","address":"5 Avenue Moulay El Hassan,40000 Marrakech,Morocco","phones":"+212524422227","fax":"+212524448909","email":"info@dellarosa-marrakech.com","url":"http://www.dellarosa-marrakech.com","countryIso2":"MA","countryName":"Morocco","hotelRating":"4","latitude":"31.6283","longitude":"-8.00621","state_id":3311,"state_name":"Safi","country_id":149},{"active":false,"Giataid":"142908","cityId":148455,"cityName":"Casablanca","hotelId":142908,"hotelName":"Galaxy","address":"NULL","phones":"","fax":"","email":"","url":"","countryIso2":"MA","countryName":"Morocco","hotelRating":"4","latitude":"33.6054","longitude":"-7.63195","state_id":2830,"state_name":"Valparaiso","country_id":44},{"active":false,"Giataid":"142911","cityId":67116,"cityName":"Essaouira","hotelId":142911,"hotelName":"Le Littoral","address":"NULL","phones":"","fax":"","email":"","url":"","countryIso2":"MA","countryName":"Morocco","hotelRating":"4","latitude":"31.5135","longitude":"-9.76751","state_id":3311,"state_name":"Safi","country_id":149},{"active":false,"Giataid":"142915","cityId":67118,"cityName":"Fes","hotelId":142915,"hotelName":"Hotel Volubilis Fes","address":"Avenue Allal Ben Abdellah,30000 F?s,F?s-Mekn?s,Morocco","phones":"+212535621126","fax":"","email":"","url":"","countryIso2":"MA","countryName":"Morocco","hotelRating":"4","latitude":"34.0349","longitude":"-5.00336","state_id":3313,"state_name":"Fes-Meknes","country_id":149},{"active":false,"Giataid":"142912","cityId":67118,"cityName":"Fes","hotelId":142912,"hotelName":"Ametis Nouzha","address":"7 Rue Hassan Dkhissi,30000 F?s,Place Atlas,Morocco","phones":"+212535732861","fax":"+21235640084","email":"ametisnouzha@menara.ma","url":"http://ametishotelsmaroc.com/morocco/nouzhahotel/nouzhahotel.html","countryIso2":"MA","countryName":"Morocco","hotelRating":"3","latitude":"34.033","longitude":"-4.99382","state_id":3313,"state_name":"Fes-Meknes","country_id":149},{"active":false,"Giataid":"142991","cityId":148455,"cityName":"Casablanca","hotelId":142991,"hotelName":"Ajiad","address":"Angle Rue Kamal Mohamed,Et Rue Fakir Mohamed,20000 Casablanca,Morocco","phones":"+21222451912","fax":"+21222449228","email":"resaajiad@gmail.com","url":"http://www.hotelajiad.com","countryIso2":"MA","countryName":"Morocco","hotelRating":"3","latitude":"33.596","longitude":"-7.61375","state_id":2830,"state_name":"Valparaiso","country_id":44},{"active":false,"Giataid":"142992","cityId":null,"cityName":"Oujda","hotelId":142992,"hotelName":"Atlas Orient Oujda","address":"Place Syrte,Av. Idriss Al Akbar,Oujda,Morocco","phones":"+212536700606","fax":"+212536690404","email":"","url":"http://www.hotelsatlas.com/?lang=fr&amp;contenu=hotel&amp;cat=4&amp;hot=4&amp;rub=2","countryIso2":"MA","countryName":"Morocco","hotelRating":"4","latitude":"34.6768","longitude":"-1.91592","state_id":null,"state_name":null,"country_id":null},{"active":false,"Giataid":"144211","cityId":67158,"cityName":"Marrakech","hotelId":144211,"hotelName":"Riad Lotus Infinity","address":"Route de Fes Dar Tounsi,40000 Marrakech,Morocco","phones":"+212524431537","fax":"+212524437942","email":"","url":"http://www.trivago.de/marrakesch-85724/hotel/villa-lotus-savinio-1329606","countryIso2":"MA","countryName":"Morocco","hotelRating":"5","latitude":"31.6454","longitude":"-7.98108","state_id":3311,"state_name":"Safi","country_id":149},{"active":false,"Giataid":"145135","cityId":67158,"cityName":"Marrakech","hotelId":145135,"hotelName":"Riad Ineslisa","address":"3 Derb Boualilou,Zaouia de Sidi Ben Slimane,40000 Marrakech,Morocco","phones":"+212642430114","fax":"+212524377255","email":"francoisebonnet@neuf.fr","url":"http://www.trivago.de/marrakesch-85724/hotel/riad-ineslisa-1185392","countryIso2":"MA","countryName":"Morocco","hotelRating":"3","latitude":"31.636","longitude":"-7.99123","state_id":3311,"state_name":"Safi","country_id":149},{"active":false,"Giataid":"145137","cityId":67158,"cityName":"Marrakech","hotelId":145137,"hotelName":"Riad Dar Mumtaz","address":"Douar Chaouf Commune Ouahat Sidi Brahim,42000 Marrakech,Morocco","phones":"+212525060081","fax":"+212525060082","email":"","url":"","countryIso2":"MA","countryName":"Morocco","hotelRating":"4","latitude":"31.6655","longitude":"-7.93997","state_id":3311,"state_name":"Safi","country_id":149},{"active":false,"Giataid":"145138","cityId":67118,"cityName":"Fes","hotelId":145138,"hotelName":"Riad el Amine","address":"94,96 Bouajjara bab Jdid,30000 Fes,Morocco","phones":"+21235740749","fax":"+21235637933","email":"contact@riadelaminefes.com","url":"http://www.riadelaminefes.com/english/english.html","countryIso2":"MA","countryName":"Morocco","hotelRating":"4","latitude":"34.0572","longitude":"-4.97419","state_id":3313,"state_name":"Fes-Meknes","country_id":149},{"active":false,"Giataid":"145144","cityId":67158,"cityName":"Marrakech","hotelId":145144,"hotelName":"ClubHotel Riu Tikida Palmeraie","address":"Route F?s,Km 6,Annakhil,40007 Marrakech,Morocco","phones":"+212524327400","fax":"+212524327401","email":"clubhotel.tikidapalmeraie@riu.com","url":"http://www.riu.com/en/Paises/morocco/marrakech/clubhotel-riu-tikida-palmeraie/index.jsp","countryIso2":"MA","countryName":"Morocco","hotelRating":"4","latitude":"31.6489","longitude":"-7.93623","state_id":3311,"state_name":"Safi","country_id":149},{"active":false,"Giataid":"202544","cityId":67158,"cityName":"Marrakech","hotelId":202544,"hotelName":"Mogador Menzah","address":"Avenue Mohammed VI,Marrakech,Morocco","phones":"+212530530530","fax":"+212524424907","email":"hmenzahresa@ryadmogador.com","url":"http://www.ryadmogador.com/","countryIso2":"MA","countryName":"Morocco","hotelRating":"4","latitude":"31.621","longitude":"-8.01428","state_id":3311,"state_name":"Safi","country_id":149},{"active":false,"Giataid":"182245","cityId":67080,"cityName":"Berkane","hotelId":182245,"hotelName":"Oriental Bay Beach Golf & Spa","address":"Zona Tur?stica Sa?dia,60600 Sa?dia,Morocco","phones":"+212536630063","fax":"+212536630100","email":"saidia@barcelo.com","url":"http://www.barcelomediterraneasaidia.com","countryIso2":"MA","countryName":"Morocco","hotelRating":"5","latitude":"35.1017","longitude":"-2.2822","state_id":3271,"state_name":"L'Oriental","country_id":149},{"active":false,"Giataid":"182246","cityId":null,"cityName":"Tanger","hotelId":182246,"hotelName":"Fredj Hotel & Spa","address":"42 Rue de Hollande,90000 Tanger,Morocco","phones":"+212539331100","fax":"+21239370661","email":"info@ledawliz.com","url":"http://www.trivago.de/tanger-85739/hotel/le-dawliz-779036","countryIso2":"MA","countryName":"Morocco","hotelRating":"4","latitude":"35.7821","longitude":"-5.81359","state_id":null,"state_name":null,"country_id":null},{"active":false,"Giataid":"182247","cityId":67158,"cityName":"Marrakech","hotelId":182247,"hotelName":"Riad Dar Ilham","address":"Km 13 Route De F?s,40000 Marrakech,Morocco","phones":"+212524322907","fax":"+212524322907","email":"contact@riaddarilham.com","url":"http://www.riaddarilham.com/riad.php","countryIso2":"MA","countryName":"Morocco","hotelRating":"4","latitude":"31.648","longitude":"-7.9386","state_id":3311,"state_name":"Safi","country_id":149},{"active":false,"Giataid":"182248","cityId":67158,"cityName":"Marrakech","hotelId":182248,"hotelName":"Kasbah Dar Ilham","address":"Km 13 Route De F?s,40000 Marrakech,Morocco","phones":"+212524322907","fax":"+212524322907","email":"contact@riaddarilham.com","url":"http://www.riaddarilham.com/kasbah.php","countryIso2":"MA","countryName":"Morocco","hotelRating":"5","latitude":"31.6447","longitude":"-7.90485","state_id":3311,"state_name":"Safi","country_id":149},{"active":false,"Giataid":"182249","cityId":53357,"cityName":"Zagora","hotelId":182249,"hotelName":"Kasbah Imdoukal","address":"Douar N'koob,45702 Zagora,Morocco","phones":"+212524839798","fax":"+212524839799","email":"","url":"","countryIso2":"MA","countryName":"Morocco","hotelRating":"4","latitude":"30.3307","longitude":"-5.83808","state_id":2104,"state_name":"Lefkada Regional Unit","country_id":85},{"active":false,"Giataid":"182250","cityId":67158,"cityName":"Marrakech","hotelId":182250,"hotelName":"Riad 1001 Nuits","address":"Derb Toudgha Riad Laarousse 53,Tensift Al Haouz,Marrakech,Morocco","phones":"+21233389302432","fax":"","email":"info@riad1001nuits.com","url":"http://www.clever-hotels.com/Hotel/Riad%201001%20Nuits/","countryIso2":"MA","countryName":"Morocco","hotelRating":"4","latitude":"31.6317","longitude":"-7.9932","state_id":3311,"state_name":"Safi","country_id":149},{"active":false,"Giataid":"182251","cityId":67158,"cityName":"Marrakech","hotelId":182251,"hotelName":"Riad Herougui","address":"3 & 4 Derb Herougui,Azbest,40000 Marrakech,Morocco","phones":"+21224378454","fax":"+21224378454","email":"contact@herougui.com","url":"http://www.trivago.de/marrakesch-85724/hotel/riad-herougui-1039704","countryIso2":"MA","countryName":"Morocco","hotelRating":"4","latitude":"31.6295","longitude":"-7.9923","state_id":3311,"state_name":"Safi","country_id":149},{"active":false,"Giataid":"182252","cityId":67116,"cityName":"Essaouira","hotelId":182252,"hotelName":"Miramar","address":"20 Boulevard Mohamed 5,44000 Essaouira,Morocco","phones":"+21224475852","fax":"+21224475852","email":"hotelmiramar@menara.ma","url":"http://www.trivago.de/essaouira-116941/hotel/miramar-1105128","countryIso2":"MA","countryName":"Morocco","hotelRating":"3","latitude":"31.5079","longitude":"-9.76549","state_id":3311,"state_name":"Safi","country_id":149},{"active":false,"Giataid":"182253","cityId":67158,"cityName":"Marrakech","hotelId":182253,"hotelName":"Kasbah Caracalla","address":"Route de l'Ourika Km 27,Dara AL Jaouad - Douar Chaaba,Marrakech 40000,Morocco","phones":"+212661406779","fax":"+212524328602","email":"reservation@kasbahcaracalla.com","url":"http://www.trivago.de/marrakesch-85724/hotel/kasbah-caracalla-904529","countryIso2":"MA","countryName":"Morocco","hotelRating":"4","latitude":"31.6302","longitude":"-7.99168","state_id":3311,"state_name":"Safi","country_id":149},{"active":false,"Giataid":"182588","cityId":67158,"cityName":"Marrakech","hotelId":182588,"hotelName":"Flat Apart Slimania","address":"11 Rue Al Mostaqbal,Lot Ali ou Hmad,Marrakesh 40000,Morocco","phones":"+212526690567","fax":"+212524457908","email":"info@flatslimania.ma","url":"http://maps.google.fr/maps/ms?source=embed&amp;hl=fr&amp;geocode=&amp;ie=UTF8&amp;msa=0&amp;msid=108912499238557581730.00047fc8c80763e42c202&amp;ll=31.","countryIso2":"MA","countryName":"Morocco","hotelRating":"4","latitude":"31.6405","longitude":"-8.01036","state_id":3311,"state_name":"Safi","country_id":149},{"active":false,"Giataid":"182589","cityId":67158,"cityName":"Marrakech","hotelId":182589,"hotelName":"Riad Al Mansoura","address":"Hay Essalam Derb Manchoura 11,Marrakech,Morocco","phones":"+21224376014","fax":"+21224376026","email":"riadalmansoura@menara.ma","url":"http://www.riadalmansoura.com/","countryIso2":"MA","countryName":"Morocco","hotelRating":"3","latitude":"31.6204","longitude":"-7.98256","state_id":3311,"state_name":"Safi","country_id":149},{"active":false,"Giataid":"182777","cityId":67158,"cityName":"Marrakech","hotelId":182777,"hotelName":"Sahara Palace Marrakesch","address":"P.O Box 12440,Annakhil,La Palmeraie,40016 Marrakech,Morocco","phones":"+212524327777","fax":"","email":"","url":"http://www.lansdowne-re.com/jk-hotels-marrakech/","countryIso2":"MA","countryName":"Morocco","hotelRating":"5","latitude":"31.662","longitude":"-7.87752","state_id":3311,"state_name":"Safi","country_id":149},{"active":false,"Giataid":"182783","cityId":null,"cityName":"El Jadida","hotelId":182783,"hotelName":"Mazagan Beach Resort","address":"El Haouzia,24000 El Jadida,Casablanca,Morocco","phones":"+212523388000","fax":"+212523388003","email":"reservations@mazaganbeachresort.com","url":"http://www.mazaganbeachresort.com","countryIso2":"MA","countryName":"Morocco","hotelRating":"5","latitude":"33.2819","longitude":"-8.38415","state_id":null,"state_name":null,"country_id":null},{"active":false,"Giataid":"182927","cityId":67158,"cityName":"Marrakech","hotelId":182927,"hotelName":"Riad Ambre Et Epices","address":"89-90 Arset Aouzel,Bab Doukkala,Medina,Marrakech,Morocco","phones":"+212524384646","fax":"+21233170247296","email":"contact@holidaysriad.com","url":"http://www.holidaysriad.com/","countryIso2":"MA","countryName":"Morocco","hotelRating":"4","latitude":"31.63","longitude":"-7.99465","state_id":3311,"state_name":"Safi","country_id":149},{"active":false,"Giataid":"182928","cityId":67158,"cityName":"Marrakech","hotelId":182928,"hotelName":"The Villa By Hivernage Tamesloht","address":"Angle Avenue Echouhada et Rue des Temples,Quartier Hivernage,Marrakech 40000,Morocco","phones":"+212524424100","fax":"+212524421111","email":"contact@hivernage-hotel.com","url":"http://www.thevillabyhivernage.com","countryIso2":"MA","countryName":"Morocco","hotelRating":"5","latitude":"31.6246","longitude":"-8.00362","state_id":3311,"state_name":"Safi","country_id":149},{"active":false,"Giataid":"182929","cityId":67178,"cityName":"Ouarzazate","hotelId":182929,"hotelName":"Le Petit Riad","address":"1581 / 1582 Hay Al Wahda,45000 Ouarzazate,Morocco","phones":"+212524885950","fax":"+212524886924","email":"","url":"http://www.lepetitriad.com","countryIso2":"MA","countryName":"Morocco","hotelRating":"3","latitude":"30.9317","longitude":"-6.90022","state_id":3290,"state_name":"Draa-Tafilalet","country_id":149},{"active":false,"Giataid":"183211","cityId":67158,"cityName":"Marrakech","hotelId":183211,"hotelName":"Palm Plaza Marrakech Hotel & Spa","address":"Avenue du 7eme Art,Zone Touristique d�Agdal,40000 Marrakech,Morocco","phones":"+212524388700","fax":"+212524385125","email":"reservation@hotelpalmplaza.com","url":"http://www.hotelpalmplaza.com","countryIso2":"MA","countryName":"Morocco","hotelRating":"5","latitude":"31.5946","longitude":"-7.98955","state_id":3311,"state_name":"Safi","country_id":149},{"active":false,"Giataid":"183642","cityId":67158,"cityName":"Marrakech","hotelId":183642,"hotelName":"Amiris","address":"47 Derb Sidi Boulfdail,Rue Kennaria,Marrakech 40000,Medina,Morocco","phones":"+212524375539","fax":"+212524392120","email":"contact@riad-amiris.com","url":"http://www.trivago.de/marrakesch-85724/hotel/riad-amiris-1152751","countryIso2":"MA","countryName":"Morocco","hotelRating":"4","latitude":"31.6263","longitude":"-7.98659","state_id":3311,"state_name":"Safi","country_id":149},{"active":false,"Giataid":"183643","cityId":67158,"cityName":"Marrakech","hotelId":183643,"hotelName":"Riad Al Assala Medina","address":"Rue du Sequaia 19,Marrakesh,Medina,Morocco","phones":"+212661178132","fax":"+212524444134","email":"direction@al-assala.com","url":"http://www.al-assala.com","countryIso2":"MA","countryName":"Morocco","hotelRating":"5","latitude":"31.6206","longitude":"-7.98356","state_id":3311,"state_name":"Safi","country_id":149},{"active":false,"Giataid":"183645","cityId":67158,"cityName":"Marrakech","hotelId":183645,"hotelName":"Eden Andalou Aquapark & Spa","address":"Km 4 Road of Amizmiz,40000 Marrakech,Morocco","phones":"+212524459400","fax":"+212524375752","email":"","url":"http://www.trivago.de/marrakesch-85724/hotel/eden-andalou-945921","countryIso2":"MA","countryName":"Morocco","hotelRating":"5","latitude":"31.5454","longitude":"-8.0473","state_id":3311,"state_name":"Safi","country_id":149},{"active":false,"Giataid":"183646","cityId":67158,"cityName":"Marrakech","hotelId":183646,"hotelName":"Adama Resort","address":"Route d� Amizmiz Km 7,5,40000 Marrakech,Morocco","phones":"+212524369300","fax":"+212524378969","email":"resa.adama@gmail.com","url":"http://www.residhotelmaroc.com/uk/adama.html","countryIso2":"MA","countryName":"Morocco","hotelRating":"5","latitude":"31.5601","longitude":"-8.03139","state_id":3311,"state_name":"Safi","country_id":149},