[{"active":false,"Giataid":"383891","cityId":null,"cityName":"Cayenne","hotelId":383891,"hotelName":"La Chaumiere Logis","address":"","phones":"","fax":"","email":"","url":"","countryIso2":"GF","countryName":"French Guiana","hotelRating":"2","latitude":"4.87769","longitude":"-52.3613","state_id":null,"state_name":null,"country_id":null},{"active":false,"Giataid":"448840","cityId":null,"cityName":"Cayenne","hotelId":448840,"hotelName":"Le Dronmi","address":"","phones":"","fax":"","email":"","url":"","countryIso2":"GF","countryName":"French Guiana","hotelRating":"3","latitude":"4.93807","longitude":"-52.3314","state_id":null,"state_name":null,"country_id":null},{"active":false,"Giataid":"449735","cityId":null,"cityName":"Kourou","hotelId":449735,"hotelName":"Hotel Atlantis","address":"","phones":"","fax":"","email":"","url":"","countryIso2":"GF","countryName":"French Guiana","hotelRating":"3","latitude":"5.17242","longitude":"-52.6574","state_id":null,"state_name":null,"country_id":null},{"active":false,"Giataid":"461491","cityId":null,"cityName":"Matoury","hotelId":461491,"hotelName":"Hotel La Marmotte","address":"PK 6, RN2, PK 6, RN2, Route de Matoury,97351 Matoury,French Guiana","phones":"+594594356390","fax":"","email":"lamarmotte973@orange.fr","url":"http://www.hotel-lamarmotte.com/fr/index.php","countryIso2":"GF","countryName":"French Guiana","hotelRating":"2","latitude":"4.86226","longitude":"-52.3482","state_id":null,"state_name":null,"country_id":null},{"active":false,"Giataid":"463780","cityId":null,"cityName":"Saint-Laurent-du-Maroni","hotelId":463780,"hotelName":"Hotel Amazonia du Fleuve","address":"","phones":"","fax":"","email":"","url":"","countryIso2":"GF","countryName":"French Guiana","hotelRating":"3","latitude":"0","longitude":"0","state_id":null,"state_name":null,"country_id":null},{"active":false,"Giataid":"784471","cityId":null,"cityName":"Matoury","hotelId":784471,"hotelName":"Hotel L'ebene Verte","address":"364 Allee Du Grand Matoury La,Chaumiere,Matoury,French Guiana","phones":"+59433594307766","fax":"","email":"","url":"http://www.ebeneverte-guyane.fr/","countryIso2":"GF","countryName":"French Guiana","hotelRating":"1","latitude":"4.86226","longitude":"-52.3482","state_id":null,"state_name":null,"country_id":null},{"active":false,"Giataid":"821175","cityId":null,"cityName":"Cayenne","hotelId":821175,"hotelName":"Appart' hotel Montjoyeux Les Vagues","address":"Route de Montabo,Chemin Grant,97300 Cayenne,French Guiana","phones":"+594302020","fax":"+594303838","email":"montjoyeuxlesvagues@orange.fr","url":"http://www.montjoyeuxlesvagues.com/","countryIso2":"GF","countryName":"French Guiana","hotelRating":"1","latitude":"4.94985","longitude":"-52.3018","state_id":null,"state_name":null,"country_id":null},{"active":false,"Giataid":"490369","cityId":null,"cityName":"Cayenne","hotelId":20001633,"hotelName":"La Belle Etoile & Villa Soleil","address":"74 Rue Lieutenant Goinet,French Guiana,97300 Cayenne,French Guiana","phones":"","fax":"","email":"","url":"","countryIso2":"GF","countryName":"French Guiana","hotelRating":"3","latitude":"4.94037","longitude":"-52.3281","state_id":null,"state_name":null,"country_id":null},{"active":false,"Giataid":"411968","cityId":null,"cityName":"Cayenne","hotelId":20001828,"hotelName":"Hotel Central","address":"19 rue Mol?s,Angle des rues Mol?s et Becke,97300 Cayenne,French Guiana","phones":"+594330594256565","fax":"+594330594311296","email":"centralhotel-cayenne@wanadoo.fr","url":"http://www.hotelcentral-cayenne.fr/","countryIso2":"GF","countryName":"French Guiana","hotelRating":"3","latitude":"4.93837","longitude":"-52.333","state_id":null,"state_name":null,"country_id":null},{"active":false,"Giataid":"463742","cityId":null,"cityName":"Cayenne","hotelId":20002021,"hotelName":"Royal Amazonia","address":"45 Rue De Lï¿½Ara Bleu,Route De Z?phir,97300 Cayenne,French Guiana","phones":"+594391515","fax":"+594301313","email":"hotelroyalamazonia@orange.fr","url":"https://www.hotelroyalamazonia.fr/","countryIso2":"GF","countryName":"French Guiana","hotelRating":"4","latitude":"4.93532","longitude":"-52.3044","state_id":null,"state_name":null,"country_id":null},{"active":false,"Giataid":"550969","cityId":null,"cityName":"Cayenne","hotelId":20002238,"hotelName":"Hotel des Amandiers","address":"Rue des Amandiers,97300 Cayenne,French Guiana,French Guiana","phones":"","fax":"","email":"","url":"","countryIso2":"GF","countryName":"French Guiana","hotelRating":"3","latitude":"4.94314","longitude":"-52.3317","state_id":null,"state_name":null,"country_id":null},{"active":false,"Giataid":"411966","cityId":null,"cityName":"Kourou","hotelId":20002496,"hotelName":"Des Roches","address":"avenue des roches,97310 Kourou,French Guiana","phones":"+594330594320066","fax":"+594330594328315","email":"contact@hoteldesroches.com","url":"http://hoteldesroches.com/","countryIso2":"GF","countryName":"French Guiana","hotelRating":"3","latitude":"5.15977","longitude":"-52.6284","state_id":null,"state_name":null,"country_id":null},{"active":false,"Giataid":"462484","cityId":null,"cityName":"Cayenne","hotelId":20002663,"hotelName":"Hotel des Palmistes","address":"12 avenue du G?n?ral de Gaulle,97300 Cayenne,French Guiana","phones":"+594594300050","fax":"","email":"reservation@palmistes.com","url":"http://www.palmistes.com","countryIso2":"GF","countryName":"French Guiana","hotelRating":"3","latitude":"4.93818","longitude":"-52.3339","state_id":null,"state_name":null,"country_id":null},{"active":false,"Giataid":"592811","cityId":null,"cityName":"Cayenne","hotelId":20002878,"hotelName":"Eclipse","address":"47 Rue Lieutenant Goinet,97300 Cayenne,French Guiana","phones":"+594594257085","fax":"","email":"","url":"http://www.prestigelocations.fr","countryIso2":"GF","countryName":"French Guiana","hotelRating":"3","latitude":"4.94018","longitude":"-52.329","state_id":null,"state_name":null,"country_id":null},{"active":false,"Giataid":"617488","cityId":null,"cityName":"Cayenne","hotelId":20003089,"hotelName":"Hotel Ker Alberte","address":"4 Rue du Docteur Sainte Rose,97300 Cayenne,French Guiana","phones":"+594594257570","fax":"","email":"contact@hotelkeralberte.com","url":"http://hotelkeralberte.com/hotel_keralberte/index.php/fr/","countryIso2":"GF","countryName":"French Guiana","hotelRating":"0","latitude":"4.93646","longitude":"-52.3348","state_id":null,"state_name":null,"country_id":null},{"active":false,"Giataid":"672140","cityId":null,"cityName":"Cayenne","hotelId":20003292,"hotelName":"Inter-Hotel Belova","address":"9.2 km Route De Remire,97354 Cayenne,Remire-Montjoly,French Guiana","phones":"+594354100","fax":"+594354405","email":"hb9702@inter-hotel.com","url":"https://de.inter-hotel.com/hotel/guayana/remire-montjoly/belova","countryIso2":"GF","countryName":"French Guiana","hotelRating":"0","latitude":"4.93837","longitude":"-52.3324","state_id":null,"state_name":null,"country_id":null}]