[{"active":false,"Giataid":"371667","cityId":null,"cityName":"Dushanbe","hotelId":371667,"hotelName":"Gulistan Tour Hotel","address":"Bukhoro Street 78,734000 Dushanbe,Tajikistan","phones":"","fax":"","email":"","url":"","countryIso2":"TJ","countryName":"Tajikistan","hotelRating":"3","latitude":"38.5745","longitude":"68.7974","state_id":null,"state_name":null,"country_id":null},{"active":false,"Giataid":"458132","cityId":null,"cityName":"Dushanbe","hotelId":458132,"hotelName":"Hotel Complex Kayon","address":"Bokhtar Street 7,734001 Dushanbe,Tajikistan","phones":"","fax":"","email":"","url":"","countryIso2":"TJ","countryName":"Tajikistan","hotelRating":"1","latitude":"38.5738","longitude":"68.7897","state_id":null,"state_name":null,"country_id":null},{"active":false,"Giataid":"458566","cityId":null,"cityName":"Dushanbe","hotelId":458566,"hotelName":"Vefa Apart Hotel","address":"","phones":"","fax":"","email":"","url":"","countryIso2":"TJ","countryName":"Tajikistan","hotelRating":"1","latitude":"38.5781","longitude":"68.7897","state_id":null,"state_name":null,"country_id":null},{"active":false,"Giataid":"472031","cityId":null,"cityName":"Khujand","hotelId":472031,"hotelName":"Grand Hotel Khujand","address":"M. Tamburi Street 20,735700 Khujand,Tajikistan","phones":"+992342260599","fax":"","email":"Khujand.grand.hotel@mail.ru","url":"http://khujandgrandhotel.tj/Hotel1.htm","countryIso2":"TJ","countryName":"Tajikistan","hotelRating":"1","latitude":"40.2853","longitude":"69.6181","state_id":null,"state_name":null,"country_id":null},{"active":false,"Giataid":"473647","cityId":null,"cityName":"Khujand","hotelId":473647,"hotelName":"Bahoriston Hotel","address":"","phones":"+992446406640","fax":"","email":"","url":"","countryIso2":"TJ","countryName":"Tajikistan","hotelRating":"1","latitude":"40.2861","longitude":"69.8345","state_id":null,"state_name":null,"country_id":null},{"active":false,"Giataid":"473744","cityId":98206,"cityName":"Chkalovsk","hotelId":473744,"hotelName":"Conference Hotel Sipehr","address":"Academic B.Gafurov Street 17,735730 Chkalovsk,Tajikistan","phones":"","fax":"","email":"","url":"","countryIso2":"TJ","countryName":"Tajikistan","hotelRating":"1","latitude":"40.2291","longitude":"69.6903","state_id":1857,"state_name":"Nizhny Novgorod Oblast","country_id":182},{"active":false,"Giataid":"475170","cityId":null,"cityName":"Dushanbe","hotelId":475170,"hotelName":"Hotel Mercury","address":"Ulitsa L'va Tolstogo 9,734003 Dushanbe,Tajikistan","phones":"","fax":"","email":"","url":"","countryIso2":"TJ","countryName":"Tajikistan","hotelRating":"1","latitude":"38.5701","longitude":"68.7949","state_id":null,"state_name":null,"country_id":null},{"active":false,"Giataid":"476121","cityId":null,"cityName":"Khujand","hotelId":476121,"hotelName":"Firuz Hotel","address":"Ulitsa Lenina 223,735700 Khujand,Tajikistan","phones":"+992928672222","fax":"","email":"info@firuz-hotel.tj","url":"http://firuz-hotel.tj/","countryIso2":"TJ","countryName":"Tajikistan","hotelRating":"4","latitude":"40.2636","longitude":"69.659","state_id":null,"state_name":null,"country_id":null},{"active":false,"Giataid":"630261","cityId":null,"cityName":"Qal'ai Khumb","hotelId":630261,"hotelName":"Karon Palace Hotel","address":"25 Shohmansur street,Qal'ai Khumb,Darvoz district,Gorno-Badakhshan Autonomous Province,Tajikistan","phones":"+992487031111","fax":"","email":"info@karon-palace.com","url":"http://www.karon-palace.com/","countryIso2":"TJ","countryName":"Tajikistan","hotelRating":"1","latitude":"0","longitude":"0","state_id":null,"state_name":null,"country_id":null},{"active":false,"Giataid":"630266","cityId":98206,"cityName":"Chkalovsk","hotelId":630266,"hotelName":"Hotel Shokhkand","address":"Ulitsa Pushkina 25/1,735730 Chkalovsk,Tajikistan","phones":"","fax":"","email":"","url":"","countryIso2":"TJ","countryName":"Tajikistan","hotelRating":"1","latitude":"40.235","longitude":"69.7008","state_id":1857,"state_name":"Nizhny Novgorod Oblast","country_id":182},{"active":false,"Giataid":"639382","cityId":null,"cityName":"Ishkashim","hotelId":639382,"hotelName":"Hotel Orion","address":"","phones":"","fax":"","email":"","url":"","countryIso2":"TJ","countryName":"Tajikistan","hotelRating":"1","latitude":"0","longitude":"0","state_id":null,"state_name":null,"country_id":null},{"active":false,"Giataid":"656416","cityId":null,"cityName":"Dushanbe","hotelId":656416,"hotelName":"Hotel Taj Palace","address":"","phones":"","fax":"","email":"","url":"","countryIso2":"TJ","countryName":"Tajikistan","hotelRating":"3","latitude":"38.5736","longitude":"68.7946","state_id":null,"state_name":null,"country_id":null},{"active":false,"Giataid":"734823","cityId":null,"cityName":"Dushanbe","hotelId":734823,"hotelName":"Yeti Hostel","address":"4 Nisor Muhammad Street 16,734024 Dushanbe,Tajikistan","phones":"+992987360004","fax":"","email":"yetihostels@gmail.com","url":"http://www.yetihostel.com","countryIso2":"TJ","countryName":"Tajikistan","hotelRating":"1","latitude":"38.5701","longitude":"68.7949","state_id":null,"state_name":null,"country_id":null},{"active":false,"Giataid":"737753","cityId":null,"cityName":"Dushanbe","hotelId":737753,"hotelName":"Hotel Oriyo","address":"Karamova 4,734000 Dushanbe,Tajikistan","phones":"","fax":"","email":"","url":"","countryIso2":"TJ","countryName":"Tajikistan","hotelRating":"1","latitude":"38.5701","longitude":"68.7949","state_id":null,"state_name":null,"country_id":null},{"active":false,"Giataid":"741402","cityId":null,"cityName":"Dushanbe","hotelId":741402,"hotelName":"Green House Hostel","address":"Khusravi Dehlavi 98a,734024 Dushanbe,Tajikistan","phones":"+992880082725","fax":"","email":"greenhousedushanbe@gmail.com","url":"https://www.greenhousedushanbe.com/","countryIso2":"TJ","countryName":"Tajikistan","hotelRating":"1","latitude":"38.5655","longitude":"68.8123","state_id":null,"state_name":null,"country_id":null},{"active":false,"Giataid":"744735","cityId":null,"cityName":"Dushanbe","hotelId":744735,"hotelName":"City Hostel","address":"Ozodi Zanon 44,734003 Dushanbe,Tajikistan","phones":"","fax":"","email":"","url":"","countryIso2":"TJ","countryName":"Tajikistan","hotelRating":"1","latitude":"38.5701","longitude":"68.7949","state_id":null,"state_name":null,"country_id":null},{"active":false,"Giataid":"760360","cityId":null,"cityName":"Khujand","hotelId":760360,"hotelName":"Amir Apartments","address":"Gagarina 104,735700 Khujand,Tajikistan","phones":"","fax":"","email":"","url":"","countryIso2":"TJ","countryName":"Tajikistan","hotelRating":"1","latitude":"40.2766","longitude":"69.6407","state_id":null,"state_name":null,"country_id":null},{"active":false,"Giataid":"803927","cityId":null,"cityName":"Dushanbe","hotelId":803927,"hotelName":"Almaz Hotel","address":"Ulitsa Mirzo Rizo 6,Dushanbe City Center,734054 Dushanbe,Tajikistan","phones":"","fax":"","email":"","url":"","countryIso2":"TJ","countryName":"Tajikistan","hotelRating":"1","latitude":"38.5701","longitude":"68.7949","state_id":null,"state_name":null,"country_id":null},{"active":false,"Giataid":"804011","cityId":null,"cityName":"Dushanbe","hotelId":804011,"hotelName":"Hotel Tajservice","address":"Rudaki 6A,734013 Dushanbe,Tajikistan","phones":"","fax":"","email":"","url":"","countryIso2":"TJ","countryName":"Tajikistan","hotelRating":"1","latitude":"38.5701","longitude":"68.7949","state_id":null,"state_name":null,"country_id":null},{"active":false,"Giataid":"804147","cityId":null,"cityName":"Dushanbe","hotelId":804147,"hotelName":"Hotel Sarvar","address":"Bukhoro Street 2,734001 Dushanbe,Tajikistan","phones":"","fax":"","email":"","url":"","countryIso2":"TJ","countryName":"Tajikistan","hotelRating":"1","latitude":"38.5701","longitude":"68.7949","state_id":null,"state_name":null,"country_id":null},{"active":false,"Giataid":"804196","cityId":null,"cityName":"Khujand","hotelId":804196,"hotelName":"Hotel Vatan","address":"Hakim Karim Street 52,735700 Khujand,Tajikistan","phones":"+992342242080","fax":"","email":"info@vatanhotel.tj","url":"http://vatanhotel.tj/","countryIso2":"TJ","countryName":"Tajikistan","hotelRating":"1","latitude":"40.2809","longitude":"69.6499","state_id":null,"state_name":null,"country_id":null},{"active":false,"Giataid":"806222","cityId":null,"cityName":"Dushanbe","hotelId":806222,"hotelName":"Anisa Hostel","address":"Street Khaeti Nav 93/3,734018 Dushanbe,Tajikistan","phones":"","fax":"","email":"","url":"","countryIso2":"TJ","countryName":"Tajikistan","hotelRating":"1","latitude":"38.5722","longitude":"68.7609","state_id":null,"state_name":null,"country_id":null},{"active":false,"Giataid":"806317","cityId":null,"cityName":"Dushanbe","hotelId":806317,"hotelName":"Vatan","address":"Khuseynzoda Street 36A,734000 Dushanbe,Tajikistan","phones":"","fax":"","email":"","url":"http://www.agoda.com/en-in/vatan/hotel/dushanbe-tj.html?cid=-145","countryIso2":"TJ","countryName":"Tajikistan","hotelRating":"1","latitude":"38.5701","longitude":"68.7949","state_id":null,"state_name":null,"country_id":null},{"active":false,"Giataid":"806453","cityId":null,"cityName":"Dushanbe","hotelId":806453,"hotelName":"Hostel Latifa","address":"Rahmon Nabiyev 2,Proezd,Dom 23,735450 Dushanbe,Tajikistan","phones":"","fax":"","email":"","url":"","countryIso2":"TJ","countryName":"Tajikistan","hotelRating":"1","latitude":"38.5701","longitude":"68.7949","state_id":null,"state_name":null,"country_id":null},{"active":false,"Giataid":"807350","cityId":null,"cityName":"Dushanbe","hotelId":807350,"hotelName":"Hello Dushanbe Hostel","address":"Nisor Muhammad Street 5,Passage 4/1,734024 Dushanbe,Tajikistan","phones":"+992502000005","fax":"+992372264664","email":"info@hellodushanbe.com","url":"http://www.hellodushanbe.com","countryIso2":"TJ","countryName":"Tajikistan","hotelRating":"1","latitude":"38.5701","longitude":"68.7949","state_id":null,"state_name":null,"country_id":null},{"active":false,"Giataid":"807533","cityId":null,"cityName":"Dushanbe","hotelId":807533,"hotelName":"Sakho Hotel-Hostel","address":"Nazarshoev Street 149,734000 Dushanbe,Tajikistan","phones":"","fax":"","email":"","url":"","countryIso2":"TJ","countryName":"Tajikistan","hotelRating":"1","latitude":"38.5701","longitude":"68.7949","state_id":null,"state_name":null,"country_id":null},{"active":false,"Giataid":"807587","cityId":null,"cityName":"Dushanbe","hotelId":807587,"hotelName":"Dushanbe Hostel","address":"Ulitsa Kasymova 64,736064 Dushanbe,Tajikistan","phones":"","fax":"","email":"","url":"","countryIso2":"TJ","countryName":"Tajikistan","hotelRating":"1","latitude":"38.5701","longitude":"68.7949","state_id":null,"state_name":null,"country_id":null},{"active":false,"Giataid":"809048","cityId":null,"cityName":"Khujand","hotelId":809048,"hotelName":"Somoni Hostel","address":"Ismoili Somoni Avenue 7a,Khujand 735700,Tajikistan","phones":"+992926217887","fax":"","email":"somoni@hostels.tj","url":"http://www.hostels.tj/","countryIso2":"TJ","countryName":"Tajikistan","hotelRating":"1","latitude":"40.2809","longitude":"69.6499","state_id":null,"state_name":null,"country_id":null},{"active":false,"Giataid":"811427","cityId":null,"cityName":"Dushanbe","hotelId":811427,"hotelName":"The Life","address":"Maysazor Street 1,734002 Dushanbe,Tajikistan","phones":"","fax":"","email":"","url":"","countryIso2":"TJ","countryName":"Tajikistan","hotelRating":"1","latitude":"38.5701","longitude":"68.7949","state_id":null,"state_name":null,"country_id":null},{"active":false,"Giataid":"820714","cityId":98206,"cityName":"Chkalovsk","hotelId":820714,"hotelName":"Hotel Matin On Moskovskay","address":"Moskovskaya 13/2,Sogdiiskaya Oblast,735730 Chkalovsk,Tajikistan","phones":"","fax":"","email":"","url":"","countryIso2":"TJ","countryName":"Tajikistan","hotelRating":"1","latitude":"40.2321","longitude":"69.6956","state_id":1857,"state_name":"Nizhny Novgorod Oblast","country_id":182},{"active":false,"Giataid":"821941","cityId":null,"cityName":"Dushanbe","hotelId":821941,"hotelName":"Hostel Sunrise","address":"Khusienzoda 36A,13 Etazh,734000 Dushanbe,Tajikistan","phones":"","fax":"","email":"","url":"","countryIso2":"TJ","countryName":"Tajikistan","hotelRating":"1","latitude":"38.5701","longitude":"68.7949","state_id":null,"state_name":null,"country_id":null},{"active":false,"Giataid":"823206","cityId":null,"cityName":"Dushanbe","hotelId":823206,"hotelName":"Ski Resort Safed Dara","address":"Takob,Varzob Region,70 km From Dushanbe,734000 Purud,Tajikistan","phones":"","fax":"","email":"","url":"","countryIso2":"TJ","countryName":"Tajikistan","hotelRating":"1","latitude":"38.5701","longitude":"68.7949","state_id":null,"state_name":null,"country_id":null},{"active":false,"Giataid":"847691","cityId":null,"cityName":"Dushanbe","hotelId":847691,"hotelName":"Hotel Shumon","address":"ul. Foteh Nyozi 34,8 Floor,Dushanbe,Tajikistan","phones":"+992446400108","fax":"","email":"info@shumonhotel.com","url":"http://www.shumonhotel.com/en/","countryIso2":"TJ","countryName":"Tajikistan","hotelRating":"1","latitude":"38.5701","longitude":"68.7949","state_id":null,"state_name":null,"country_id":null},{"active":false,"Giataid":"429644","cityId":null,"cityName":"Dushanbe","hotelId":10066661,"hotelName":"Sheraton Dushanbe Hotel","address":"Ayni Street 48,734024 Dushanbe,Tajikistan","phones":"+992487030000","fax":"","email":"","url":"","countryIso2":"TJ","countryName":"Tajikistan","hotelRating":"5","latitude":"38.5624","longitude":"68.8121","state_id":null,"state_name":null,"country_id":null},{"active":false,"Giataid":"473880","cityId":null,"cityName":"Dushanbe","hotelId":20199957,"hotelName":"Asia Grand Hotel","address":"ul. Mirzo Tursunzoda 21 / A,734025 Dushanbe,Tajikistan","phones":"+99244600300183","fax":"+992446007777","email":"koni-don@mail.ru","url":"http://asiagh.tj/en","countryIso2":"TJ","countryName":"Tajikistan","hotelRating":"4","latitude":"38.5738","longitude":"68.795","state_id":null,"state_name":null,"country_id":null},{"active":false,"Giataid":"464817","cityId":null,"cityName":"Dushanbe","hotelId":20199986,"hotelName":"Hotel Lotus","address":"Pervii proezd Lohuti 5 St.,734001 Dushanbe,Tajikistan","phones":"+992487018800","fax":"+992372232326","email":"info@hotel-lotustj.com","url":"http://www.hotel-lotustj.com","countryIso2":"TJ","countryName":"Tajikistan","hotelRating":"4","latitude":"38.57","longitude":"68.8019","state_id":null,"state_name":null,"country_id":null},{"active":false,"Giataid":"630270","cityId":null,"cityName":"Dushanbe","hotelId":20199998,"hotelName":"Lotte Palace Dushanbe","address":"Gagarina Street 19a,734000 Dushanbe,Tajikistan","phones":"+992555505050","fax":"","email":"info@lottepalace.tj","url":"http://lotte-palace.tj","countryIso2":"TJ","countryName":"Tajikistan","hotelRating":"4","latitude":"38.6185","longitude":"68.7788","state_id":null,"state_name":null,"country_id":null},{"active":false,"Giataid":"424307","cityId":null,"cityName":"Dushanbe","hotelId":20200006,"hotelName":"Twins Hotel","address":"Adhamowa Street 21,734001 Dushanbe,Tajikistan","phones":"+992372213300","fax":"","email":"info@hoteltwins.tj","url":"http://hoteltwins.tj/about-hotel.html","countryIso2":"TJ","countryName":"Tajikistan","hotelRating":"4","latitude":"38.57","longitude":"68.8062","state_id":null,"state_name":null,"country_id":null},{"active":false,"Giataid":"630269","cityId":null,"cityName":"Dushanbe","hotelId":20200018,"hotelName":"Hotel Atlas","address":"Nisor Muhammad 32-34,734124 Dushanbe,Tajikistan","phones":"+992446251818","fax":"","email":"info@atlashoteldushanbe.com","url":"http://www.atlashoteldushanbe.com/","countryIso2":"TJ","countryName":"Tajikistan","hotelRating":"0","latitude":"38.5672","longitude":"68.8126","state_id":null,"state_name":null,"country_id":null}]