[{"active":false,"Giataid":"6996","cityId":null,"cityName":"Macao (Macau)","hotelId":6996,"hotelName":"Lisboa","address":"2-4 Avenida De Lisboa,Macau,Macau","phones":"+8538685328883888","fax":"+8685328883838","email":"reservation@hotelisboa.com","url":"http://www.hotelisboa.com","countryIso2":"MO","countryName":"Macau","hotelRating":"5","latitude":"22.1904","longitude":"113.544","state_id":null,"state_name":null,"country_id":null},{"active":false,"Giataid":"14508","cityId":null,"cityName":"Macao (Macau)","hotelId":14508,"hotelName":"Regency Macau","address":"2 Estrada Almirante Marques Esparteiro,Taipa Island,Macau,Macau","phones":"+8538685328831234","fax":"+8685328830195","email":"reservation@regencyhotel.com.mo","url":"http://www.regencyhotel.com.mo","countryIso2":"MO","countryName":"Macau","hotelRating":"4","latitude":"22.1623","longitude":"113.554","state_id":null,"state_name":null,"country_id":null},{"active":false,"Giataid":"16748","cityId":null,"cityName":"Macao (Macau)","hotelId":16748,"hotelName":"Mandarin Oriental Macau","address":"Avenida Dr. Sun Yat Sen 945,Nape,Macau,Macau","phones":"+8538685388058888","fax":"+8685388058833","email":"momac-reservations@mohg.com","url":"http://www.mandarinoriental.com/macau","countryIso2":"MO","countryName":"Macau","hotelRating":"5","latitude":"22.1842","longitude":"113.547","state_id":null,"state_name":null,"country_id":null},{"active":false,"Giataid":"16754","cityId":null,"cityName":"Macao (Macau)","hotelId":16754,"hotelName":"Grand Lapa Macau","address":"956-1110 Avenida da Amizade,Macau,Macau","phones":"+85328567888","fax":"+8685328713168","email":"glmfm-resort@mohg.com","url":"http://www.mandarinoriental.com/grandlapa/contact_us.aspx","countryIso2":"MO","countryName":"Macau","hotelRating":"5","latitude":"22.1918","longitude":"113.554","state_id":null,"state_name":null,"country_id":null},{"active":false,"Giataid":"27963","cityId":null,"cityName":"Macao (Macau)","hotelId":27963,"hotelName":"Pousada De Sao Tiago","address":"Avenida da Rep?blica,Fortaleza de S?o Tiago da Barra,Macau,Macau","phones":"+8538685328378111","fax":"+8685328552170","email":"reservation@saotiago.com.mo","url":"http://www.saotiago.com.mo","countryIso2":"MO","countryName":"Macau","hotelRating":"5","latitude":"22.1824","longitude":"113.531","state_id":null,"state_name":null,"country_id":null},{"active":false,"Giataid":"129713","cityId":null,"cityName":"Macao (Macau)","hotelId":129713,"hotelName":"Grand Waldo","address":"Sul da Marina Taipa-sul junto ? Rotunda do Dique Oeste,Avenida Marginal Flor de Lotus,Taipa,Macau,Macau","phones":"+8538685328886888","fax":"+8685328886889","email":"customers@grandwaldohotel.com","url":"http://www.grandwaldohotel.com","countryIso2":"MO","countryName":"Macau","hotelRating":"5","latitude":"22.1456","longitude":"113.552","state_id":null,"state_name":null,"country_id":null},{"active":false,"Giataid":"129714","cityId":null,"cityName":"Macao (Macau)","hotelId":129714,"hotelName":"Venetian Macao Resort","address":"Estrada da Ba?a de N. Senhora da Esperan?a s/n,Taipa,Macao SAR,Macau","phones":"+8538685328828888","fax":"+8685328828823","email":"pr@venetian.com.mo","url":"http://www.venetianmacao.com/","countryIso2":"MO","countryName":"Macau","hotelRating":"5","latitude":"22.1485","longitude":"113.56","state_id":null,"state_name":null,"country_id":null},{"active":false,"Giataid":"132719","cityId":null,"cityName":"Macao (Macau)","hotelId":132719,"hotelName":"Presidente","address":"Avenida Da Amizade,Macau,Macau","phones":"+85328553888","fax":"+8685328569988","email":"contact@hotelpresident.com.mo","url":"http://www.hotelpresident.com.mo/mo/home.html","countryIso2":"MO","countryName":"Macau","hotelRating":"4","latitude":"22.1904","longitude":"113.547","state_id":null,"state_name":null,"country_id":null},{"active":false,"Giataid":"132720","cityId":null,"cityName":"Macao (Macau)","hotelId":132720,"hotelName":"Pousada Marina Infante","address":"Avenida Marginal Flor de Lotus,Taipa/Cotai,Macau,Macau","phones":"+85328838333","fax":"+8685328838333","email":"info@pousadamarinainfante.com","url":"http://www.pousadamarinainfante.com/home.htm","countryIso2":"MO","countryName":"Macau","hotelRating":"4","latitude":"22.1497","longitude":"113.551","state_id":null,"state_name":null,"country_id":null},{"active":false,"Giataid":"132721","cityId":null,"cityName":"Macao (Macau)","hotelId":132721,"hotelName":"New Century Hotel & Casino","address":"Av. Padre Tomas Pereira No.889,Taipa,Macau,Macau","phones":"+85328831111","fax":"+8685328831111","email":"nch@macau.ctm.net","url":"http://www.newcenturyhotel-macau.com/","countryIso2":"MO","countryName":"Macau","hotelRating":"5","latitude":"22.163","longitude":"113.556","state_id":null,"state_name":null,"country_id":null},{"active":false,"Giataid":"132723","cityId":null,"cityName":"Macao (Macau)","hotelId":132723,"hotelName":"Guia","address":"Estrada do Engenheiro Trigo No 1-5,Macau,Macau","phones":"+85328513888","fax":"+8685328559822","email":"guia@macau.ctm.net","url":"http://www.hotelguiamacau.com/","countryIso2":"MO","countryName":"Macau","hotelRating":"3","latitude":"22.1958","longitude":"113.549","state_id":null,"state_name":null,"country_id":null},{"active":false,"Giataid":"132724","cityId":null,"cityName":"Macao (Macau)","hotelId":132724,"hotelName":"Rocks","address":"Macau Fisherman's Wharf,Macau,Macau","phones":"+8538685328782782","fax":"+8685328728800","email":"info@rockshotel.com.mo","url":"http://www.rockshotel.com.mo","countryIso2":"MO","countryName":"Macau","hotelRating":"3","latitude":"22.19","longitude":"113.558","state_id":null,"state_name":null,"country_id":null},{"active":false,"Giataid":"132725","cityId":null,"cityName":"Macao (Macau)","hotelId":132725,"hotelName":"Riviera","address":"Rua Comendador do Kou Ho Neng No. 7-13,P.O. Box 1323,Macau,Macau","phones":"+85328339955","fax":"+8685328388166","email":"rivierarsvn@macau.ctm.net","url":"http://www.rivierahotel.com.mo/","countryIso2":"MO","countryName":"Macau","hotelRating":"4","latitude":"22.1864","longitude":"113.536","state_id":null,"state_name":null,"country_id":null},{"active":false,"Giataid":"132726","cityId":null,"cityName":"Macao (Macau)","hotelId":132726,"hotelName":"Grand Dragon Hotel","address":"Rua de Chaves 36-58,Taipa,Macau,Macau","phones":"(+853) 2883 9933","fax":" (+853) 2836 1333","email":" info@goldendragon.com.mo","url":"http://www.goldendragon.com.mo/en/contact-us","countryIso2":"MO","countryName":"Macau","hotelRating":"4","latitude":"22.1577","longitude":"113.551","state_id":null,"state_name":null,"country_id":null},{"active":false,"Giataid":"132727","cityId":null,"cityName":"Macao (Macau)","hotelId":132727,"hotelName":"Fu Hua Hotel Ltd.","address":"98-102 Rua Francisco Xavier Pereira,Avenida de Horta e Costa,close the shopping center and Songshan Scenic Spot,Macau City,Macau,Macau","phones":"+85328553838","fax":"+8685328527575","email":"","url":"","countryIso2":"MO","countryName":"Macau","hotelRating":"3","latitude":"22.2025","longitude":"113.547","state_id":null,"state_name":null,"country_id":null},{"active":false,"Giataid":"132729","cityId":null,"cityName":"Macao (Macau)","hotelId":132729,"hotelName":"Royal","address":"Estrada da Vitoria 2-4,Macau,Macau","phones":"+8538685328552222","fax":"+8685328563008","email":"","url":"http://www.hotelroyal.com.mo/","countryIso2":"MO","countryName":"Macau","hotelRating":"4","latitude":"22.1962","longitude":"113.547","state_id":null,"state_name":null,"country_id":null},{"active":false,"Giataid":"136741","cityId":null,"cityName":"Macao (Macau)","hotelId":136741,"hotelName":"Four Seasons Hotel Macao, Cotai Strip","address":"Estrada da Ba?a de N. Senhora da Esperan?a S/N,Taipa,Macau,Macau","phones":"+8538685328818888","fax":"+8685328818899","email":"","url":"http://www.fourseasons.com/de/macau/","countryIso2":"MO","countryName":"Macau","hotelRating":"5","latitude":"22.1456","longitude":"113.563","state_id":null,"state_name":null,"country_id":null},{"active":false,"Giataid":"136815","cityId":null,"cityName":"Macao (Macau)","hotelId":136815,"hotelName":"Sofitel Macau At Ponte 16","address":"Rua do Visconde Paco de Arcos,Macau,Macau","phones":"+85388610016","fax":"+8685388610018","email":"H6480-FO9@sofitel.com","url":"http://www.sofitel.com/de/hotel-6480-sofitel-macau-at-ponte-16/index.shtml","countryIso2":"MO","countryName":"Macau","hotelRating":"5","latitude":"22.1971","longitude":"113.536","state_id":null,"state_name":null,"country_id":null},{"active":false,"Giataid":"137077","cityId":null,"cityName":"Macao (Macau)","hotelId":137077,"hotelName":"The Victoria","address":"118 Estrado do Arco,Macau,Macau","phones":"+8538685328556688","fax":"+8685328557788","email":"hotel@mo-victoria.com","url":"http://www.mo-victoria.com","countryIso2":"MO","countryName":"Macau","hotelRating":"3","latitude":"22.21","longitude":"113.548","state_id":null,"state_name":null,"country_id":null},{"active":false,"Giataid":"138003","cityId":null,"cityName":"Macao (Macau)","hotelId":138003,"hotelName":"Golden Crown China","address":"Opposite To The Macau International Airport,Macau,Taipa,Macau","phones":"+85328851166","fax":"+8685328850288","email":"reservation@htlchina.com.mo","url":"https://www.htlchina.com.mo/html/en/index.html","countryIso2":"MO","countryName":"Macau","hotelRating":"4","latitude":"22.1585","longitude":"113.574","state_id":null,"state_name":null,"country_id":null},{"active":false,"Giataid":"142917","cityId":null,"cityName":"Macao (Macau)","hotelId":142917,"hotelName":"Lan Kwai Fong","address":"Rua De Xiamen 59,Macau,Macau","phones":"+85328800888","fax":"","email":"sales@macaulkf.com","url":"http://www.macaulkf.com/default-en.html","countryIso2":"MO","countryName":"Macau","hotelRating":"3","latitude":"22.1932","longitude":"113.552","state_id":null,"state_name":null,"country_id":null},{"active":false,"Giataid":"183357","cityId":null,"cityName":"Macao (Macau)","hotelId":183357,"hotelName":"Altira Macau","address":"Avenida de Kwong Tung,Taipa,Macau,Macau","phones":"+85328868888","fax":"+8685328868866","email":"hotelreserv@altiramacau.com","url":"http://www.altiramacau.com/","countryIso2":"MO","countryName":"Macau","hotelRating":"5","latitude":"22.1619","longitude":"113.555","state_id":null,"state_name":null,"country_id":null},{"active":false,"Giataid":"188034","cityId":null,"cityName":"Macao (Macau)","hotelId":188034,"hotelName":"The Countdown Hotel at City of Dreams","address":"Estrada Do Istmo,Cotai,Macau,Macau","phones":"+8538685388683333","fax":"+8685388673338","email":"contactcentre@cod-macau.com","url":"http://www.cityofdreamsmacau.com/?q=gaming/hard-rock-casino","countryIso2":"MO","countryName":"Macau","hotelRating":"4","latitude":"22.1487","longitude":"113.566","state_id":null,"state_name":null,"country_id":null},{"active":false,"Giataid":"190920","cityId":null,"cityName":"Macao (Macau)","hotelId":190920,"hotelName":"East Asia","address":"Rua Da Madeira 1A,Macau,Macau","phones":"+85328922433","fax":"+8685328922433","email":"","url":"http://eastasiahotelmacau.com/","countryIso2":"MO","countryName":"Macau","hotelRating":"2","latitude":"22.1965","longitude":"113.537","state_id":null,"state_name":null,"country_id":null},{"active":false,"Giataid":"193656","cityId":null,"cityName":"Macao (Macau)","hotelId":193656,"hotelName":"Ole London","address":"Praca de ponte e horta No 4-6,Macau,Macau","phones":"+85328937761","fax":"+8685328937765","email":"service@olelondonhotel.com","url":"http://www.olelondonhotel.com","countryIso2":"MO","countryName":"Macau","hotelRating":"3","latitude":"22.1936","longitude":"113.536","state_id":null,"state_name":null,"country_id":null},{"active":false,"Giataid":"193837","cityId":null,"cityName":"Macao (Macau)","hotelId":193837,"hotelName":"Pousada de Mong-Ha","address":"","phones":"","fax":"","email":"","url":"","countryIso2":"MO","countryName":"Macau","hotelRating":"1","latitude":"22.1798","longitude":"113.549","state_id":null,"state_name":null,"country_id":null},{"active":false,"Giataid":"226664","cityId":null,"cityName":"Macao (Macau)","hotelId":226664,"hotelName":"Grand Hyatt Macau","address":"City of Dreams,Estrada do Istmo,Cotai,Macau,Macau","phones":"+8538685388681234","fax":"+8685388671234","email":"macau.grand@hyatt.com","url":"http://macau.grand.hyatt.com","countryIso2":"MO","countryName":"Macau","hotelRating":"5","latitude":"22.1486","longitude":"113.569","state_id":null,"state_name":null,"country_id":null},{"active":false,"Giataid":"236569","cityId":null,"cityName":"Macao (Macau)","hotelId":236569,"hotelName":"Banyan Tree Macau","address":"Avenida Marginal Flor de Lotus,Cotai,Macau,Macau","phones":"+85388836688","fax":"+8685388836108","email":"macau@banyantree.com","url":"http://www.banyantree.com/en/macau/overview","countryIso2":"MO","countryName":"Macau","hotelRating":"5","latitude":"22.1493","longitude":"113.553","state_id":null,"state_name":null,"country_id":null},{"active":false,"Giataid":"237167","cityId":null,"cityName":"Macao (Macau)","hotelId":237167,"hotelName":"Hotel Okura Macau","address":"Galaxy Macau,Cotai,Macau,Macau","phones":"+85388838883","fax":"+8685388832345","email":"info@hotelokuramacau.com","url":"http://www.hotelokuramacau.com","countryIso2":"MO","countryName":"Macau","hotelRating":"5","latitude":"22.1495","longitude":"113.552","state_id":null,"state_name":null,"country_id":null},{"active":false,"Giataid":"241692","cityId":null,"cityName":"Macao (Macau)","hotelId":241692,"hotelName":"Galaxy Hotel","address":"Galaxy Macau?,Cotai,Macau,Macau","phones":"+85328880888","fax":"","email":"reservations@galaxymacau.com","url":"http://www.galaxymacau.com/en/stay/galaxy-hotel","countryIso2":"MO","countryName":"Macau","hotelRating":"5","latitude":"22.1492","longitude":"113.553","state_id":null,"state_name":null,"country_id":null},{"active":false,"Giataid":"244163","cityId":null,"cityName":"Macao (Macau)","hotelId":244163,"hotelName":"L'arc Macau","address":"Avenida 24 De Junho 278,Macau,Macau","phones":"","fax":"","email":"","url":"","countryIso2":"MO","countryName":"Macau","hotelRating":"5","latitude":"22.189","longitude":"113.548","state_id":null,"state_name":null,"country_id":null},{"active":false,"Giataid":"246095","cityId":null,"cityName":"Macao (Macau)","hotelId":246095,"hotelName":"Holiday Inn Macao Cotai Central","address":"Sands Cotai Central Cotai Strip,Taipa,Macau,Macau","phones":"+85328282228","fax":"+8685328282299","email":"","url":"http://www.holidayinn.com/hotels/us/en/macau/mfmma/hoteldetail","countryIso2":"MO","countryName":"Macau","hotelRating":"4","latitude":"22.1464","longitude":"113.565","state_id":null,"state_name":null,"country_id":null},{"active":false,"Giataid":"365602","cityId":null,"cityName":"Macao (Macau)","hotelId":365602,"hotelName":"Macau Masters Hotel","address":"Rua Das Lorchas 162,Macau,Macau","phones":"+85328937572","fax":"","email":"","url":"","countryIso2":"MO","countryName":"Macau","hotelRating":"2","latitude":"22.1948","longitude":"113.536","state_id":null,"state_name":null,"country_id":null},{"active":false,"Giataid":"365605","cityId":null,"cityName":"Macao (Macau)","hotelId":365605,"hotelName":"Ole Tai Sam Un Hotel","address":"Rua Da Caldeira 43-45 R/C A,Macau,Macau","phones":"+85328938818","fax":"85328938828","email":"oletaisamunhotel@gmail.com","url":"http://www.oletaisamunhotel.com/location.html","countryIso2":"MO","countryName":"Macau","hotelRating":"3","latitude":"22.1951","longitude":"113.537","state_id":null,"state_name":null,"country_id":null},{"active":false,"Giataid":"366586","cityId":null,"cityName":"Macao (Macau)","hotelId":366586,"hotelName":"Towns Well Motel","address":"NO.6-6A.CALCADA DAS VERDADES","phones":"","fax":"","email":"","url":"","countryIso2":"MO","countryName":"Macau","hotelRating":"2","latitude":"22.1951","longitude":"113.542","state_id":null,"state_name":null,"country_id":null},{"active":false,"Giataid":"513196","cityId":null,"cityName":"Macao (Macau)","hotelId":513196,"hotelName":"Man Va Hotel Macau","address":"30-32-34 Rua da Caldeira,Macau,Macau","phones":"+8538685328388655","fax":"","email":"","url":"http://manvahotelmacau.com/","countryIso2":"MO","countryName":"Macau","hotelRating":"2","latitude":"22.1952","longitude":"113.537","state_id":null,"state_name":null,"country_id":null},{"active":false,"Giataid":"653710","cityId":null,"cityName":"Macao (Macau)","hotelId":653710,"hotelName":"Pension Forson","address":"Xin Ma Road 579-583,San Maa Lou,Macau,Macau","phones":"","fax":"","email":"","url":"","countryIso2":"MO","countryName":"Macau","hotelRating":"1","latitude":"22.1798","longitude":"113.549","state_id":null,"state_name":null,"country_id":null},{"active":false,"Giataid":"246095","cityId":null,"cityName":"Macao (Macau)","hotelId":689263,"hotelName":"Holiday Inn Macao Cotai Central","address":"Sands Cotai Central Cotai Strip,Taipa,Macau,Macau","phones":"+85328282228","fax":"","email":"holidayinn.reservations@sands.com.mo","url":"https://www.ihg.com/holidayinn/hotels/de/de/macau/mfmma/hoteldetail","countryIso2":"MO","countryName":"Macau","hotelRating":"0","latitude":"22.1798","longitude":"113.549","state_id":null,"state_name":null,"country_id":null},{"active":false,"Giataid":"753500","cityId":null,"cityName":"Macao (Macau)","hotelId":753500,"hotelName":"MGM Cotai","address":"Avenida da Nave Desportiva,Cotai,Macau,Macau","phones":"+85388068888","fax":"","email":"","url":"https://www.mgm.mo/en/cotai/rooms","countryIso2":"MO","countryName":"Macau","hotelRating":"5","latitude":"22.1461","longitude":"113.568","state_id":null,"state_name":null,"country_id":null},{"active":false,"Giataid":"755512","cityId":null,"cityName":"Macao (Macau)","hotelId":755512,"hotelName":"5footwayinn Project Ponte 16","address":"Avenida Da Amizade 555,Rua de Constantino Brito 8,Macau,Macau","phones":"","fax":"","email":"","url":"","countryIso2":"MO","countryName":"Macau","hotelRating":"1","latitude":"22.1798","longitude":"113.549","state_id":null,"state_name":null,"country_id":null},{"active":false,"Giataid":"758183","cityId":null,"cityName":"Macao (Macau)","hotelId":758183,"hotelName":"San Tung Fong Commercial Inn South Wing","address":"Travessa Da Cordoaria 15,1-5 Andar,Macau,Macau","phones":"","fax":"","email":"","url":"","countryIso2":"MO","countryName":"Macau","hotelRating":"1","latitude":"22.1958","longitude":"113.538","state_id":null,"state_name":null,"country_id":null},{"active":false,"Giataid":"779208","cityId":null,"cityName":"Macao (Macau)","hotelId":779208,"hotelName":"Morpheus at City of Dreams","address":"Estrada Do Istmo,Cotai,Macau,Macau","phones":"","fax":"","email":"","url":"http://www.cityofdreamsmacau.com/en/hotels/detail/morpheus","countryIso2":"MO","countryName":"Macau","hotelRating":"1","latitude":"22.1495","longitude":"113.567","state_id":null,"state_name":null,"country_id":null},{"active":false,"Giataid":"437872","cityId":null,"cityName":"Macao (Macau)","hotelId":10053340,"hotelName":"5 Footway Inn Project Ponte 16","address":"8 Rua de Constantino Brito,Macau,Macau","phones":"","fax":"","email":"","url":"","countryIso2":"MO","countryName":"Macau","hotelRating":"2","latitude":"22.1966","longitude":"113.537","state_id":null,"state_name":null,"country_id":null},{"active":false,"Giataid":"408885","cityId":null,"cityName":"Macao (Macau)","hotelId":10074522,"hotelName":"Crowne Plaza Macao","address":"The Residencia,Tower 7,Rua Da Perola Oriental,Macau","phones":"853-853-28886888","fax":"853-853-28888686","email":"info@crowneplazamacau.com","url":"?","countryIso2":"MO","countryName":"Macau","hotelRating":"5","latitude":"22.2122","longitude":"113.558","state_id":null,"state_name":null,"country_id":null},{"active":false,"Giataid":"436145","cityId":null,"cityName":"Macao (Macau)","hotelId":10077234,"hotelName":"Broadway Macau","address":"Cotai,Macau,Macau","phones":"+853 8883 3338","fax":"+853 8883 6668","email":"bwfeedback@broadwaymacau.com.mo","url":"https://www.broadwaymacau.com.mo/getting-here-0/","countryIso2":"MO","countryName":"Macau","hotelRating":"4","latitude":"22.1462","longitude":"113.551","state_id":null,"state_name":null,"country_id":null},{"active":false,"Giataid":"431663","cityId":null,"cityName":"Macao (Macau)","hotelId":10077236,"hotelName":"JW Marriott  Macau","address":"Galaxy Macau?,Estrada da Ba?a da Nossa Senhora da Esperan?a s/n,Cotai,Macau,Macau","phones":"(853) 8886 6888","fax":"","email":"","url":"http://www.marriott.com/hotels/travel/mfmjw-jw-marriott-hotel-macau/","countryIso2":"MO","countryName":"Macau","hotelRating":"5","latitude":"22.1466","longitude":"113.555","state_id":null,"state_name":null,"country_id":null},{"active":false,"Giataid":"429471","cityId":null,"cityName":"Macao (Macau)","hotelId":10077237,"hotelName":"The Ritz-Carlton Macau","address":"Estrada da Baia da Nossa Senhora da Esperanca s/n,Galaxy Macau,Macau,Macau","phones":"+853 8886 6868","fax":"","email":"","url":"","countryIso2":"MO","countryName":"Macau","hotelRating":"5","latitude":"22.1491","longitude":"113.553","state_id":null,"state_name":null,"country_id":null},{"active":false,"Giataid":"466409","cityId":null,"cityName":"Macao (Macau)","hotelId":10077379,"hotelName":"Studio City Hotel","address":"Estrada do Istmo,Cotai,Macau,Macau","phones":"(853) 8865-6868","fax":"(853) 8869-6868","email":"reservations@sc-macau.com","url":"http://www.studiocity-macau.com/","countryIso2":"MO","countryName":"Macau","hotelRating":"5","latitude":"22.1411","longitude":"113.563","state_id":null,"state_name":null,"country_id":null},{"active":false,"Giataid":"468537","cityId":null,"cityName":"Macao (Macau)","hotelId":10140712,"hotelName":"The St. Regis Macao, Cotai Central","address":"Estrada Do Istmo s/n,Cotai,Macau","phones":"(853) 2882 8898","fax":"(853) 2882 8890","email":"Res.Stregismacao@staystarwood.com","url":"http://www.sandscotaicentral.com/hotels/st-regis-macao.html","countryIso2":"MO","countryName":"Macau","hotelRating":"4","latitude":"22.1476","longitude":"113.566","state_id":null,"state_name":null,"country_id":null},{"active":false,"Giataid":"586656","cityId":null,"cityName":"Macao (Macau)","hotelId":10141065,"hotelName":"The Parisian Macao","address":"Estrada do Istmo, Lote 3, Cotai Strip, Macao SAR, P.R. China","phones":"+853 2882 8827,+853 2882 8833","fax":"","email":"room.reservations@parisian.com.mo","url":"https://www.parisianmacao.com/","countryIso2":"MO","countryName":"Macau","hotelRating":"4","latitude":"22.1439","longitude":"113.562","state_id":null,"state_name":null,"country_id":null},{"active":false,"Giataid":"611508","cityId":null,"cityName":"Macao (Macau)","hotelId":10141128,"hotelName":"Wynn Palace","address":"Avenida Da Nave Desportiva,Cotai,Macau,Macau","phones":"(853) 8889-3506 ","fax":"(853) 8889-3500 ","email":"","url":"http://www.wynnpalace.com/en/","countryIso2":"MO","countryName":"Macau","hotelRating":"5","latitude":"22.1474","longitude":"113.57","state_id":null,"state_name":null,"country_id":null},{"active":false,"Giataid":"302610","cityId":null,"cityName":"Macao (Macau)","hotelId":20002642,"hotelName":"Hou Kong Hotel","address":"No. 1 Travessa das Virtudes,Macao,Macau","phones":"","fax":"","email":"","url":"http://www.tripadvisor.de/Hotel_Review-g664891-d1515630-Reviews-Hou_Kong_Hotel-Macau.html","countryIso2":"MO","countryName":"Macau","hotelRating":"2","latitude":"22.195","longitude":"113.536","state_id":null,"state_name":null,"country_id":null},{"active":false,"Giataid":"557249","cityId":null,"cityName":"Macao (Macau)","hotelId":20002874,"hotelName":"Asia Boutique Inn","address":"Rua Correia Da Silva 146,Taipa,Macau","phones":"","fax":"","email":"","url":"","countryIso2":"MO","countryName":"Macau","hotelRating":"2","latitude":"22.1528","longitude":"113.557","state_id":null,"state_name":null,"country_id":null},{"active":false,"Giataid":"557271","cityId":null,"cityName":"Macao (Macau)","hotelId":20003113,"hotelName":"The House Of Dancing Water","address":"City of Dreams,Estrada do Istmo,Cotai,Macau","phones":"+85388686688","fax":"+85388676688","email":"enquiry@cityofdreamsmacau.com","url":"http://www.thehouseofdancingwater.com/","countryIso2":"MO","countryName":"Macau","hotelRating":"5","latitude":"22.1499","longitude":"113.568","state_id":null,"state_name":null,"country_id":null},{"active":false,"Giataid":"689061","cityId":null,"cityName":"Macao (Macau)","hotelId":20003353,"hotelName":"The Macau Roosevelt","address":"Avenida Dos Jogos Da Asia Oriental,Taipa,Macau","phones":"+85328820100","fax":"","email":"info@themacauroosevelt.com","url":"https://themacauroosevelt.com","countryIso2":"MO","countryName":"Macau","hotelRating":"4","latitude":"22.1553","longitude":"113.543","state_id":null,"state_name":null,"country_id":null},{"active":false,"Giataid":"431546","cityId":null,"cityName":"Macao (Macau)","hotelId":20003620,"hotelName":"Harbour View Hotel Macau","address":"Avenida Doctor Sun Yat-Sen,Fishermans Wharf,Macau,Macau","phones":"+85387996688","fax":"","email":"harbourviewhotel@fishermanswharf.com.mo","url":"http://www.harbourviewhotelmacau.com","countryIso2":"MO","countryName":"Macau","hotelRating":"4","latitude":"22.1905","longitude":"113.556","state_id":null,"state_name":null,"country_id":null},{"active":false,"Giataid":"544160","cityId":null,"cityName":"Macao (Macau)","hotelId":20003781,"hotelName":"Grand Harbour Hotel","address":"8 Travessa De Lam Mau,Macau,Macau","phones":"","fax":"","email":"","url":"","countryIso2":"MO","countryName":"Macau","hotelRating":"3","latitude":"22.2024","longitude":"113.538","state_id":null,"state_name":null,"country_id":null},{"active":false,"Giataid":"551735","cityId":null,"cityName":"Macao (Macau)","hotelId":20003970,"hotelName":"Mondial Hotel","address":"Rua da Antonio Basto (New Wing) 8-10,Macau,Macau","phones":"","fax":"","email":"","url":"","countryIso2":"MO","countryName":"Macau","hotelRating":"3","latitude":"22.2004","longitude":"113.549","state_id":null,"state_name":null,"country_id":null},{"active":false,"Giataid":"296225","cityId":null,"cityName":"Macao (Macau)","hotelId":20004141,"hotelName":"Bela Vista","address":"8/10 rua do Comendador,Kou Ho Neng,Macau,Macau","phones":"","fax":"","email":"","url":"","countryIso2":"MO","countryName":"Macau","hotelRating":"0","latitude":"22.1862","longitude":"113.535","state_id":null,"state_name":null,"country_id":null},{"active":false,"Giataid":"726371","cityId":null,"cityName":"Macao (Macau)","hotelId":20004338,"hotelName":"Legend Palace Hotel","address":"Avenida da Amizade,Macau Fisherman's Wharf,Macau,Macau","phones":"+85388018801","fax":"","email":"","url":"http://legendpalace.com.mo","countryIso2":"MO","countryName":"Macau","hotelRating":"4","latitude":"22.1956","longitude":"113.556","state_id":null,"state_name":null,"country_id":null},{"active":false,"Giataid":"724450","cityId":null,"cityName":"Macao (Macau)","hotelId":20004492,"hotelName":"Caravel Hotel","address":"Rua Do Guimaraes 96-126,Macau,Macau","phones":"","fax":"","email":"","url":"http://www.thecaravelhotel.com/","countryIso2":"MO","countryName":"Macau","hotelRating":"3","latitude":"22.1979","longitude":"113.537","state_id":null,"state_name":null,"country_id":null},{"active":false,"Giataid":"554807","cityId":null,"cityName":"Macao (Macau)","hotelId":20004672,"hotelName":"Ascott Macau","address":"339 Rua Cidade de Braga,Nape,Macau,Macau","phones":"+8538685328220688","fax":"+8538685328220699","email":"","url":"http://www2.the-ascott.com/en/china/macau/ascott_macau/location.html","countryIso2":"MO","countryName":"Macau","hotelRating":"4","latitude":"22.1868","longitude":"113.549","state_id":null,"state_name":null,"country_id":null},{"active":false,"Giataid":"936739","cityId":null,"cityName":"Macao (Macau)","hotelId":20351203,"hotelName":"IFU Hotel","address":"Rua Do Bispo Enes 8,Macau,Macau","phones":"","fax":"","email":"","url":"","countryIso2":"MO","countryName":"Macau","hotelRating":"0","latitude":"22.1798","longitude":"113.549","state_id":null,"state_name":null,"country_id":null},{"active":false,"Giataid":"856517","cityId":null,"cityName":"Macao (Macau)","hotelId":20351204,"hotelName":"Royal Dragon Hotel","address":"Rua De Goa 61-77,Macau,Macau,Macau","phones":"+85328261999","fax":"","email":"","url":"https://www.royaldragon.com.mo","countryIso2":"MO","countryName":"Macau","hotelRating":"0","latitude":"22.1933","longitude":"113.551","state_id":null,"state_name":null,"country_id":null},{"active":false,"Giataid":"900899","cityId":null,"cityName":"Macao (Macau)","hotelId":20351205,"hotelName":"Ka Meng Villa","address":"Rua Madeira 7,2 E 3 Andar,Edf,Kam Hou,Macau,Macau","phones":"","fax":"","email":"","url":"","countryIso2":"MO","countryName":"Macau","hotelRating":"0","latitude":"22.1961","longitude":"113.538","state_id":null,"state_name":null,"country_id":null},{"active":false,"Giataid":"898125","cityId":null,"cityName":"Macao (Macau)","hotelId":20351206,"hotelName":"Home Of Macau","address":"2/F 4 QunXing New Street,Macau,Macau","phones":"","fax":"","email":"","url":"","countryIso2":"MO","countryName":"Macau","hotelRating":"0","latitude":"22.1935","longitude":"113.536","state_id":null,"state_name":null,"country_id":null},{"active":false,"Giataid":"952411","cityId":null,"cityName":"Macao (Macau)","hotelId":20413044,"hotelName":"Pensao Lotus New Nam Pan Hotel","address":"Avenida De D. Joao IV 8,2? Andar,Macau,Macau","phones":"","fax":"","email":"","url":"","countryIso2":"MO","countryName":"Macau","hotelRating":"1","latitude":"22.1798","longitude":"113.549","state_id":null,"state_name":null,"country_id":null},{"active":false,"Giataid":"967213","cityId":null,"cityName":"Macao (Macau)","hotelId":20413045,"hotelName":"Villa Tong Keng","address":"3/F 10 Travessa Da Felicidade,Macau City,Macau","phones":"","fax":"","email":"","url":"","countryIso2":"MO","countryName":"Macau","hotelRating":"1","latitude":"22.1798","longitude":"113.549","state_id":null,"state_name":null,"country_id":null},{"active":false,"Giataid":"963637","cityId":null,"cityName":"Macao (Macau)","hotelId":20413046,"hotelName":"Happy Family Hotel","address":"Travessa Da Praia Grande 4,Macau,Macau","phones":"","fax":"","email":"","url":"","countryIso2":"MO","countryName":"Macau","hotelRating":"1","latitude":"22.1798","longitude":"113.549","state_id":null,"state_name":null,"country_id":null},{"active":false,"Giataid":"1004930","cityId":null,"cityName":"Macao (Macau)","hotelId":20436763,"hotelName":"Love Lane Seven Inn","address":"Travessa Da Paixao 7,Macau,Macau","phones":"+85328366490","fax":"","email":"lovelane7.macao@gmail.com","url":"http://www.lovelane7.com/","countryIso2":"MO","countryName":"Macau","hotelRating":"1","latitude":"22.1798","longitude":"113.549","state_id":null,"state_name":null,"country_id":null}]