[{"active":false,"Giataid":"202056","cityId":48138,"cityName":"Libreville","hotelId":202056,"hotelName":"Sunset Beach","address":"La Sabli?re,B.P. 12252,Libreville,Gabon","phones":"+2416715890","fax":"","email":"sunsetbeachhotel@hotmail.com","url":"http://www.capserveur.com/lepratiquedugabon/liste.asp?id=14","countryIso2":"GA","countryName":"Gabon","hotelRating":"3","latitude":"0.493161","longitude":"9.38383","state_id":2727,"state_name":"Estuaire Province","country_id":79},{"active":false,"Giataid":"202057","cityId":null,"cityName":"Igu?la Lagoon","hotelId":202057,"hotelName":"Loango Lodge","address":"Iguela Lagoon,Loango National Park,Gabon","phones":"","fax":"","email":"","url":"","countryIso2":"GA","countryName":"Gabon","hotelRating":"3","latitude":"-1.89117","longitude":"9.31441","state_id":null,"state_name":null,"country_id":null},{"active":false,"Giataid":"425700","cityId":48138,"cityName":"Libreville","hotelId":425700,"hotelName":"Hotel Le Cristal","address":"Palace de L'Independance,B.P. 1017,Libreville,Gabon","phones":"+2411722778","fax":"","email":"reservations@legacyhotels.com","url":"http://www.legacyhotels.co.za/en/hotels/lecristal","countryIso2":"GA","countryName":"Gabon","hotelRating":"4","latitude":"0.387709","longitude":"9.44375","state_id":2727,"state_name":"Estuaire Province","country_id":79},{"active":false,"Giataid":"449994","cityId":48138,"cityName":"Libreville","hotelId":449994,"hotelName":"Residence Lea","address":"","phones":"","fax":"","email":"","url":"","countryIso2":"GA","countryName":"Gabon","hotelRating":"1","latitude":"0.406438","longitude":"9.42976","state_id":2727,"state_name":"Estuaire Province","country_id":79},{"active":false,"Giataid":"450160","cityId":48138,"cityName":"Libreville","hotelId":450160,"hotelName":"Heliconia Garden & Suites Hotel","address":"","phones":"","fax":"","email":"","url":"","countryIso2":"GA","countryName":"Gabon","hotelRating":"1","latitude":"0.406438","longitude":"9.42976","state_id":2727,"state_name":"Estuaire Province","country_id":79},{"active":false,"Giataid":"463034","cityId":48133,"cityName":"Franceville","hotelId":463034,"hotelName":"Leconi Palace","address":"B. P. 735,Franceville,Haut-Ogooue,Gabon","phones":"","fax":"","email":"","url":"","countryIso2":"GA","countryName":"Gabon","hotelRating":"1","latitude":"-1.61962","longitude":"13.6016","state_id":2726,"state_name":"Haut-Ogooue Province","country_id":79},{"active":false,"Giataid":"463192","cityId":48147,"cityName":"Mounana","hotelId":463192,"hotelName":"Le Royal Heliconia Bongoville","address":"BP03,Libreville,Mounana,Djokoroundja,Gabon","phones":"","fax":"","email":"","url":"","countryIso2":"GA","countryName":"Gabon","hotelRating":"1","latitude":"-1.45199","longitude":"13.2702","state_id":2726,"state_name":"Haut-Ogooue Province","country_id":79},{"active":false,"Giataid":"464261","cityId":48138,"cityName":"Libreville","hotelId":464261,"hotelName":"Hotel Boulevard","address":"ACAE,P.O. Box 15499,Libreville,Gabon","phones":"+2411705784","fax":"","email":"hotelboulevardgb@hotmail.com","url":"http://www.hotel-boulevard.org/index.php","countryIso2":"GA","countryName":"Gabon","hotelRating":"4","latitude":"0.371866","longitude":"9.45563","state_id":2727,"state_name":"Estuaire Province","country_id":79},{"active":false,"Giataid":"517824","cityId":48138,"cityName":"Libreville","hotelId":517824,"hotelName":"Le Patio","address":"Quartier Louis, Descente Jeanne Ebori, BP 6060,Libreville,Gabon","phones":"+2411734716","fax":"","email":"lepatio.libreville@gmail.com","url":"http://www.hotel-lepatio.com/","countryIso2":"GA","countryName":"Gabon","hotelRating":"3","latitude":"0.409174","longitude":"9.43403","state_id":2727,"state_name":"Estuaire Province","country_id":79},{"active":false,"Giataid":"617230","cityId":48138,"cityName":"Libreville","hotelId":617230,"hotelName":"Complexe Hotelier JMA Les 9 Provinces","address":"Owendo Port En Face de Comilog,Libreville,Gabon","phones":"","fax":"","email":"241","url":"","countryIso2":"GA","countryName":"Gabon","hotelRating":"1","latitude":"0.387872","longitude":"9.45001","state_id":2727,"state_name":"Estuaire Province","country_id":79},{"active":false,"Giataid":"617265","cityId":48138,"cityName":"Libreville","hotelId":617265,"hotelName":"Hotel Appart le Feuillage","address":"16061 Libreville,Gabon","phones":"+2416799606","fax":"","email":"contact@hotel-lefeuillage.com","url":"http://www.hotel-lefeuillage.com/","countryIso2":"GA","countryName":"Gabon","hotelRating":"1","latitude":"0.470667","longitude":"9.41197","state_id":2727,"state_name":"Estuaire Province","country_id":79},{"active":false,"Giataid":"617276","cityId":48138,"cityName":"Libreville","hotelId":617276,"hotelName":"Hotel Hibiscus Blvd Triomphal","address":"20 042 Libreville,Gabon","phones":"+2417871070","fax":"","email":"reservationHB@hotelhibiscusgabon.com","url":"http://www.hotelhibiscusgabon.com/","countryIso2":"GA","countryName":"Gabon","hotelRating":"1","latitude":"0.406438","longitude":"9.42976","state_id":2727,"state_name":"Estuaire Province","country_id":79},{"active":false,"Giataid":"617286","cityId":48138,"cityName":"Libreville","hotelId":617286,"hotelName":"Hotel Hibiscus Louis","address":"200 42 Libreville,Gabon","phones":"+2414621474","fax":"","email":"reservationHL@hotelhibiscusgabon.com","url":"http://www.hotelhibiscusgabon.com","countryIso2":"GA","countryName":"Gabon","hotelRating":"1","latitude":"0.417532","longitude":"9.43482","state_id":2727,"state_name":"Estuaire Province","country_id":79},{"active":false,"Giataid":"617298","cityId":48138,"cityName":"Libreville","hotelId":617298,"hotelName":"Lope Hotel","address":"Rue Ange M'ba,Libreville,Gabon","phones":"+2411720596","fax":"+2411720597","email":"info@lopehotel.com","url":"http://www.lopehotel.com/","countryIso2":"GA","countryName":"Gabon","hotelRating":"1","latitude":"0.388931","longitude":"9.44456","state_id":2727,"state_name":"Estuaire Province","country_id":79},{"active":false,"Giataid":"617413","cityId":48138,"cityName":"Libreville","hotelId":617413,"hotelName":"Palmeraie Hotel","address":"Estuaire de Gabon,Pointe Denis,Libreville,Gabon","phones":"+2413322929","fax":"","email":"palmeraie.hotel@gmail.com","url":"http://www.palmeraie-hotel-pointedenis.com/","countryIso2":"GA","countryName":"Gabon","hotelRating":"1","latitude":"0.326524","longitude":"9.36597","state_id":2727,"state_name":"Estuaire Province","country_id":79},{"active":false,"Giataid":"617453","cityId":48138,"cityName":"Libreville","hotelId":617453,"hotelName":"Assala Lodge","address":"","phones":"","fax":"","email":"","url":"","countryIso2":"GA","countryName":"Gabon","hotelRating":"3","latitude":"0.406438","longitude":"9.42976","state_id":2727,"state_name":"Estuaire Province","country_id":79},{"active":false,"Giataid":"617499","cityId":48138,"cityName":"Libreville","hotelId":617499,"hotelName":"VillaFlora","address":"Bp : 20061,Libreville,Gabon","phones":"","fax":"","email":"","url":"","countryIso2":"GA","countryName":"Gabon","hotelRating":"1","latitude":"0.4445","longitude":"9.4328","state_id":2727,"state_name":"Estuaire Province","country_id":79},{"active":false,"Giataid":"658109","cityId":48138,"cityName":"Libreville","hotelId":658109,"hotelName":"Quab'n'Bed","address":"Quartier Quaben (a cote du Garden Cafe),Libreville,Gabon","phones":"","fax":"","email":"","url":"","countryIso2":"GA","countryName":"Gabon","hotelRating":"1","latitude":"0.411151","longitude":"9.42944","state_id":2727,"state_name":"Estuaire Province","country_id":79},{"active":false,"Giataid":"659414","cityId":48138,"cityName":"Libreville","hotelId":659414,"hotelName":"Residence Palme d'Or","address":"Immeuble BKF,Quartier Ancienne Sobraga,BP 15.135,Libreville,Gabon","phones":"","fax":"","email":"","url":"","countryIso2":"GA","countryName":"Gabon","hotelRating":"1","latitude":"0.422507","longitude":"9.44737","state_id":2727,"state_name":"Estuaire Province","country_id":79},{"active":false,"Giataid":"659413","cityId":48138,"cityName":"Libreville","hotelId":659413,"hotelName":"Residence Oceane","address":"Route la Sabli?re,Libreville,Gabon","phones":"","fax":"","email":"","url":"","countryIso2":"GA","countryName":"Gabon","hotelRating":"1","latitude":"0.46684","longitude":"9.40179","state_id":2727,"state_name":"Estuaire Province","country_id":79},{"active":false,"Giataid":"689635","cityId":48138,"cityName":"Libreville","hotelId":689635,"hotelName":"Fly Hotel","address":"Aeroport de Libreville,BP 3488,Libreville,Gabon","phones":"","fax":"","email":"","url":"","countryIso2":"GA","countryName":"Gabon","hotelRating":"1","latitude":"0.458492","longitude":"9.40895","state_id":2727,"state_name":"Estuaire Province","country_id":79},{"active":false,"Giataid":"739407","cityId":48138,"cityName":"Libreville","hotelId":739407,"hotelName":"La Baie Des Tortues Luth","address":"La Baie Des Tortues Luth,Pointe Wingombe Parc National De Pongara Denis,Libreville,Gabon","phones":"","fax":"","email":"info@labaiedestortues.com","url":"http://labaiedestortues.com/","countryIso2":"GA","countryName":"Gabon","hotelRating":"1","latitude":"0.406438","longitude":"9.42976","state_id":2727,"state_name":"Estuaire Province","country_id":79},{"active":false,"Giataid":"739538","cityId":48138,"cityName":"Libreville","hotelId":739538,"hotelName":"Royal Palm","address":"Quartier Glass,Libreville,Gabon","phones":"","fax":"","email":"","url":"","countryIso2":"GA","countryName":"Gabon","hotelRating":"1","latitude":"0.406438","longitude":"9.42976","state_id":2727,"state_name":"Estuaire Province","country_id":79},{"active":false,"Giataid":"783505","cityId":48138,"cityName":"Libreville","hotelId":783505,"hotelName":"Hotel Restaurant La Pirogue","address":"Descente De Louis,Libreville,Gabon","phones":"","fax":"","email":"","url":"","countryIso2":"GA","countryName":"Gabon","hotelRating":"1","latitude":"0.406438","longitude":"9.42976","state_id":2727,"state_name":"Estuaire Province","country_id":79},{"active":false,"Giataid":"783533","cityId":48138,"cityName":"Libreville","hotelId":783533,"hotelName":"Flash Hotel","address":"139 Libreville,Gabon","phones":"","fax":"","email":"","url":"","countryIso2":"GA","countryName":"Gabon","hotelRating":"1","latitude":"0.406438","longitude":"9.42976","state_id":2727,"state_name":"Estuaire Province","country_id":79},{"active":false,"Giataid":"783576","cityId":48154,"cityName":"Port-Gentil","hotelId":783576,"hotelName":"Hotel Les Terrasses De La Medina","address":"Rue Jean Vigouroux,Port-Gentil,Gabon","phones":"","fax":"","email":"","url":"","countryIso2":"GA","countryName":"Gabon","hotelRating":"1","latitude":"-0.728511","longitude":"8.78984","state_id":2728,"state_name":"Ogooue-Maritime Province","country_id":79},{"active":false,"Giataid":"784547","cityId":48138,"cityName":"Libreville","hotelId":784547,"hotelName":"Hotel Kreg Le Patio","address":"Quaben Mont?e Louis,Libreville,Gabon","phones":"","fax":"","email":"","url":"","countryIso2":"GA","countryName":"Gabon","hotelRating":"1","latitude":"0.406438","longitude":"9.42976","state_id":2727,"state_name":"Estuaire Province","country_id":79},{"active":false,"Giataid":"784586","cityId":48133,"cityName":"Franceville","hotelId":784586,"hotelName":"Residence Lyz'aurore","address":"Bcp 70 Potos Franceville,Franceville,Gabon","phones":"","fax":"","email":"","url":"","countryIso2":"GA","countryName":"Gabon","hotelRating":"1","latitude":"0","longitude":"0","state_id":2726,"state_name":"Haut-Ogooue Province","country_id":79},{"active":false,"Giataid":"784654","cityId":48154,"cityName":"Port-Gentil","hotelId":784654,"hotelName":"Hotel du Littoral","address":"Rue Jean Marie Mboumba Vianney,Port-Gentil,Gabon","phones":"","fax":"","email":"","url":"","countryIso2":"GA","countryName":"Gabon","hotelRating":"1","latitude":"-0.728511","longitude":"8.78984","state_id":2728,"state_name":"Ogooue-Maritime Province","country_id":79},{"active":false,"Giataid":"784658","cityId":48154,"cityName":"Port-Gentil","hotelId":784658,"hotelName":"Hotel Le Bougainvillier","address":"Avenue Des Douanes,Port Gentil,Gabon","phones":"","fax":"","email":"","url":"","countryIso2":"GA","countryName":"Gabon","hotelRating":"1","latitude":"-0.728511","longitude":"8.78984","state_id":2728,"state_name":"Ogooue-Maritime Province","country_id":79},{"active":false,"Giataid":"785694","cityId":48154,"cityName":"Port-Gentil","hotelId":785694,"hotelName":"Sci Yassmani","address":"Bp. 704,Port Gentil,Gabon","phones":"","fax":"","email":"","url":"","countryIso2":"GA","countryName":"Gabon","hotelRating":"1","latitude":"-0.728511","longitude":"8.78984","state_id":2728,"state_name":"Ogooue-Maritime Province","country_id":79},{"active":false,"Giataid":"785783","cityId":48138,"cityName":"Libreville","hotelId":785783,"hotelName":"Guesthouse Viva","address":"Unnamed Road,Libreville,Gabon","phones":"","fax":"","email":"","url":"","countryIso2":"GA","countryName":"Gabon","hotelRating":"1","latitude":"0.406438","longitude":"9.42976","state_id":2727,"state_name":"Estuaire Province","country_id":79},{"active":false,"Giataid":"786852","cityId":48154,"cityName":"Port-Gentil","hotelId":786852,"hotelName":"Residence Hoteliere Ophelia Lodge","address":"Avenue de la Mosqu?e BP 935,Centre-ville,Port Gentil,Gabun,Gabon","phones":"","fax":"","email":"","url":"","countryIso2":"GA","countryName":"Gabon","hotelRating":"1","latitude":"-0.728511","longitude":"8.78984","state_id":2728,"state_name":"Ogooue-Maritime Province","country_id":79},{"active":false,"Giataid":"789484","cityId":48154,"cityName":"Port-Gentil","hotelId":789484,"hotelName":"Sicka Hotel","address":"Avenue du President Bongo Route de l'aeroport,Port Gentil,Gabon","phones":"","fax":"","email":"","url":"","countryIso2":"GA","countryName":"Gabon","hotelRating":"1","latitude":"-0.728511","longitude":"8.78984","state_id":2728,"state_name":"Ogooue-Maritime Province","country_id":79},{"active":false,"Giataid":"789486","cityId":48138,"cityName":"Libreville","hotelId":789486,"hotelName":"Residence Hoteliere Le Jomonia","address":"727 Avenue Emma Adande Akere Odibi,Libreville,Gabon","phones":"","fax":"","email":"","url":"","countryIso2":"GA","countryName":"Gabon","hotelRating":"1","latitude":"0.406438","longitude":"9.42976","state_id":2727,"state_name":"Estuaire Province","country_id":79},{"active":false,"Giataid":"789488","cityId":48138,"cityName":"Libreville","hotelId":789488,"hotelName":"Hotel Padonou Charbonages","address":"230 Impasse,1.599.HV2 Cite Des Charbonnages,Libreville,Gabon,Gabon","phones":"","fax":"","email":"","url":"","countryIso2":"GA","countryName":"Gabon","hotelRating":"1","latitude":"0.406438","longitude":"9.42976","state_id":2727,"state_name":"Estuaire Province","country_id":79},{"active":false,"Giataid":"790712","cityId":48138,"cityName":"Libreville","hotelId":790712,"hotelName":"Victory Queen II","address":"B.P 360,Libreville,Gabon","phones":"","fax":"","email":"","url":"","countryIso2":"GA","countryName":"Gabon","hotelRating":"1","latitude":"0.406438","longitude":"9.42976","state_id":2727,"state_name":"Estuaire Province","country_id":79},{"active":false,"Giataid":"790728","cityId":48154,"cityName":"Port-Gentil","hotelId":790728,"hotelName":"Hotel Chez Jimmy","address":"PO Box 867,Port Gentil,Gabon","phones":"","fax":"","email":"","url":"","countryIso2":"GA","countryName":"Gabon","hotelRating":"1","latitude":"-0.728511","longitude":"8.78984","state_id":2728,"state_name":"Ogooue-Maritime Province","country_id":79},{"active":false,"Giataid":"812989","cityId":48138,"cityName":"Libreville","hotelId":812989,"hotelName":"Cappuccino","address":"99 Rue De Kiliba,1er Arrondissement Alibandeng,Oyane,Libreville,Gabon","phones":"","fax":"","email":"","url":"","countryIso2":"GA","countryName":"Gabon","hotelRating":"1","latitude":"0.406438","longitude":"9.42976","state_id":2727,"state_name":"Estuaire Province","country_id":79},{"active":false,"Giataid":"816798","cityId":48138,"cityName":"Libreville","hotelId":816798,"hotelName":"Complexe Les Myriades","address":"Stade De L'amitie Gabon,Libreville,Gabon","phones":"","fax":"","email":"","url":"","countryIso2":"GA","countryName":"Gabon","hotelRating":"1","latitude":"0.406438","longitude":"9.42976","state_id":2727,"state_name":"Estuaire Province","country_id":79},{"active":false,"Giataid":"202055","cityId":48138,"cityName":"Libreville","hotelId":10044794,"hotelName":"Radisson Blu Okoume Palace Hotel","address":"5 Boulevard de Nice,BP 2254,Libreville,Gabon","phones":"+2411732023","fax":"","email":"","url":"","countryIso2":"GA","countryName":"Gabon","hotelRating":"4","latitude":"0.406438","longitude":"9.42976","state_id":2727,"state_name":"Estuaire Province","country_id":79},{"active":false,"Giataid":"502402","cityId":48138,"cityName":"Libreville","hotelId":10048271,"hotelName":"Nomad Suites Residence","address":"Quartier Aeroport,BP 8580,Libreville,Gabon","phones":"","fax":"","email":"","url":"","countryIso2":"GA","countryName":"Gabon","hotelRating":"4","latitude":"0.482969","longitude":"9.39875","state_id":2727,"state_name":"Estuaire Province","country_id":79},{"active":false,"Giataid":"495289","cityId":48138,"cityName":"Libreville","hotelId":10060569,"hotelName":"Pongara Lodge","address":"La Sabli?re,Libreville,Gabon","phones":"+2413192688","fax":"","email":"","url":"","countryIso2":"GA","countryName":"Gabon","hotelRating":"3","latitude":"0.406438","longitude":"9.42976","state_id":2727,"state_name":"Estuaire Province","country_id":79},{"active":false,"Giataid":"493711","cityId":48138,"cityName":"Libreville","hotelId":10061126,"hotelName":"Hotel Onomo Libreville","address":"La Sabli?re,Route Angondje,Quartier de l'ambassade US / A?roport,BP 23791,Libreville,Gabon","phones":"+2411459100","fax":"","email":"","url":"","countryIso2":"GA","countryName":"Gabon","hotelRating":"4","latitude":"0.481957","longitude":"9.39523","state_id":2727,"state_name":"Estuaire Province","country_id":79},{"active":false,"Giataid":"480764","cityId":48138,"cityName":"Libreville","hotelId":10101715,"hotelName":"Park Inn By Radisson Libreville","address":"5 Boulevard de Nice,BP 2254,Libreville,Gabon","phones":"+2411732023","fax":"NULL","email":"NULL","url":"NULL","countryIso2":"GA","countryName":"Gabon","hotelRating":"4","latitude":"0.430246","longitude":"9.42021","state_id":2727,"state_name":"Estuaire Province","country_id":79},{"active":false,"Giataid":"860916","cityId":48138,"cityName":"Libreville","hotelId":20310199,"hotelName":"African Dreams","address":"Montee Louis,Libreville,Gabon","phones":"","fax":"","email":"","url":"","countryIso2":"GA","countryName":"Gabon","hotelRating":"0","latitude":"0.406438","longitude":"9.42976","state_id":2727,"state_name":"Estuaire Province","country_id":79},{"active":false,"Giataid":"858418","cityId":48138,"cityName":"Libreville","hotelId":20310200,"hotelName":"La Karavia","address":"Agondge,Akanda,Libreville,Gabon","phones":"","fax":"","email":"","url":"","countryIso2":"GA","countryName":"Gabon","hotelRating":"0","latitude":"0.406438","longitude":"9.42976","state_id":2727,"state_name":"Estuaire Province","country_id":79},{"active":false,"Giataid":"912459","cityId":48154,"cityName":"Port-Gentil","hotelId":20310201,"hotelName":"Hotel Loisirs Mandji","address":"Rue du Reverend Pere Barreau,BP 682,Port-Gentil,Gabon","phones":"+2415572929","fax":"","email":"","url":"http://hlm-gabon.com","countryIso2":"GA","countryName":"Gabon","hotelRating":"0","latitude":"-0.719059","longitude":"8.78348","state_id":2728,"state_name":"Ogooue-Maritime Province","country_id":79},{"active":false,"Giataid":"939611","cityId":48138,"cityName":"Libreville","hotelId":20310202,"hotelName":"King's Choice Appart Hotel","address":"A 100 Metres Du Stade De L'Amitie-Commune Akanda,Angondje,Libreville,Gabon","phones":"","fax":"","email":"","url":"","countryIso2":"GA","countryName":"Gabon","hotelRating":"0","latitude":"0.406438","longitude":"9.42976","state_id":2727,"state_name":"Estuaire Province","country_id":79},{"active":false,"Giataid":"874745","cityId":48138,"cityName":"Libreville","hotelId":20310203,"hotelName":"Hotel Leet Dorian","address":"Rue Alsace Lorraine,Quartier Montagne Sainte,Entre La Clinique Chambrier Et Le Cin?ma Le Komo,BP 4445,Libreville,Gabon","phones":"+241725546","fax":"","email":"","url":"http://www.hotelleet-dorian.com","countryIso2":"GA","countryName":"Gabon","hotelRating":"0","latitude":"0.406438","longitude":"9.42976","state_id":2727,"state_name":"Estuaire Province","country_id":79},{"active":false,"Giataid":"856392","cityId":48138,"cityName":"Libreville","hotelId":20310204,"hotelName":"Hotel L'Adagio","address":"Quartier Saint Benoi 100,BP 2674,Libreville,Gabon","phones":"+2411763113","fax":"","email":"infoshotaladagio@gmail.com","url":"https://www.hoteladagiolibreville.com","countryIso2":"GA","countryName":"Gabon","hotelRating":"0","latitude":"0.406438","longitude":"9.42976","state_id":2727,"state_name":"Estuaire Province","country_id":79},{"active":false,"Giataid":"912451","cityId":48154,"cityName":"Port-Gentil","hotelId":20310205,"hotelName":"Le Lagon Bleu","address":"Boulevard L?on Mba Apr?s la Foire Municipale,BP 1350,Port-Gentil,Gabon","phones":"","fax":"","email":"","url":"","countryIso2":"GA","countryName":"Gabon","hotelRating":"0","latitude":"-0.719059","longitude":"8.78348","state_id":2728,"state_name":"Ogooue-Maritime Province","country_id":79},{"active":false,"Giataid":"912446","cityId":48138,"cityName":"Libreville","hotelId":20310206,"hotelName":"Residences Marco Polo","address":"Quartier Angondj?,Nzogobeyork,Libreville,Gabon","phones":"","fax":"","email":"","url":"","countryIso2":"GA","countryName":"Gabon","hotelRating":"0","latitude":"0.520891","longitude":"9.38709","state_id":2727,"state_name":"Estuaire Province","country_id":79},{"active":false,"Giataid":"939594","cityId":48138,"cityName":"Libreville","hotelId":20310207,"hotelName":"Residence Hoteliere Du Phare","address":"La Sabliere,BP 7972,Libreville,Gabon","phones":"","fax":"","email":"residenceduphare@yahoo.fr","url":"http://www.residencehoteliereduphare.com","countryIso2":"GA","countryName":"Gabon","hotelRating":"0","latitude":"0.406438","longitude":"9.42976","state_id":2727,"state_name":"Estuaire Province","country_id":79},{"active":false,"Giataid":"877675","cityId":48138,"cityName":"Libreville","hotelId":20310208,"hotelName":"Les Saveurs Du Village","address":"Montee De Louis,Libreville 00241,Estuaire,Gabon","phones":"","fax":"","email":"","url":"","countryIso2":"GA","countryName":"Gabon","hotelRating":"0","latitude":"0.406438","longitude":"9.42976","state_id":2727,"state_name":"Estuaire Province","country_id":79},{"active":false,"Giataid":"973544","cityId":48138,"cityName":"Libreville","hotelId":20399252,"hotelName":"Hotel Le Feulliage","address":"Okala Carriere,BP 16061,Libreville,Gabon","phones":"","fax":"","email":"contact@hotel-lefeuillage.com","url":"http://www.hotel-lefeuillage.com/","countryIso2":"GA","countryName":"Gabon","hotelRating":"1","latitude":"0.406438","longitude":"9.42976","state_id":2727,"state_name":"Estuaire Province","country_id":79},{"active":false,"Giataid":"999114","cityId":48138,"cityName":"Libreville","hotelId":20430161,"hotelName":"Veronique Christine","address":"Echangeur Du Lycee D'Etat Face immeuble Le Narval,Libreville,Gabon","phones":"","fax":"","email":"","url":"","countryIso2":"GA","countryName":"Gabon","hotelRating":"1","latitude":"0.406438","longitude":"9.42976","state_id":2727,"state_name":"Estuaire Province","country_id":79},{"active":false,"Giataid":"999128","cityId":48154,"cityName":"Port-Gentil","hotelId":20430162,"hotelName":"Appart Pia","address":"100 Cite Ndaot,Port-Gentil,Gabon","phones":"","fax":"","email":"","url":"","countryIso2":"GA","countryName":"Gabon","hotelRating":"1","latitude":"-0.719059","longitude":"8.78348","state_id":2728,"state_name":"Ogooue-Maritime Province","country_id":79},{"active":false,"Giataid":"999012","cityId":48138,"cityName":"Libreville","hotelId":20430163,"hotelName":"Edenia Hotel","address":"72 Rue Damas Aleka,Libreville,Gabon","phones":"","fax":"","email":"","url":"","countryIso2":"GA","countryName":"Gabon","hotelRating":"1","latitude":"0.406438","longitude":"9.42976","state_id":2727,"state_name":"Estuaire Province","country_id":79}]