[{"active":false,"Giataid":"26637","cityId":null,"cityName":"Jerudong","hotelId":26637,"hotelName":"The Empire Hotel & Country Club","address":"Jerudong BG3122,Negara Brunei Darussalam,Brunei Darussalam","phones":"+6732418888","fax":"+6732418999","email":"sales@theempirehotel.com","url":"http://www.theempirehotel.com","countryIso2":"BN","countryName":"Brunei Darussalam","hotelRating":"5","latitude":"4.9682","longitude":"114.853","state_id":null,"state_name":null,"country_id":null},{"active":false,"Giataid":"133730","cityId":9816,"cityName":"Bandar Seri Begawan","hotelId":133730,"hotelName":"Traders Inn","address":"lock D, Lot 11620, Jalan Gadong,,P.O. Box 357,Bandar Seri Begawan,BS8670 Brunei Darussalam,Brunei Darussalam","phones":"+6732442828","fax":"+6732431188","email":"traders@brunet.bn","url":"http://www.tradersinn-bn.com/","countryIso2":"BN","countryName":"Brunei Darussalam","hotelRating":"2","latitude":"4.89993","longitude":"114.902","state_id":1216,"state_name":"Brunei-Muara District","country_id":33},{"active":false,"Giataid":"140551","cityId":9816,"cityName":"Bandar Seri Begawan","hotelId":140551,"hotelName":"Pacific World","address":"Bandar Seri Begawan,Brunei Darussalam","phones":"","fax":"","email":"","url":"","countryIso2":"BN","countryName":"Brunei Darussalam","hotelRating":"5","latitude":"4.94491","longitude":"114.949","state_id":1216,"state_name":"Brunei-Muara District","country_id":33},{"active":false,"Giataid":"144181","cityId":9816,"cityName":"Bandar Seri Begawan","hotelId":144181,"hotelName":"Jubilee","address":"Jalan Kg Kianggeh,Bandar Seri Begawan BS8111,Brunei Darussalam","phones":"+6732228070","fax":"+6732228080","email":"info@jubileehotelbrunei.com","url":"http://jubileehotelbrunei.com/","countryIso2":"BN","countryName":"Brunei Darussalam","hotelRating":"2","latitude":"4.89169","longitude":"114.946","state_id":1216,"state_name":"Brunei-Muara District","country_id":33},{"active":false,"Giataid":"201721","cityId":9816,"cityName":"Bandar Seri Begawan","hotelId":201721,"hotelName":"Hotel Riverview","address":"km 1 Jalan Gadong,PO Box 1,Bandar Seri Begawan BS8670,Brunei Darussalam","phones":"+6732238238","fax":"+6732237999","email":"","url":"http://hotel.travel.ch/index_de/Asien/Brunei_Darussalam/Brunei_Hotels/Hotel_Riverview_Hotel_Bandar_Seri_Begawan","countryIso2":"BN","countryName":"Brunei Darussalam","hotelRating":"3","latitude":"4.88159","longitude":"114.89","state_id":1216,"state_name":"Brunei-Muara District","country_id":33},{"active":false,"Giataid":"232845","cityId":null,"cityName":"Jerudong","hotelId":232845,"hotelName":"Good View Jerudong","address":"Lot 13725,Block A,Brunel Darus,Jerudong,Brunei Darussalam","phones":"+6732612168","fax":"","email":"","url":"","countryIso2":"BN","countryName":"Brunei Darussalam","hotelRating":"1","latitude":"4.93649","longitude":"114.843","state_id":null,"state_name":null,"country_id":null},{"active":false,"Giataid":"372679","cityId":9816,"cityName":"Bandar Seri Begawan","hotelId":372679,"hotelName":"D'Anggerek Serviced Apartment","address":"Kampong Anggerek Desa,Mukim Berakas,Bandar Seri Begawan BB4313,Brunei Darussalam","phones":"","fax":"","email":"","url":"","countryIso2":"BN","countryName":"Brunei Darussalam","hotelRating":"2","latitude":"4.93309","longitude":"114.945","state_id":1216,"state_name":"Brunei-Muara District","country_id":33},{"active":false,"Giataid":"372680","cityId":9816,"cityName":"Bandar Seri Begawan","hotelId":372680,"hotelName":"Grand City Hotel","address":"Kampong Pengkalan Gadong,Bandar Seri Begawan BS8674,Brunei Darussalam","phones":"+6732221686","fax":"","email":"","url":"","countryIso2":"BN","countryName":"Brunei Darussalam","hotelRating":"2","latitude":"4.89028","longitude":"114.942","state_id":1216,"state_name":"Brunei-Muara District","country_id":33},{"active":false,"Giataid":"372681","cityId":9816,"cityName":"Bandar Seri Begawan","hotelId":372681,"hotelName":"Kiulap Plaza Hotel","address":"88 Simpang,Kiulap Commercial Area,Bandar Seri Begawan,Brunei Darussalam BE1518,Brunei Darussalam","phones":"+6732232251","fax":"","email":"","url":"","countryIso2":"BN","countryName":"Brunei Darussalam","hotelRating":"3","latitude":"4.93539","longitude":"114.951","state_id":1216,"state_name":"Brunei-Muara District","country_id":33},{"active":false,"Giataid":"392038","cityId":9816,"cityName":"Bandar Seri Begawan","hotelId":392038,"hotelName":"Times","address":"2nd Floor,Times Square Shopping Centre,Simpang 13-29,Jalan Berakas,Kampong Jaya Setia,Mukim Berakas 'A',Bandar Seri Begawan,Negara BS 2713,Brunei Darussalam","phones":"+6732337878","fax":"+6732337878","email":"","url":"http://www.timeshotelbrunei.com","countryIso2":"BN","countryName":"Brunei Darussalam","hotelRating":"3","latitude":"4.90789","longitude":"114.921","state_id":1216,"state_name":"Brunei-Muara District","country_id":33},{"active":false,"Giataid":"392051","cityId":null,"cityName":"Jerudong","hotelId":392051,"hotelName":"StarLodge","address":"Jalan Pulau Kubu,Negara Brunei Darussalam,Bandar Seri Begawan,Jerudong BG3122,Brunei Darussalam","phones":"+6732611618","fax":"+6732611618","email":"sales@theholidaylodge.com","url":"http://www.theholidaylodge.com","countryIso2":"BN","countryName":"Brunei Darussalam","hotelRating":"3","latitude":"4.93679","longitude":"114.844","state_id":null,"state_name":null,"country_id":null},{"active":false,"Giataid":"407764","cityId":9820,"cityName":"Kuala Belait","hotelId":407764,"hotelName":"Plaza Sutera Biru","address":"Kuala Belait,Brunei Darussalam","phones":"","fax":"","email":"info@psb.com.bn","url":"http://www.psb.com.bn","countryIso2":"BN","countryName":"Brunei Darussalam","hotelRating":"3","latitude":"4.58076","longitude":"114.192","state_id":1217,"state_name":"Belait District","country_id":33},{"active":false,"Giataid":"407765","cityId":9820,"cityName":"Kuala Belait","hotelId":407765,"hotelName":"Riviera Hotel","address":"Lot 106 Jalan Sungai,Kuala Belait 2331,Brunei Darussalam","phones":"+6733335252","fax":"+6733331052","email":"rivierahtl@brunet.bn","url":"http://rivierahotelkb.webs.com","countryIso2":"BN","countryName":"Brunei Darussalam","hotelRating":"2","latitude":"4.58026","longitude":"114.194","state_id":1217,"state_name":"Belait District","country_id":33},{"active":false,"Giataid":"407766","cityId":9820,"cityName":"Kuala Belait","hotelId":407766,"hotelName":"Sentosa Hotel","address":"92-93 Jalan McKerron,P.O. Box 252,Kuala Belait KA1131,Brunei Darussalam","phones":"+6733334341","fax":"","email":"enquiry@bruneisentosahotel.com","url":"http://www.bruneisentosahotel.com","countryIso2":"BN","countryName":"Brunei Darussalam","hotelRating":"3","latitude":"4.5858","longitude":"114.192","state_id":1217,"state_name":"Belait District","country_id":33},{"active":false,"Giataid":"407767","cityId":9820,"cityName":"Kuala Belait","hotelId":407767,"hotelName":"The Swiss Hotel Apartment","address":"59-60 Jalan Pretty,Kuala Belait KA1131,Brunei Darussalam","phones":"+6733331668","fax":"+6733332839","email":"reservations@swisshotelkb.com","url":"http://swisshotelkb.com","countryIso2":"BN","countryName":"Brunei Darussalam","hotelRating":"3","latitude":"4.5835","longitude":"114.192","state_id":1217,"state_name":"Belait District","country_id":33},{"active":false,"Giataid":"407768","cityId":9820,"cityName":"Kuala Belait","hotelId":407768,"hotelName":"Tatplace Hotel","address":"Lot 22,Shop 51,Jalan Pretty,KA1131 Kuala Belait,Brunei Darussalam","phones":"+6733347277","fax":"+6733347288","email":"tatplacekb@gmail.com","url":"http://tatplacekb.com","countryIso2":"BN","countryName":"Brunei Darussalam","hotelRating":"2","latitude":"4.58358","longitude":"114.192","state_id":1217,"state_name":"Belait District","country_id":33},{"active":false,"Giataid":"407770","cityId":9816,"cityName":"Bandar Seri Begawan","hotelId":407770,"hotelName":"Ulu Ulu National Park Resort","address":"2 Simpang,146 Jalan Kiarong,Bandar Seri Begawan BE1518,Brunei Darussalam","phones":"+6732441791","fax":"+6732441790","email":"sales@uluuluresort.com","url":"https://www.uluuluresort.com","countryIso2":"BN","countryName":"Brunei Darussalam","hotelRating":"3","latitude":"4.89213","longitude":"114.926","state_id":1216,"state_name":"Brunei-Muara District","country_id":33},{"active":false,"Giataid":"482960","cityId":9820,"cityName":"Kuala Belait","hotelId":482960,"hotelName":"Roomz Hotel","address":"Lot 1 Jalan Sultan Omar Ali,KB2733 Kuala Belait,Brunei Darussalam","phones":"+6733223223","fax":"+6733223225","email":"reservations@roomz.com.bn","url":"http://roomz.com.bn/","countryIso2":"BN","countryName":"Brunei Darussalam","hotelRating":"1","latitude":"4.61465","longitude":"114.329","state_id":1217,"state_name":"Belait District","country_id":33},{"active":false,"Giataid":"486204","cityId":9820,"cityName":"Kuala Belait","hotelId":486204,"hotelName":"Garden Sentral Hotel","address":"Jalan Seri Maharaja 3rd Floor,Sentral Shopping Centre,Kg. Mumong `A`,Kuala Belait KA1531,Brunei Darussalam","phones":"+6733338333","fax":"+6733338998","email":"reservations@gardensentralhotel.com","url":"http://gardensentralhotel.com","countryIso2":"BN","countryName":"Brunei Darussalam","hotelRating":"3","latitude":"4.5722","longitude":"114.222","state_id":1217,"state_name":"Belait District","country_id":33},{"active":false,"Giataid":"534366","cityId":9820,"cityName":"Kuala Belait","hotelId":534366,"hotelName":"Keoja Hotel","address":"Lot 90, 115 & 116,Jalan McKerron,Kuala Belait KA 1131,Brunei Darussalam","phones":"+6733347733","fax":"+6733347668","email":"reservations@keojahotel.com","url":"http://keojahotel.com/","countryIso2":"BN","countryName":"Brunei Darussalam","hotelRating":"3","latitude":"4.58367","longitude":"114.191","state_id":1217,"state_name":"Belait District","country_id":33},{"active":false,"Giataid":"561449","cityId":9816,"cityName":"Bandar Seri Begawan","hotelId":561449,"hotelName":"LeGallery Suites Hotel - NSA 151","address":"Km 2.5 Jalan Tutong,Seri Complex, The Crown Princess Complex,Bandar Seri Begawan BA1712,Brunei Darussalam","phones":"","fax":"","email":"","url":"","countryIso2":"BN","countryName":"Brunei Darussalam","hotelRating":"3","latitude":"4.8865","longitude":"114.932","state_id":1216,"state_name":"Brunei-Muara District","country_id":33},{"active":false,"Giataid":"599936","cityId":9816,"cityName":"Bandar Seri Begawan","hotelId":599936,"hotelName":"Riverside Residence by Gina Suite","address":"Simpang 5,Jalan Gadong, Lot No: 13318,Kg Pengkalan Gadong,BE3719 Bandar Seri Begawan,Darussalam,Brunei Darussalam","phones":"","fax":"","email":"","url":"","countryIso2":"BN","countryName":"Brunei Darussalam","hotelRating":"2","latitude":"4.90727","longitude":"114.925","state_id":1216,"state_name":"Brunei-Muara District","country_id":33},{"active":false,"Giataid":"626650","cityId":9816,"cityName":"Bandar Seri Begawan","hotelId":626650,"hotelName":"Venice Lodge Hotel","address":"Jalan Dato Ratna,Kg Kiaraong,Bandar Seri Begawan BE1318,Brunei Darussalam","phones":"+6732455233","fax":"+6732457995","email":"reservation@venicelodgebrunei.com","url":"http://venicelodgebrunei.com/","countryIso2":"BN","countryName":"Brunei Darussalam","hotelRating":"3","latitude":"4.89488","longitude":"114.915","state_id":1216,"state_name":"Brunei-Muara District","country_id":33},{"active":false,"Giataid":"659559","cityId":9820,"cityName":"Kuala Belait","hotelId":659559,"hotelName":"Sea View Resort Hotel & Apartment","address":"Lot 3678 Jalan Maulana 2.6 km,Kuala Belait KA1131,Brunei Darussalam","phones":"","fax":"","email":"","url":"","countryIso2":"BN","countryName":"Brunei Darussalam","hotelRating":"2","latitude":"4.89028","longitude":"114.942","state_id":1217,"state_name":"Belait District","country_id":33},{"active":false,"Giataid":"682090","cityId":9816,"cityName":"Bandar Seri Begawan","hotelId":682090,"hotelName":"Villa Dadap","address":"6 Simpang 47 Jalan Dadap,Kilanas,Bandar Seri Begawan BF2520,Brunei Darussalam","phones":"","fax":"","email":"","url":"http://www.villadadap.com","countryIso2":"BN","countryName":"Brunei Darussalam","hotelRating":"2","latitude":"4.86253","longitude":"114.869","state_id":1216,"state_name":"Brunei-Muara District","country_id":33},{"active":false,"Giataid":"684405","cityId":9816,"cityName":"Bandar Seri Begawan","hotelId":684405,"hotelName":"Nazira Guest House","address":"22746 Block B Jalan Jerudong,Simpang 730-34,Bandar Seri Begawan BG3122,Brunei Darussalam","phones":"","fax":"","email":"","url":"","countryIso2":"BN","countryName":"Brunei Darussalam","hotelRating":"1","latitude":"4.90159","longitude":"114.932","state_id":1216,"state_name":"Brunei-Muara District","country_id":33},{"active":false,"Giataid":"737978","cityId":9816,"cityName":"Bandar Seri Begawan","hotelId":737978,"hotelName":"Wafa Hotel And Apartment","address":"Annajat Complex Lot 71077,Kampong Mata Mata,Mukim Gadong,Bandar Seri Begawan BE1718,Brunei Darussalam","phones":"+6732426889","fax":"","email":"reservations@wafahotel.com","url":"http://www.wafahotel.com","countryIso2":"BN","countryName":"Brunei Darussalam","hotelRating":"1","latitude":"4.90159","longitude":"114.932","state_id":1216,"state_name":"Brunei-Muara District","country_id":33},{"active":false,"Giataid":"744455","cityId":9816,"cityName":"Bandar Seri Begawan","hotelId":744455,"hotelName":"Al-Afiah Hotel","address":"88 Simpang,Unit 4, Ground Floor, Block A,Bangunan Begawan Pehin Dato Haji Mohd Yusof,Kampung Kiulap,Bandar Seri Begawan BE1518,Brunei Darussalam","phones":"+6732231459","fax":"","email":"info@alafiahhotel.com","url":"https://www.alafiahhotel.com/","countryIso2":"BN","countryName":"Brunei Darussalam","hotelRating":"1","latitude":"4.90053","longitude":"114.929","state_id":1216,"state_name":"Brunei-Muara District","country_id":33},{"active":false,"Giataid":"766234","cityId":9816,"cityName":"Bandar Seri Begawan","hotelId":766234,"hotelName":"Apek Utama Hotel","address":"229 Simpang,Kampung Pintu Malim,Jalan Kota Batu,Bandar Seri Begawan BA2711,Brunei Darussalam","phones":"","fax":"","email":"","url":"http://apekutamahotel.com","countryIso2":"BN","countryName":"Brunei Darussalam","hotelRating":"1","latitude":"4.8746","longitude":"114.954","state_id":1216,"state_name":"Brunei-Muara District","country_id":33},{"active":false,"Giataid":"772402","cityId":9816,"cityName":"Bandar Seri Begawan","hotelId":772402,"hotelName":"Telanai Backpackers","address":"Unit 2-4,1st Floor,Bangunan Salmah,Kampong Telanai,Bandar Seri Begawan BE3119,Brunei Darussalam","phones":"","fax":"","email":"","url":"","countryIso2":"BN","countryName":"Brunei Darussalam","hotelRating":"1","latitude":"4.90159","longitude":"114.932","state_id":1216,"state_name":"Brunei-Muara District","country_id":33},{"active":false,"Giataid":"839765","cityId":9816,"cityName":"Bandar Seri Begawan","hotelId":839765,"hotelName":"Kunyit 7 Lodge","address":"129b -1 Jetty 2 Kampong Bakut Berumput Mukim Peramu,Bandar Seri Begawan,Darussalam,Brunei Darussalam","phones":"","fax":"","email":"","url":"","countryIso2":"BN","countryName":"Brunei Darussalam","hotelRating":"1","latitude":"4.90159","longitude":"114.932","state_id":1216,"state_name":"Brunei-Muara District","country_id":33},{"active":false,"Giataid":"840944","cityId":9816,"cityName":"Bandar Seri Begawan","hotelId":840944,"hotelName":"MY home","address":"2B Jalan Padang,Wisma Temanggong,Bandar Seri Begawan BS8411,Brunei Darussalam","phones":"","fax":"","email":"","url":"","countryIso2":"BN","countryName":"Brunei Darussalam","hotelRating":"1","latitude":"4.90159","longitude":"114.932","state_id":1216,"state_name":"Brunei-Muara District","country_id":33},{"active":false,"Giataid":"431181","cityId":9816,"cityName":"Bandar Seri Begawan","hotelId":10060417,"hotelName":"Badi'ah Hotel","address":"Mile 1 Jalan Tutong,Badi'ah Complex,Bandar Seri Begawan BA1712,Brunei-Muara,Brunei Darussalam","phones":"+6732222888","fax":"","email":"","url":"","countryIso2":"BN","countryName":"Brunei Darussalam","hotelRating":"3","latitude":"4.88893","longitude":"114.932","state_id":1216,"state_name":"Brunei-Muara District","country_id":33},{"active":false,"Giataid":"482287","cityId":9816,"cityName":"Bandar Seri Begawan","hotelId":10060887,"hotelName":"The Capital Residence Suites","address":"Lot 21027 Simpang 2,Kampong Berangan,Bandar Seri Begawan BS8211,Brunei Darussalam","phones":"+6732220067","fax":"","email":"","url":"","countryIso2":"BN","countryName":"Brunei Darussalam","hotelRating":"3","latitude":"4.89302","longitude":"114.944","state_id":1216,"state_name":"Brunei-Muara District","country_id":33},{"active":false,"Giataid":"470088","cityId":9816,"cityName":"Bandar Seri Begawan","hotelId":10061088,"hotelName":"Ginasuite Kompleks27 Hotel","address":"Jalan Gadong Bandar Seri Begawan,Simpang 27,Unit3,Kompleks 27,BE2719  Bandar Seri Begawan,Brunei Darussalam","phones":"","fax":"","email":"","url":"","countryIso2":"BN","countryName":"Brunei Darussalam","hotelRating":"2","latitude":"4.90721","longitude":"114.924","state_id":1216,"state_name":"Brunei-Muara District","country_id":33},{"active":false,"Giataid":"482288","cityId":null,"cityName":"Jerudong","hotelId":10062021,"hotelName":"Parkview Hotel","address":"Lot 36204 Jalan Pertanian Luahan,Jerudong BG3122,Brunei Darussalam","phones":"+6732611998","fax":"","email":"","url":"","countryIso2":"BN","countryName":"Brunei Darussalam","hotelRating":"3","latitude":"4.94357","longitude":"114.842","state_id":null,"state_name":null,"country_id":null},{"active":false,"Giataid":"446473","cityId":9816,"cityName":"Bandar Seri Begawan","hotelId":10142732,"hotelName":"Jeruton Hotel ","address":"Unit 1-12, Block C, Lot 6905, Simpang 396, Sengkurong B, Brunei","phones":"+673 261 2213","fax":"","email":"","url":"http://www.jerutonhotel.com","countryIso2":"BN","countryName":"Brunei Darussalam","hotelRating":"3","latitude":"4.92074","longitude":"114.838","state_id":1216,"state_name":"Brunei-Muara District","country_id":33},{"active":false,"Giataid":"897633","cityId":9816,"cityName":"Bandar Seri Begawan","hotelId":20278261,"hotelName":"Qing Yun Resthouse Gadong Branch","address":"Unit 12 Jalan Gadong BSB,1st Floor Bangunan Hasbullah 1,Bandar Seri Begawan BE3519,Brunei Darussalam","phones":"","fax":"","email":"","url":"","countryIso2":"BN","countryName":"Brunei Darussalam","hotelRating":"0","latitude":"4.90159","longitude":"114.932","state_id":1216,"state_name":"Brunei-Muara District","country_id":33},{"active":false,"Giataid":"936717","cityId":9820,"cityName":"Kuala Belait","hotelId":20278262,"hotelName":"NSEY Hotel & Apartments","address":"Lot 75 Jalan Bunga Raya,Wisma Hainan,Kuala Belait KA1131,Brunei Darussalam","phones":"","fax":"","email":"","url":"","countryIso2":"BN","countryName":"Brunei Darussalam","hotelRating":"0","latitude":"4.58363","longitude":"114.193","state_id":1217,"state_name":"Belait District","country_id":33},{"active":false,"Giataid":"897852","cityId":9816,"cityName":"Bandar Seri Begawan","hotelId":20278263,"hotelName":"Hombre Estates Suite & Studio","address":"Bandar Seri Begawan BE1318,Brunei Darussalam,Brunei Darussalam","phones":"","fax":"","email":"","url":"","countryIso2":"BN","countryName":"Brunei Darussalam","hotelRating":"0","latitude":"4.90159","longitude":"114.932","state_id":1216,"state_name":"Brunei-Muara District","country_id":33},{"active":false,"Giataid":"937247","cityId":9816,"cityName":"Bandar Seri Begawan","hotelId":20278264,"hotelName":"Easybox Homestay","address":"4 & 5 First Floor,Block E,Abdul Razak Complex,Gadong,Bandar Seri Begawan,Brunei Darussalam","phones":"+6732420020","fax":"","email":"","url":"http://easyboxhomestay.weebly.com/","countryIso2":"BN","countryName":"Brunei Darussalam","hotelRating":"0","latitude":"4.90821","longitude":"114.916","state_id":1216,"state_name":"Brunei-Muara District","country_id":33},{"active":false,"Giataid":"937074","cityId":9816,"cityName":"Bandar Seri Begawan","hotelId":20278265,"hotelName":"240 Residence Kota Batu","address":"Simpang 240 Jalan Kota Batu,Pintu Malim,Brunei-Muara,Bandar Seri Begawan BA2711,Brunei Darussalam","phones":"","fax":"","email":"","url":"","countryIso2":"BN","countryName":"Brunei Darussalam","hotelRating":"0","latitude":"4.90159","longitude":"114.932","state_id":1216,"state_name":"Brunei-Muara District","country_id":33},{"active":false,"Giataid":"937229","cityId":9816,"cityName":"Bandar Seri Begawan","hotelId":20278266,"hotelName":"Joy Rest House","address":"9 1st Floor,McArthr Building,Jalan McArthur,Bandar Seri Begawan,Brunei Darussalam","phones":"","fax":"","email":"joyreststation@gmail.com","url":"http://joydowntownreststation.weebly.com","countryIso2":"BN","countryName":"Brunei Darussalam","hotelRating":"0","latitude":"4.90159","longitude":"114.932","state_id":1216,"state_name":"Brunei-Muara District","country_id":33},{"active":false,"Giataid":"856220","cityId":9816,"cityName":"Bandar Seri Begawan","hotelId":20278267,"hotelName":"Aman Hills Hotel","address":"Jalan Aman TH1-3,Aman Hills Shopping Centre,Spg 30,Kampung Manggis Mukim Berakas B,Bandar Seri Begawan BC3615,Brunei Darussalam","phones":"","fax":"","email":"","url":"","countryIso2":"BN","countryName":"Brunei Darussalam","hotelRating":"0","latitude":"4.90159","longitude":"114.932","state_id":1216,"state_name":"Brunei-Muara District","country_id":33},{"active":false,"Giataid":"871655","cityId":9816,"cityName":"Bandar Seri Begawan","hotelId":20278269,"hotelName":"Telanai16 Lodge","address":"16-15 Jalan Telanai,Simpang,Kampong Beribi BE1118,Bandar Seri Begawan,Negara Brunei Darussalam,Brunei Darussalam","phones":"+6732654738","fax":"","email":"reservations@telanai16lodge.com","url":"http://www.telanai16lodge.com","countryIso2":"BN","countryName":"Brunei Darussalam","hotelRating":"0","latitude":"4.87977","longitude":"114.892","state_id":1216,"state_name":"Brunei-Muara District","country_id":33},{"active":false,"Giataid":"879130","cityId":9820,"cityName":"Kuala Belait","hotelId":20278270,"hotelName":"V Plaza Hotel","address":"Lot 1300 Jalan Sungai,Kuala Belait KA2331,Brunei Darussalam","phones":"+6733347868","fax":"+6733347866","email":"info@vplazabn.com","url":"http://www.v-plaza.com.bn","countryIso2":"BN","countryName":"Brunei Darussalam","hotelRating":"0","latitude":"4.59474","longitude":"114.248","state_id":1217,"state_name":"Belait District","country_id":33},{"active":false,"Giataid":"936720","cityId":9816,"cityName":"Bandar Seri Begawan","hotelId":20278271,"hotelName":"Tiara Hill Residence","address":"597 Jalan Tutong,Bandar Seri Begawan BF1120,Brunei Darussalam","phones":"","fax":"","email":"","url":"","countryIso2":"BN","countryName":"Brunei Darussalam","hotelRating":"0","latitude":"4.90159","longitude":"114.932","state_id":1216,"state_name":"Brunei-Muara District","country_id":33},{"active":false,"Giataid":"944922","cityId":9816,"cityName":"Bandar Seri Begawan","hotelId":20390218,"hotelName":"Kompleks Mohammad Yussof Hotel Apartments","address":"Jalan Tutong km 2,4th Floor,Seri Complex,Bandar Seri Begawan,Brunei Darussalam,Brunei Darussalam","phones":"","fax":"","email":"","url":"","countryIso2":"BN","countryName":"Brunei Darussalam","hotelRating":"1","latitude":"4.90159","longitude":"114.932","state_id":1216,"state_name":"Brunei-Muara District","country_id":33},{"active":false,"Giataid":"982514","cityId":9816,"cityName":"Bandar Seri Begawan","hotelId":20425729,"hotelName":"Higher Hotel","address":"SPG 88-4 Jalan James'Asr,Kampong Kiulap Gadong B,Bandar Seri Begawan BE1518,Brunei Darussalam","phones":"","fax":"","email":"","url":"","countryIso2":"BN","countryName":"Brunei Darussalam","hotelRating":"3","latitude":"4.90008","longitude":"114.929","state_id":1216,"state_name":"Brunei-Muara District","country_id":33},{"active":false,"Giataid":"979471","cityId":9816,"cityName":"Bandar Seri Begawan","hotelId":20425730,"hotelName":"Nest Dayrooms","address":"Brunei International Airport,Bandar Seri Begawan BB2513,Brunei Darussalam","phones":"","fax":"","email":"","url":"","countryIso2":"BN","countryName":"Brunei Darussalam","hotelRating":"3","latitude":"4.90159","longitude":"114.932","state_id":1216,"state_name":"Brunei-Muara District","country_id":33},{"active":false,"Giataid":"979487","cityId":9816,"cityName":"Bandar Seri Begawan","hotelId":20425731,"hotelName":"Co Living Hostel","address":"2 Second Floor Muhibbah Complex 1,Bandar Seri Begawan BE3119,Brunei Darussalam","phones":"","fax":"","email":"","url":"","countryIso2":"BN","countryName":"Brunei Darussalam","hotelRating":"2","latitude":"4.90972","longitude":"114.924","state_id":1216,"state_name":"Brunei-Muara District","country_id":33},{"active":false,"Giataid":"1003091","cityId":9816,"cityName":"Bandar Seri Begawan","hotelId":20431060,"hotelName":"Millennium Budget Hostel","address":"Lot 47323 2nd Floor Unit 11 Simpang 41-1-8,Bangunan Arafah,Bandar Seri Begawan BE1318,Brunei Darussalam","phones":"+6738605118","fax":"","email":"","url":"http://millennium-budget-hostel.business.site/","countryIso2":"BN","countryName":"Brunei Darussalam","hotelRating":"1","latitude":"4.90159","longitude":"114.932","state_id":1216,"state_name":"Brunei-Muara District","country_id":33},{"active":false,"Giataid":"1001222","cityId":9816,"cityName":"Bandar Seri Begawan","hotelId":20431062,"hotelName":"Hostelite Brunei","address":"Unit 101 1st Floor Sumbiling Lama Flat,Jalan Istana Darussalam,Bandar Seri Begawan,Brunei Darussalam,Brunei Darussalam","phones":"","fax":"","email":"","url":"","countryIso2":"BN","countryName":"Brunei Darussalam","hotelRating":"1","latitude":"4.90159","longitude":"114.932","state_id":1216,"state_name":"Brunei-Muara District","country_id":33}]