[{"active":false,"Giataid":"8592","cityId":86763,"cityName":"Krakow","hotelId":8592,"hotelName":"Hotel Batory","address":"Ulica Soltyka 19,31-529 Krak?w,Poland","phones":"+48122943030","fax":"+48122943033","email":"batory@hotelbatory.pl","url":"http://www.hotelbatory.pl","countryIso2":"PL","countryName":"Poland","hotelRating":"3","latitude":"50.0603","longitude":"19.9506","state_id":1635,"state_name":"Lesser Poland Voivodeship","country_id":176},{"active":false,"Giataid":"8996","cityId":null,"cityName":"Wroclaw","hotelId":8996,"hotelName":"Best Western Prima Wroclaw","address":"Ulica Kielbasnicza 16-19,50-110 Wroclaw,Poland","phones":"+48717825555","fax":"+48713426732","email":"prima@bestwestern-prima.pl","url":"http://www.bestwestern-prima.pl","countryIso2":"PL","countryName":"Poland","hotelRating":"4","latitude":"51.1124","longitude":"17.03","state_id":null,"state_name":null,"country_id":null},{"active":false,"Giataid":"10754","cityId":86763,"cityName":"Krakow","hotelId":10754,"hotelName":"Copernicus","address":"ulica Kanonicza 16,31-002 Krak?w,Poland","phones":"+48124243400","fax":"+48124243405","email":"copernicus@hotel.com.pl","url":"http://www.copernicus.hotel.com.pl/coper_pl/Home","countryIso2":"PL","countryName":"Poland","hotelRating":"5","latitude":"50.0562","longitude":"19.9375","state_id":1635,"state_name":"Lesser Poland Voivodeship","country_id":176},{"active":false,"Giataid":"12328","cityId":88480,"cityName":"Warsaw","hotelId":12328,"hotelName":"Raffles Europejski Warschau","address":"Krakowskie Przedmiescie 13,00-071 Warszawa,Poland","phones":"+48228263240","fax":"","email":"sekretariat@hotel-europejski.com.pl","url":"http://www.hotel-europejski.com.pl/","countryIso2":"PL","countryName":"Poland","hotelRating":"3","latitude":"52.2417","longitude":"21.0152","state_id":1637,"state_name":"Masovian Voivodeship","country_id":176},{"active":false,"Giataid":"13416","cityId":88480,"cityName":"Warsaw","hotelId":13416,"hotelName":"Mercure Warszawa Grand","address":"Ulica Krucza 28,00-522 Warszawa,Poland","phones":"+48225832100","fax":"+48225832121","email":"h3384@accor.com","url":"http://www.mercure.com/pl/hotel-3384-mercure-warszawa-grand/index.shtml","countryIso2":"PL","countryName":"Poland","hotelRating":"4","latitude":"52.2276","longitude":"21.0184","state_id":1637,"state_name":"Masovian Voivodeship","country_id":176},{"active":false,"Giataid":"13784","cityId":null,"cityName":"Gdansk","hotelId":13784,"hotelName":"Hanza","address":"ul. Tokarska 6,80-888 Gdansk,Poland","phones":"+48583053427","fax":"+48583053386","email":"hotel@hotelhanza.pl","url":"http://www.hotelhanza.pl/","countryIso2":"PL","countryName":"Poland","hotelRating":"4","latitude":"54.3512","longitude":"18.6576","state_id":null,"state_name":null,"country_id":null},{"active":false,"Giataid":"13951","cityId":null,"cityName":"Gdansk","hotelId":13951,"hotelName":"Mercure Gdansk Stare Miasto","address":"ul. Jana Heweliusza 22,80-890 Gdansk,Poland","phones":"+48583210000","fax":"+48583210011","email":"H3390@accor.com","url":"http://www.mercure.com/pl/hotel-3390-mercure-gdansk-hevelius/index.shtml","countryIso2":"PL","countryName":"Poland","hotelRating":"3","latitude":"54.3561","longitude":"18.6512","state_id":null,"state_name":null,"country_id":null},{"active":false,"Giataid":"14108","cityId":null,"cityName":"Wroclaw","hotelId":14108,"hotelName":"Scandic Wroclaw","address":"Pilsudskiego Street 49/57,50-032 Wroclaw,Poland","phones":"+48717870000","fax":"+48717870001","email":"wroclaw@scandichotels.com","url":"http://www.scandichotels.de/de/Hotelsuche/Lander/Polen/Breslau/Hotels/Breslau/","countryIso2":"PL","countryName":"Poland","hotelRating":"4","latitude":"51.1014","longitude":"17.0281","state_id":null,"state_name":null,"country_id":null},{"active":false,"Giataid":"14109","cityId":null,"cityName":"Gdansk","hotelId":14109,"hotelName":"Scandic Gdansk","address":"Podwale Grodzkie 9,80-895 Gdansk,Poland","phones":"+48583006000","fax":"+48583006003","email":"gdansk@scandichotels.com","url":"http://www.scandichotels.de/de/Hotelsuche/Lander/Polen/Danzig/Hotels/Danzig/","countryIso2":"PL","countryName":"Poland","hotelRating":"4","latitude":"54.3563","longitude":"18.6466","state_id":null,"state_name":null,"country_id":null},{"active":false,"Giataid":"15010","cityId":88480,"cityName":"Warsaw","hotelId":15010,"hotelName":"Radisson Blu Sobieski Hotel","address":"Plac Artura Zawiszy 1,02-025 Warszawa,Poland","phones":"+48225791000","fax":"+48226598828","email":"reservation.sobieski.warsaw@radissonblu.com","url":"http://www.radissonblu.com/sobieski-warsaw","countryIso2":"PL","countryName":"Poland","hotelRating":"4","latitude":"52.224","longitude":"20.9889","state_id":1637,"state_name":"Masovian Voivodeship","country_id":176},{"active":false,"Giataid":"16156","cityId":88480,"cityName":"Warsaw","hotelId":16156,"hotelName":"Le Meridien Bristol","address":"Krakowskie Przedmiescie 42/44,00-325 Warszawa,Poland","phones":"+48225511000","fax":"+48228231407","email":"bristol@lemeridien.com","url":"http://www.lemeridien-bristol.com","countryIso2":"PL","countryName":"Poland","hotelRating":"5","latitude":"52.2421","longitude":"21.0158","state_id":1637,"state_name":"Masovian Voivodeship","country_id":176},{"active":false,"Giataid":"16921","cityId":null,"cityName":"Gdansk","hotelId":16921,"hotelName":"Novotel Gdansk Marina","address":"Ulica Jelitkowska 20,80-342 Gdansk,Poland","phones":"+48585589100","fax":"+48585530460","email":"h3375-am@accor.com","url":"http://www.accorhotels.com/de/hotel-3375-novotel-gdansk-marina/index.shtml","countryIso2":"PL","countryName":"Poland","hotelRating":"3","latitude":"54.4288","longitude":"18.5904","state_id":null,"state_name":null,"country_id":null},{"active":false,"Giataid":"17306","cityId":88480,"cityName":"Warsaw","hotelId":17306,"hotelName":"Mercure Fryderyk Chopin","address":"Aleja Jana Pawla II 22,Sr?dmiescie,Warsaw,Poland","phones":"","fax":"","email":"","url":"","countryIso2":"PL","countryName":"Poland","hotelRating":"3","latitude":"52.2357","longitude":"20.9978","state_id":1637,"state_name":"Masovian Voivodeship","country_id":176},{"active":false,"Giataid":"19221","cityId":86763,"cityName":"Krakow","hotelId":19221,"hotelName":"Pod Roza","address":"ul. Florianska,Krakow,Poland","phones":"+48124243300","fax":"+48124243351","email":"pod-roza@hotel.com.pl","url":"http://www.podroza.hotel.com.pl/rose_en/Home","countryIso2":"PL","countryName":"Poland","hotelRating":"4","latitude":"50.063","longitude":"19.9398","state_id":1635,"state_name":"Lesser Poland Voivodeship","country_id":176},{"active":false,"Giataid":"21497","cityId":88480,"cityName":"Warsaw","hotelId":21497,"hotelName":"Sheraton Warsaw","address":"ul. Boleslawa Prusa 2,00-493 Warszawa,Poland","phones":"+48224506100","fax":"+48224506200","email":"warsaw@sheraton.com","url":"http://www.sheraton.pl/","countryIso2":"PL","countryName":"Poland","hotelRating":"5","latitude":"52.2278","longitude":"21.0248","state_id":1637,"state_name":"Masovian Voivodeship","country_id":176},{"active":false,"Giataid":"23683","cityId":88480,"cityName":"Warsaw","hotelId":23683,"hotelName":"Sofitel Warsaw Victoria","address":"Krolewska 11,00-065 Warszawa,Poland","phones":"+48226578011","fax":"+48226578057","email":"H3378@sofitel.com","url":"http://www.sofitel.com/de/hotel-3378-sofitel-warsaw-victoria/index.shtml","countryIso2":"PL","countryName":"Poland","hotelRating":"5","latitude":"52.2399","longitude":"21.0133","state_id":1637,"state_name":"Masovian Voivodeship","country_id":176},{"active":false,"Giataid":"26622","cityId":86615,"cityName":"Karpacz","hotelId":26622,"hotelName":"Mercure Karpacz Resort","address":"ul. Obronc?w Pokoju 5,58-540 Karpacz,Poland","phones":"+48757527000","fax":"+48757618721","email":"H3429-RE@accor.com","url":"http://www.accorhotels.com/pl/hotel-3429-mercure-karpacz-skalny/index.shtml","countryIso2":"PL","countryName":"Poland","hotelRating":"3","latitude":"50.7724","longitude":"15.7638","state_id":1629,"state_name":"Lower Silesian Voivodeship","country_id":176},{"active":false,"Giataid":"26624","cityId":null,"cityName":"Jelenia G?ra","hotelId":26624,"hotelName":"Mercure Jelenia Gora","address":"ulica Sudecka 63,58-500 Jelenia G?ra,Poland","phones":"+48757549148","fax":"+48757526266","email":"mer.jgora@orbis.pl","url":"http://www.mercure.com/de/hotel-3408-mercure-jelenia-gora/index.shtml","countryIso2":"PL","countryName":"Poland","hotelRating":"3","latitude":"50.8945","longitude":"15.7469","state_id":null,"state_name":null,"country_id":null},{"active":false,"Giataid":"27865","cityId":87391,"cityName":"Pilzno","hotelId":27865,"hotelName":"Viktoria","address":"NULL","phones":"","fax":"","email":"","url":"","countryIso2":"PL","countryName":"Poland","hotelRating":"3","latitude":"49.9927","longitude":"21.2539","state_id":1626,"state_name":"Podkarpackie Voivodeship","country_id":176},{"active":false,"Giataid":"27999","cityId":null,"cityName":"Mikolajki","hotelId":27999,"hotelName":"Golebiewski","address":"Ul. Mragowska 34,11730 Mikolajki,Poland","phones":"+48874290700","fax":"+48874290744","email":"rez.mik@golebiewski.pl","url":"http://www.golebiewski.pl/mikolajki","countryIso2":"PL","countryName":"Poland","hotelRating":"4","latitude":"53.8047","longitude":"21.5576","state_id":null,"state_name":null,"country_id":null},{"active":false,"Giataid":"28002","cityId":127399,"cityName":"Talty","hotelId":28002,"hotelName":"Pensjonat Talty","address":"Talty 19,11-730 Mikolajki,Warminsko-Mazurskie,Poland","phones":"+48874216398","fax":"","email":"kontakt@pensjonat-talty.pl","url":"http://pensjonat-talty.pl","countryIso2":"PL","countryName":"Poland","hotelRating":"3","latitude":"53.8406","longitude":"21.5641","state_id":1407,"state_name":"Texas","country_id":233},{"active":false,"Giataid":"28004","cityId":null,"cityName":"Mragowo","hotelId":28004,"hotelName":"Mercure Mragowo Resort & Spa","address":"ul. Gizycka 6,11-700 Mragowo,Poland","phones":"+48897433100","fax":"+48897433120","email":"h3424@accor.com","url":"http://www.mrongovia.hotel.pl","countryIso2":"PL","countryName":"Poland","hotelRating":"4","latitude":"53.8744","longitude":"21.3214","state_id":null,"state_name":null,"country_id":null},{"active":false,"Giataid":"28005","cityId":null,"cityName":"Gdansk","hotelId":28005,"hotelName":"Mercure Gdansk Posejdon","address":"ul. Kapliczna 30,80-341 Gdansk,Poland","phones":"+48585113000","fax":"+48585113200","email":"H3391@accor.com","url":"http://www.accorhotels.com/pl/hotel-3391-hotel-orbis-posejdon/index.shtml","countryIso2":"PL","countryName":"Poland","hotelRating":"3","latitude":"54.4227","longitude":"18.5974","state_id":null,"state_name":null,"country_id":null},{"active":false,"Giataid":"28006","cityId":null,"cityName":"Stare Jablonki","hotelId":28006,"hotelName":"Hotel Andres","address":"Ulitca Spacerowa 2,14-133 Stare Jablonki,Poland","phones":"+48896427000","fax":"+48896427013","email":"anders@hotelanders.pl","url":"http://www.hotelanders.pl","countryIso2":"PL","countryName":"Poland","hotelRating":"4","latitude":"53.6882","longitude":"20.0988","state_id":null,"state_name":null,"country_id":null},{"active":false,"Giataid":"28007","cityId":88148,"cityName":"Sopot","hotelId":28007,"hotelName":"Sofitel Grand Sopot","address":"Ulica Powstanc?w Warszawy 12/14,Pomorskie,81-718 Sopot,Poland","phones":"+48585206000","fax":"+48585206099","email":"H3419-RE@sofitel.com","url":"http://www.sofitel.com/gb/hotel-3419-sofitel-grand-sopot/index.shtml","countryIso2":"PL","countryName":"Poland","hotelRating":"5","latitude":"54.4474","longitude":"18.5683","state_id":1624,"state_name":"Pomeranian Voivodeship","country_id":176},{"active":false,"Giataid":"28010","cityId":null,"cityName":"Jastrzebia Gora","hotelId":28010,"hotelName":"Astor","address":"ul. Rozewska 38,84-104 Jastrzebia G?ra,Poland","phones":"+48587715555","fax":"+48587715175","email":"astor@astorhotel.pl","url":"http://www.astorhotel.pl/","countryIso2":"PL","countryName":"Poland","hotelRating":"3","latitude":"54.8325","longitude":"18.3177","state_id":null,"state_name":null,"country_id":null},{"active":false,"Giataid":"28015","cityId":null,"cityName":"Miedzyzdroje","hotelId":28015,"hotelName":"Vienna House Amber Baltic Miedzyzdroje ","address":"Promenada Gwiazd 1,72-500 Miedzyzdroje,Poland","phones":"+48913228500","fax":"+48913281022","email":"info@hotel-amber-baltic.pl","url":"http://www.hotel-amber-baltic.pl/de/lage/","countryIso2":"PL","countryName":"Poland","hotelRating":"4","latitude":"53.9333","longitude":"14.4511","state_id":null,"state_name":null,"country_id":null},{"active":false,"Giataid":"28017","cityId":86763,"cityName":"Krakow","hotelId":28017,"hotelName":"Hotel Wyspianski","address":"15 Westerplatte Stra?e,31-033 Krakau,Poland","phones":"+48124229566","fax":"+48124225719","email":"wyspianski@janpol.com.pl","url":"http://www.hotel-wyspianski.pl","countryIso2":"PL","countryName":"Poland","hotelRating":"3","latitude":"50.0608","longitude":"19.9445","state_id":1635,"state_name":"Lesser Poland Voivodeship","country_id":176},{"active":false,"Giataid":"28018","cityId":86615,"cityName":"Karpacz","hotelId":28018,"hotelName":"Belweder","address":"Szkolna 2A,Karpacz,Poland","phones":"","fax":"","email":"","url":"","countryIso2":"PL","countryName":"Poland","hotelRating":"2","latitude":"50.7791","longitude":"15.7293","state_id":1629,"state_name":"Lower Silesian Voivodeship","country_id":176},{"active":false,"Giataid":"28957","cityId":null,"cityName":"Wroclaw","hotelId":28957,"hotelName":"Hotel Monopol","address":"Ulitca Heleny Modrzejewskiej 2,50-071 Wroclaw,Poland","phones":"+48717723777","fax":"+48717723778","email":"rezerwacje@hotel.com.pl","url":"http://www.likushoteleirestauracje.pl/pl/Hotel_Monopol_Wroclaw","countryIso2":"PL","countryName":"Poland","hotelRating":"5","latitude":"51.1061","longitude":"17.0313","state_id":null,"state_name":null,"country_id":null},{"active":false,"Giataid":"28961","cityId":86763,"cityName":"Krakow","hotelId":28961,"hotelName":"Hotel Francuski","address":"Ulitca Pijarska 13,31-015 Krakow,Poland","phones":"+48666195831","fax":"+48126273700","email":"francuski@orbis.pl","url":"http://www.accorhotels.com/de/hotel-3416-orbis-francuski/index.shtml","countryIso2":"PL","countryName":"Poland","hotelRating":"4","latitude":"50.0648","longitude":"19.9395","state_id":1635,"state_name":"Lesser Poland Voivodeship","country_id":176},{"active":false,"Giataid":"29335","cityId":86763,"cityName":"Krakow","hotelId":29335,"hotelName":"Atrium","address":"ul. Krzywa 7,31-149 Krak?w,Poland","phones":"+48124300203","fax":"+481 2430 0196","email":"hotelatrium@hotelatrium.pl","url":"http://www.hotelatrium.pl/","countryIso2":"PL","countryName":"Poland","hotelRating":"3","latitude":"50.0675","longitude":"19.9397","state_id":1635,"state_name":"Lesser Poland Voivodeship","country_id":176},{"active":false,"Giataid":"31703","cityId":null,"cityName":"Wroclaw","hotelId":31703,"hotelName":"Sofitel Wroclaw Old Town","address":"Ulica Swietego Mikolaja 67,50-127 Wroclaw (Breslau),Poland","phones":"+48713588300","fax":"+48713588301","email":"H5345@accor.com","url":"http://www.sofitel.com/sofitel/fichehotel/gb/sof/5345/fiche_hotel.shtml","countryIso2":"PL","countryName":"Poland","hotelRating":"5","latitude":"51.1113","longitude":"17.0289","state_id":null,"state_name":null,"country_id":null},{"active":false,"Giataid":"31735","cityId":86763,"cityName":"Krakow","hotelId":31735,"hotelName":"Holiday Inn Krakow City Centre","address":"Ulitca Wielopole 4,31-072 Krakow,Poland","phones":"+48126190000","fax":"+48126190005","email":"smm@hik.krakow.pl","url":"http://www.hik.krakow.pl","countryIso2":"PL","countryName":"Poland","hotelRating":"5","latitude":"50.0593","longitude":"19.9437","state_id":1635,"state_name":"Lesser Poland Voivodeship","country_id":176},{"active":false,"Giataid":"31736","cityId":88480,"cityName":"Warsaw","hotelId":31736,"hotelName":"Warsaw Marriott Hotel","address":"Al. Jerozolimskie 65/79,00-697 Warszawa,Poland","phones":"+48226306306","fax":"+48228300311","email":"mail@marriott.com.pl","url":"http://www.marriott.com/hotels/travel/wawpl-warsaw-marriott-hotel","countryIso2":"PL","countryName":"Poland","hotelRating":"5","latitude":"52.2279","longitude":"21.0053","state_id":1637,"state_name":"Masovian Voivodeship","country_id":176},{"active":false,"Giataid":"34322","cityId":null,"cityName":"Wroclaw","hotelId":34322,"hotelName":"Campanile Wroclaw Stare Miasto","address":"ul. Jagielly 7,50-201 Wroclaw,Poland","phones":"+48713267800","fax":"+48713267801","email":"wroclaw@campanile.com","url":"http://www.campanile-wroclaw.pl/","countryIso2":"PL","countryName":"Poland","hotelRating":"2","latitude":"51.1167","longitude":"17.026","state_id":null,"state_name":null,"country_id":null},{"active":false,"Giataid":"34323","cityId":null,"cityName":"Wroclaw","hotelId":34323,"hotelName":"Radisson Blu Hotel, Wroclaw","address":"Ulitca Purkyniego 10,50-156 Wroclaw (Breslau),Poland","phones":"+48713750000","fax":"+48713750010","email":"reservations.wroclaw@radissonblu.com","url":"http://www.radissonblu.com/hotel-wroclaw","countryIso2":"PL","countryName":"Poland","hotelRating":"5","latitude":"51.1108","longitude":"17.0439","state_id":null,"state_name":null,"country_id":null},{"active":false,"Giataid":"34324","cityId":88293,"cityName":"Szczecin","hotelId":34324,"hotelName":"Radisson Blu Szcecin","address":"Plac Rodla 10,70-419 Szczecin,Poland","phones":"+48913595595","fax":"+48913594594","email":"Reservations.Szczecin@Radissonblu.com","url":"http://www.radissonblu.com/hotel-szczecin","countryIso2":"PL","countryName":"Poland","hotelRating":"4","latitude":"53.4322","longitude":"14.5564","state_id":1633,"state_name":"West Pomeranian Voivodeship","country_id":176},{"active":false,"Giataid":"34325","cityId":86763,"cityName":"Krakow","hotelId":34325,"hotelName":"Campanile Krakau","address":"ulica Sw. Tomasza 34,31-023 Krak?w,Poland","phones":"+48124242600","fax":"+48124242601","email":"krakow@campanile.com","url":"http://www.campanile-cracovie.pl/en/index.aspx","countryIso2":"PL","countryName":"Poland","hotelRating":"2","latitude":"50.0616","longitude":"19.9434","state_id":1635,"state_name":"Lesser Poland Voivodeship","country_id":176},{"active":false,"Giataid":"34326","cityId":86763,"cityName":"Krakow","hotelId":34326,"hotelName":"Novotel Krakow Centrum","address":"Ulitca Tadeusza Kosciuszki 5,30-105 Krakow,Poland","phones":"+48122992900","fax":"+48222992999","email":"h3372@accor.com","url":"http://www.novotel.com/de/hotel-3372-novotel-krakow-centrum/index.shtml","countryIso2":"PL","countryName":"Poland","hotelRating":"4","latitude":"50.0548","longitude":"19.926","state_id":1635,"state_name":"Lesser Poland Voivodeship","country_id":176},{"active":false,"Giataid":"34455","cityId":null,"cityName":"Swinoujscie","hotelId":34455,"hotelName":"Atol","address":"Ul. Orkana 3,72-600 Swinoujscie,Poland","phones":"+48913211033","fax":"+48913213846","email":"recepcja@hotelatol.pl","url":"http://www.hotelatol.pl/","countryIso2":"PL","countryName":"Poland","hotelRating":"3","latitude":"53.9193","longitude":"14.2442","state_id":null,"state_name":null,"country_id":null},{"active":false,"Giataid":"34456","cityId":88148,"cityName":"Sopot","hotelId":34456,"hotelName":"Haffner","address":"Ul. Jana Jerzego Haffnera 59,81-715 Sopot,Poland","phones":"+48585509999","fax":"+48585509800","email":"office@hotelhaffner.pl","url":"http://www.hotelhaffner.pl","countryIso2":"PL","countryName":"Poland","hotelRating":"4","latitude":"54.4507","longitude":"18.5615","state_id":1624,"state_name":"Pomeranian Voivodeship","country_id":176},{"active":false,"Giataid":"34457","cityId":null,"cityName":"Mragowo","hotelId":34457,"hotelName":"Hotel Eva","address":"Ulitca Jaszczurcza G?ra 14,11-700 Mragowo,Poland","phones":"+48897433200","fax":"+48897433201","email":"hoteleva@hoteleva.pl","url":"http://www.hoteleva.pl/","countryIso2":"PL","countryName":"Poland","hotelRating":"3","latitude":"53.8719","longitude":"21.3225","state_id":null,"state_name":null,"country_id":null},{"active":false,"Giataid":"34459","cityId":null,"cityName":"Krag","hotelId":34459,"hotelName":"Podewils Schlosshotel","address":"Krag 16,76-010 Krag/Polan?w,Poland","phones":"+48943470516","fax":"+48943169111","email":"krag@podewils.pl","url":"http://www.podewils.pl/","countryIso2":"PL","countryName":"Poland","hotelRating":"3","latitude":"54.2103","longitude":"16.7022","state_id":null,"state_name":null,"country_id":null},{"active":false,"Giataid":"34460","cityId":null,"cityName":"Mikolajki","hotelId":34460,"hotelName":"Hotel Amax","address":"Aleja Spacerowa 7,11-730 Mikolajki,Poland","phones":"+48874219000","fax":"+48 87 421 9014","email":"amax@hotel-amax.pl","url":"http://www.hotel-amax.pl/","countryIso2":"PL","countryName":"Poland","hotelRating":"3","latitude":"53.7961","longitude":"21.5664","state_id":null,"state_name":null,"country_id":null},{"active":false,"Giataid":"36405","cityId":null,"cityName":"Kolobrzeg","hotelId":36405,"hotelName":"Hotel New Skanpol","address":"Ulitsa Dworcowa 10,78-100 Kolobrzeg,Poland","phones":"+48947112910","fax":"+48943524478","email":"info@newskanpol.pl","url":"http://www.newskanpol.pl","countryIso2":"PL","countryName":"Poland","hotelRating":"3","latitude":"54.1796","longitude":"15.5693","state_id":null,"state_name":null,"country_id":null},{"active":false,"Giataid":"36406","cityId":null,"cityName":"Miedzyzdroje","hotelId":36406,"hotelName":"Wolin","address":"ul. Nowomysliwska 76,72-500 Miedzyzdroje,Poland","phones":"+48913281035","fax":"+48913282124","email":"marketing@hotelwolin.pl","url":"http://www.hotelwolin.pl","countryIso2":"PL","countryName":"Poland","hotelRating":"3","latitude":"53.9212","longitude":"14.4383","state_id":null,"state_name":null,"country_id":null},{"active":false,"Giataid":"36407","cityId":null,"cityName":"Duszniki-Zdr?j","hotelId":36407,"hotelName":"Fryderyk","address":"ul.Wojska Polskiego 10,Duszniki Zdroj 57-340,Poland","phones":"+48748660488","fax":"","email":"fryderyk@fryderyk.com.pl","url":"http://www.fryderyk.com.pl/","countryIso2":"PL","countryName":"Poland","hotelRating":"3","latitude":"50.3898","longitude":"16.3823","state_id":null,"state_name":null,"country_id":null},{"active":false,"Giataid":"36408","cityId":null,"cityName":"Osiecznica","hotelId":36408,"hotelName":"Zamek Kliczkow","address":"Kliczk?w 8,59-724 Osiecznica,Poland","phones":"+48757340700","fax":"+48757340703","email":"zamek@kliczkow.com.pl","url":"http://www.kliczkow.com.pl/","countryIso2":"PL","countryName":"Poland","hotelRating":"4","latitude":"51.3364","longitude":"15.4339","state_id":null,"state_name":null,"country_id":null},{"active":false,"Giataid":"36409","cityId":null,"cityName":"Szklarska Poreba","hotelId":36409,"hotelName":"Hotel Sasanka","address":"Ulica Slowackiego 4,58-580 Szklarska Poreba,Poland","phones":"+48757528000","fax":"+48757173680","email":"hotel@hotel-sasanka.pl","url":"http://www.hotel-sasanka.pl","countryIso2":"PL","countryName":"Poland","hotelRating":"3","latitude":"50.8356","longitude":"15.5107","state_id":null,"state_name":null,"country_id":null},{"active":false,"Giataid":"36622","cityId":null,"cityName":"Gdansk","hotelId":36622,"hotelName":"Dom Muzyka","address":"Ulitca Lakowa 1-2,80-743 Gdansk,Poland","phones":"+48583260600","fax":"+48583260601","email":"biuro@dommuzyka.pl","url":"http://www.dom-muzyka.home.pl","countryIso2":"PL","countryName":"Poland","hotelRating":"3","latitude":"54.3456","longitude":"18.6634","state_id":null,"state_name":null,"country_id":null},{"active":false,"Giataid":"37748","cityId":null,"cityName":"Dziwnowek","hotelId":37748,"hotelName":"Jantar","address":"Wolnosci 5-7,72-420 Dziwn?wek,Poland","phones":"+48913813012","fax":"+48913813011","email":"jantar@dziwnowek.com.pl","url":"http://www.dziwnowek.com.pl/","countryIso2":"PL","countryName":"Poland","hotelRating":"3","latitude":"54.0342","longitude":"14.8028","state_id":null,"state_name":null,"country_id":null},{"active":false,"Giataid":"38118","cityId":88480,"cityName":"Warsaw","hotelId":38118,"hotelName":"Regent Warsaw Hotel","address":"Belwederska 23,00-761 Warsaw,Poland","phones":"+48225581234","fax":"+48225581235","email":"warsaw.regency@hyatt.com","url":"http://www.hyattwarsaw.pl","countryIso2":"PL","countryName":"Poland","hotelRating":"5","latitude":"52.2077","longitude":"21.0298","state_id":1637,"state_name":"Masovian Voivodeship","country_id":176},{"active":false,"Giataid":"38133","cityId":88480,"cityName":"Warsaw","hotelId":38133,"hotelName":"The Westin Warsaw","address":"Al. Jana Pawla II 21,00-854 Warsaw,Poland","phones":"+48224508000","fax":"+48224508111","email":"warsaw@westin.com","url":"http://www.westin.pl/","countryIso2":"PL","countryName":"Poland","hotelRating":"5","latitude":"52.2356","longitude":"20.9967","state_id":1637,"state_name":"Masovian Voivodeship","country_id":176},{"active":false,"Giataid":"38230","cityId":86763,"cityName":"Krakow","hotelId":38230,"hotelName":"Senacki","address":"Grodzka 51,31-001 Krak?w,Poland","phones":"+48124227686","fax":"","email":"senacki@hotelsenacki.pl","url":"http://www.hotelsenacki.pl/","countryIso2":"PL","countryName":"Poland","hotelRating":"4","latitude":"50.0572","longitude":"19.938","state_id":1635,"state_name":"Lesser Poland Voivodeship","country_id":176},{"active":false,"Giataid":"38231","cityId":86763,"cityName":"Krakow","hotelId":38231,"hotelName":"Radisson Blu Hotel, Krakow","address":"Straszewskiego Street 17,31-101 Krakow,Poland","phones":"+48126188888","fax":"+48126188889","email":"info.krakow@radissonblu.com","url":"http://www.radissonblu.com/hotel-krakow","countryIso2":"PL","countryName":"Poland","hotelRating":"5","latitude":"50.0583","longitude":"19.9332","state_id":1635,"state_name":"Lesser Poland Voivodeship","country_id":176},{"active":false,"Giataid":"39563","cityId":null,"cityName":"Wiewiecko","hotelId":39563,"hotelName":"Wodnik","address":"ul. Kosciuszki 5,78-111 Ustronie Morskie,Poland","phones":"+48943533100","fax":"+48943515230","email":"info@wodnik.pl","url":"http://www.wodnik.pl","countryIso2":"PL","countryName":"Poland","hotelRating":"3","latitude":"54.2187","longitude":"15.7622","state_id":null,"state_name":null,"country_id":null},{"active":false,"Giataid":"39664","cityId":null,"cityName":"Gdansk","hotelId":39664,"hotelName":"Dwor Oliwski","address":"Ulitca Bytowska 4,80-328 Gdansk (Danzig),Poland","phones":"+48585547000","fax":"+48585547010","email":"info@dwor-oliwski.com.pl","url":"http://www.dwor-oliwski.com.pl","countryIso2":"PL","countryName":"Poland","hotelRating":"5","latitude":"54.4055","longitude":"18.537","state_id":null,"state_name":null,"country_id":null},{"active":false,"Giataid":"39665","cityId":null,"cityName":"Wladyslawowo","hotelId":39665,"hotelName":"Hotel Pekin","address":"Ulitca Niepodleglosci 14,84-120 Wladyslawowo,Poland","phones":"+48586748888","fax":"+48586748889","email":"hotel@hotel-pekin.com.pl","url":"http://www.hotel-pekin.com.pl/","countryIso2":"PL","countryName":"Poland","hotelRating":"3","latitude":"54.791","longitude":"18.4051","state_id":null,"state_name":null,"country_id":null},{"active":false,"Giataid":"39668","cityId":null,"cityName":"Miedzyzdroje","hotelId":39668,"hotelName":"Hotel Aurora Family & Spa","address":"ul. Bohater?w Warszawy 17,72-500 Miedzyzdroje,Poland","phones":"+48913281248","fax":"+48913281248","email":"recepcja@hotel-aurora.pl","url":"http://www.hotel-aurora.pl/","countryIso2":"PL","countryName":"Poland","hotelRating":"4","latitude":"53.931","longitude":"14.4474","state_id":null,"state_name":null,"country_id":null},{"active":false,"Giataid":"39744","cityId":88480,"cityName":"Warsaw","hotelId":39744,"hotelName":"Hotel Campanile Warszawa","address":"Ulitca Towarowa 2,Wola District,00-811 Warszawa,Poland","phones":"+48225827200","fax":"+48225827201","email":"reservation.warsaw@campanile.com","url":"http://www.campanile-warszawa.pl","countryIso2":"PL","countryName":"Poland","hotelRating":"3","latitude":"52.226","longitude":"20.9887","state_id":1637,"state_name":"Masovian Voivodeship","country_id":176},{"active":false,"Giataid":"39745","cityId":88480,"cityName":"Warsaw","hotelId":39745,"hotelName":"Premiere Classe Warschau ","address":"Ulitca Towarowa 2,00-811 Warszawa,Poland","phones":"+48226240800","fax":"+48226202629","email":"warszawa@premiereclasse.com.pl","url":"http://www.premiere-classe-warszawa.pl/de/index.aspx","countryIso2":"PL","countryName":"Poland","hotelRating":"1","latitude":"52.2262","longitude":"20.9886","state_id":1637,"state_name":"Masovian Voivodeship","country_id":176},{"active":false,"Giataid":"39746","cityId":null,"cityName":"Gdansk","hotelId":39746,"hotelName":"Hotel Krolewski","address":"Ulica Olowianka 1,80-751 Gdansk,Poland","phones":"+48583261111","fax":"+48583261110","email":"office@hotelkrolewski.pl","url":"http://www.hotelkrolewski.pl","countryIso2":"PL","countryName":"Poland","hotelRating":"3","latitude":"54.352","longitude":"18.6592","state_id":null,"state_name":null,"country_id":null},{"active":false,"Giataid":"40004","cityId":86763,"cityName":"Krakow","hotelId":40004,"hotelName":"Sheraton Grand Krakow ","address":"7 Powisle Street,31-101 Krakau,Poland","phones":"+48126621000","fax":"+48126621100","email":"krakow@sheraton.com","url":"http://www.starwoodhotels.com/sheraton/property/overview/index.html?propertyID=1477","countryIso2":"PL","countryName":"Poland","hotelRating":"5","latitude":"50.056","longitude":"19.9309","state_id":1635,"state_name":"Lesser Poland Voivodeship","country_id":176},{"active":false,"Giataid":"40005","cityId":88293,"cityName":"Szczecin","hotelId":40005,"hotelName":"Novotel Szczecin Centrum Hotel","address":"Aleja 3 Maja 31,70-215 Szczecin (Stettin),Poland","phones":"+48914801400","fax":"+48914801444","email":"H3367@accor.com","url":"http://www.novotel.com/fichehotel/gb/nov/3367/fiche_hotel.shtml","countryIso2":"PL","countryName":"Poland","hotelRating":"4","latitude":"53.4232","longitude":"14.5507","state_id":1633,"state_name":"West Pomeranian Voivodeship","country_id":176},{"active":false,"Giataid":"40221","cityId":88675,"cityName":"Zakopane","hotelId":40221,"hotelName":"Hotel Mercure Zakopane Kasprowy","address":"ul. Szymaszkowa,34-500 Zakopane,Poland","phones":"+48182024000","fax":"+48182024024","email":"H3399@accor.com","url":"http://www.mercure.com/gb/hotel-3399-mercure-zakopane-kasprowy/index.shtml","countryIso2":"PL","countryName":"Poland","hotelRating":"3","latitude":"49.2946","longitude":"19.9316","state_id":1635,"state_name":"Lesser Poland Voivodeship","country_id":176},{"active":false,"Giataid":"40222","cityId":null,"cityName":"Kudowa-Zdr?j","hotelId":40222,"hotelName":"Kongress Zentrum","address":"ulica Kosciuszki 180,57-350 Kudowa Zdr?j,Poland","phones":"","fax":"","email":"","url":"","countryIso2":"PL","countryName":"Poland","hotelRating":"3","latitude":"50.4423","longitude":"16.2471","state_id":null,"state_name":null,"country_id":null},{"active":false,"Giataid":"41306","cityId":null,"cityName":"Swinoujscie","hotelId":41306,"hotelName":"Lazur","address":"ul. Slowackiego 21,72-600 Swinoujscie,Poland","phones":"+48913212620","fax":"+48913224560","email":"biuro@hotel-lazur.pl","url":"http://www.hotel-lazur.pl/","countryIso2":"PL","countryName":"Poland","hotelRating":"2","latitude":"53.9185","longitude":"14.2484","state_id":null,"state_name":null,"country_id":null},{"active":false,"Giataid":"41307","cityId":null,"cityName":"Wicko (Miedzyzdroje)","hotelId":41307,"hotelName":"Mazurek Osrodek Wypoczynkowy","address":"Ulitca Kolonijna 1,72-519 Wicko,Miedzyzdroje,Poland","phones":"+48510100387","fax":"","email":"","url":"http://owmazurek.obitur.pl/","countryIso2":"PL","countryName":"Poland","hotelRating":"1","latitude":"53.892","longitude":"14.4392","state_id":null,"state_name":null,"country_id":null},{"active":false,"Giataid":"41308","cityId":null,"cityName":"Miedzyzdroje","hotelId":41308,"hotelName":"Rezydencja Bielik","address":"Ulitca Poprzeczna 4,72-500 Miedzyzdroje,Poland","phones":"+48913282802","fax":"+48913214476","email":"info@rezydencja-bielik.pl","url":"http://www.rezydencja-bielik.pl/","countryIso2":"PL","countryName":"Poland","hotelRating":"3","latitude":"53.9281","longitude":"14.4417","state_id":null,"state_name":null,"country_id":null},{"active":false,"Giataid":"41309","cityId":null,"cityName":"Jelenia G?ra","hotelId":41309,"hotelName":"Pod Rozami","address":"Pl.Piastowski 26,58-560 Jelenia G?ra,Poland","phones":"+48757551453","fax":"+48757551454","email":"biuro@podrozami.pl","url":"http://www.podrozami.pl/","countryIso2":"PL","countryName":"Poland","hotelRating":"3","latitude":"50.8652","longitude":"15.6822","state_id":null,"state_name":null,"country_id":null},{"active":false,"Giataid":"41635","cityId":null,"cityName":"Swinoujscie","hotelId":41635,"hotelName":"Villa Julia","address":"Swinem?nde,Poland","phones":"","fax":"","email":"","url":"","countryIso2":"PL","countryName":"Poland","hotelRating":"1","latitude":"53.9023","longitude":"14.4372","state_id":null,"state_name":null,"country_id":null},{"active":false,"Giataid":"48498","cityId":88480,"cityName":"Warsaw","hotelId":48498,"hotelName":"InterContinental Warschau","address":"ul. Emilii Plater 49,00-125 Warszawa,Poland","phones":"+48223288888","fax":"+48223288889","email":"warsaw@ihg.com","url":"http://www.warsaw.intercontinental.com","countryIso2":"PL","countryName":"Poland","hotelRating":"5","latitude":"52.2325","longitude":"21.0029","state_id":1637,"state_name":"Masovian Voivodeship","country_id":176},{"active":false,"Giataid":"49993","cityId":88480,"cityName":"Warsaw","hotelId":49993,"hotelName":"Novotel Warszawa Centrum","address":"Ulica Marszalkowska 94-98,00-510 Warsaw,Poland","phones":"+48225960000","fax":"+48225960647","email":"H3383@accor.com","url":"http://www.novotel.com/gb/hotel-3383-novotel-warszawa-centrum/index.shtml","countryIso2":"PL","countryName":"Poland","hotelRating":"4","latitude":"52.2293","longitude":"21.0134","state_id":1637,"state_name":"Masovian Voivodeship","country_id":176},{"active":false,"Giataid":"49994","cityId":88480,"cityName":"Warsaw","hotelId":49994,"hotelName":"Mercure Warszawa Centrum","address":"ul. Zlota 48-54,00-120 Warszawa,Poland","phones":"+48226973999","fax":"+48226973899","email":"H3385-am@orbis.pl","url":"http://www.holidayinn.com/hotels/de/de/warsaw/wrspl/hoteldetail","countryIso2":"PL","countryName":"Poland","hotelRating":"4","latitude":"52.2308","longitude":"21.0011","state_id":1637,"state_name":"Masovian Voivodeship","country_id":176},{"active":false,"Giataid":"49995","cityId":88480,"cityName":"Warsaw","hotelId":49995,"hotelName":"Radisson Blu Centrum Hotel","address":"Grzybowska 24,00-132 Warsaw,Poland","phones":"+48223218888","fax":"+48223218889","email":"reservations.warsaw@radissonblu.com","url":"http://www.warsaw.radissonsas.com","countryIso2":"PL","countryName":"Poland","hotelRating":"5","latitude":"52.2366","longitude":"20.9988","state_id":1637,"state_name":"Masovian Voivodeship","country_id":176},{"active":false,"Giataid":"50223","cityId":86763,"cityName":"Krakow","hotelId":50223,"hotelName":"Novotel Krakow City West","address":"Aleja Armii Krajowej 11,30-150 Krakau,Poland","phones":"+48126226400","fax":"+48126226405","email":"h3407@accor.com","url":"http://www.novotel.com/novotel/fichehotel/gb/nov/3407/fiche_hotel.shtml","countryIso2":"PL","countryName":"Poland","hotelRating":"4","latitude":"50.0701","longitude":"19.8975","state_id":1635,"state_name":"Lesser Poland Voivodeship","country_id":176},{"active":false,"Giataid":"50224","cityId":86763,"cityName":"Krakow","hotelId":50224,"hotelName":"Hotel Cracovia","address":"Marsz. F. Focha 1,30-111 Krak?w,Poland","phones":"+48124245600","fax":"+48124245632","email":"cracovia@orbis.pl","url":"http://www.accorhotels.com/de/hotel-3415-orbis-cracovia/index.shtml","countryIso2":"PL","countryName":"Poland","hotelRating":"3","latitude":"50.0586","longitude":"19.9237","state_id":1635,"state_name":"Lesser Poland Voivodeship","country_id":176},{"active":false,"Giataid":"50774","cityId":88480,"cityName":"Warsaw","hotelId":50774,"hotelName":"ibis Budget Warszawa Centrum","address":"Ulitca Zag?rna 1,00-441 Warszawa,Poland","phones":"+48227453660","fax":"+48226225501","email":"","url":"http://www.accorhotels.com/gb/hotel-6401-etap-hotel-etap-hotel-warszawa-centrum/index.shtml","countryIso2":"PL","countryName":"Poland","hotelRating":"1","latitude":"52.2267","longitude":"21.0418","state_id":1637,"state_name":"Masovian Voivodeship","country_id":176},{"active":false,"Giataid":"51151","cityId":null,"cityName":"Zamosc","hotelId":51151,"hotelName":"Hotel Zamojski & SPA","address":"Ulica Kollataja 2-4-6,22-400 Zamosc,Poland","phones":"+48846392516","fax":"+48846392886","email":"zamojski@orbis.pl","url":"http://www.accorhotels.com/de/hotel-3431-orbis-zamojski/index.shtml","countryIso2":"PL","countryName":"Poland","hotelRating":"3","latitude":"50.7177","longitude":"23.2519","state_id":null,"state_name":null,"country_id":null},{"active":false,"Giataid":"127382","cityId":86292,"cityName":"Gdynia","hotelId":127382,"hotelName":"Willa Lubicz","address":"Orlowska 43,Gdynia,Poland","phones":"","fax":"","email":"","url":"","countryIso2":"PL","countryName":"Poland","hotelRating":"3","latitude":"54.4797","longitude":"18.5557","state_id":1624,"state_name":"Pomeranian Voivodeship","country_id":176},{"active":false,"Giataid":"128785","cityId":null,"cityName":"Byt?w","hotelId":128785,"hotelName":"Centrum Ulan SPA","address":"ul.Tartaczna 10,77-100 Bytow,Poland","phones":"+48598223247","fax":"+48598226647","email":"hotel@ulanspa.pl","url":"http://www.ulanspa.pl/","countryIso2":"PL","countryName":"Poland","hotelRating":"3","latitude":"54.1699","longitude":"17.4791","state_id":null,"state_name":null,"country_id":null},{"active":false,"Giataid":"128786","cityId":null,"cityName":"Gdansk","hotelId":128786,"hotelName":"Villa Angela","address":"Ludwika Beethovena 12,80-171 Gdansk,Poland","phones":"","fax":"","email":"","url":"","countryIso2":"PL","countryName":"Poland","hotelRating":"3","latitude":"54.3559","longitude":"18.6149","state_id":null,"state_name":null,"country_id":null},{"active":false,"Giataid":"128787","cityId":86678,"cityName":"Koleczkowo","hotelId":128787,"hotelName":"Land-gut-Hotel Rezydencja Bardo","address":"","phones":"","fax":"","email":"","url":"","countryIso2":"PL","countryName":"Poland","hotelRating":"1","latitude":"0","longitude":"0","state_id":1624,"state_name":"Pomeranian Voivodeship","country_id":176},{"active":false,"Giataid":"128789","cityId":null,"cityName":"Poznan","hotelId":128789,"hotelName":"Stare Miasto","address":"Rybaki 36,61-883 Poznan,Poland","phones":"","fax":"","email":"","url":"","countryIso2":"PL","countryName":"Poland","hotelRating":"3","latitude":"52.4035","longitude":"16.933","state_id":null,"state_name":null,"country_id":null},{"active":false,"Giataid":"128790","cityId":null,"cityName":"Trabki Wielkie","hotelId":128790,"hotelName":"Noce I Dnie","address":"ul. Czastkowo 43,83-042 Elganowo,Poland","phones":"","fax":"","email":"","url":"","countryIso2":"PL","countryName":"Poland","hotelRating":"3","latitude":"54.1466","longitude":"18.4377","state_id":null,"state_name":null,"country_id":null},{"active":false,"Giataid":"128792","cityId":88199,"cityName":"Stawiguda","hotelId":128792,"hotelName":"Hotel Galery 69","address":"ul.Dorotowo 38,11-034 Stawiguda,Poland","phones":"","fax":"","email":"","url":"","countryIso2":"PL","countryName":"Poland","hotelRating":"3","latitude":"53.6945","longitude":"20.4106","state_id":1628,"state_name":"Warmian-Masurian Voivodeship","country_id":176},{"active":false,"Giataid":"128793","cityId":null,"cityName":"Wiewiecko","hotelId":128793,"hotelName":"Morena Hotel","address":"ul.Boleslawa Chrobrego 2,78-111 Ustronie Morskie,Poland","phones":"+48943515152","fax":"","email":"info","url":"","countryIso2":"PL","countryName":"Poland","hotelRating":"2","latitude":"54.2122","longitude":"15.7467","state_id":null,"state_name":null,"country_id":null},{"active":false,"Giataid":"128957","cityId":null,"cityName":"Piaseczno (West Pomerania)","hotelId":128957,"hotelName":"Anlage Wajk","address":"Pojezierze Drawskie,Piaseczno,Poland","phones":"+48943758624","fax":"+48943758624","email":"biuro@wajk.pl","url":"http://www.wajk.pl/niemiecki/indexde.htm","countryIso2":"PL","countryName":"Poland","hotelRating":"2","latitude":"53.578","longitude":"16.146","state_id":null,"state_name":null,"country_id":null},{"active":false,"Giataid":"129765","cityId":null,"cityName":"Wroclaw","hotelId":129765,"hotelName":"Polonia","address":"ul. Pilsudskiego 66,50-020 Wroclaw,Poland","phones":"+48713447310","fax":"+48713447310","email":"recepcja@poloniawroclaw.pl","url":"http://www.poloniawroclaw.pl/Home,42.html","countryIso2":"PL","countryName":"Poland","hotelRating":"3","latitude":"51.1012","longitude":"17.0308","state_id":null,"state_name":null,"country_id":null},{"active":false,"Giataid":"132985","cityId":85999,"cityName":"Bydgoszcz","hotelId":132985,"hotelName":"Pod Orlem","address":"Ulica Gdanska 14,85-006 Bydgoszcz,Kujawy Pomerania,Poland","phones":"","fax":"","email":"","url":"","countryIso2":"PL","countryName":"Poland","hotelRating":"4","latitude":"53.1259","longitude":"18.0039","state_id":1625,"state_name":"Kuyavian-Pomeranian Voivodeship","country_id":176},{"active":false,"Giataid":"132986","cityId":85999,"cityName":"Bydgoszcz","hotelId":132986,"hotelName":"Pomorski","address":"Fordonska 112,Bydgoszcz,Poland","phones":"","fax":"","email":"","url":"","countryIso2":"PL","countryName":"Poland","hotelRating":"2","latitude":"53.1202","longitude":"18.0632","state_id":1625,"state_name":"Kuyavian-Pomeranian Voivodeship","country_id":176},{"active":false,"Giataid":"132989","cityId":null,"cityName":"Gdansk","hotelId":132989,"hotelName":"Dal","address":"Czarny Dw?r 4,80-365 Gdansk,Poland","phones":"","fax":"","email":"","url":"","countryIso2":"PL","countryName":"Poland","hotelRating":"2","latitude":"54.4087","longitude":"18.607","state_id":null,"state_name":null,"country_id":null},{"active":false,"Giataid":"132990","cityId":null,"cityName":"Gdansk","hotelId":132990,"hotelName":"Hotel Lival","address":"ulica Mlodziezy Polskiej 10,80-512 Gdansk,Poland","phones":"+48585220200","fax":"","email":"","url":"","countryIso2":"PL","countryName":"Poland","hotelRating":"3","latitude":"54.41","longitude":"18.6339","state_id":null,"state_name":null,"country_id":null},{"active":false,"Giataid":"132991","cityId":null,"cityName":"Gdansk","hotelId":132991,"hotelName":"Stara Karczma","address":"Stary Rynek Oliwski 7,Gdansk,Poland","phones":"","fax":"","email":"","url":"","countryIso2":"PL","countryName":"Poland","hotelRating":"3","latitude":"54.4086","longitude":"18.5565","state_id":null,"state_name":null,"country_id":null},{"active":false,"Giataid":"132993","cityId":86763,"cityName":"Krakow","hotelId":132993,"hotelName":"Affinity Old Town","address":"","phones":"","fax":"","email":"","url":"","countryIso2":"PL","countryName":"Poland","hotelRating":"3","latitude":"50.0641","longitude":"19.9328","state_id":1635,"state_name":"Lesser Poland Voivodeship","country_id":176},{"active":false,"Giataid":"132994","cityId":87082,"cityName":"Modlnica","hotelId":132994,"hotelName":"Parkhotel Economic","address":"Szyce 33,32-085 Modlnica,Krak?w,Poland","phones":"+48124191331","fax":"+48124192599","email":"parkhotel@parkhotel.com.pl","url":"http://www.parkhotel.com.pl","countryIso2":"PL","countryName":"Poland","hotelRating":"3","latitude":"50.1415","longitude":"19.8626","state_id":1635,"state_name":"Lesser Poland Voivodeship","country_id":176},{"active":false,"Giataid":"132996","cityId":86763,"cityName":"Krakow","hotelId":132996,"hotelName":"City Hostel","address":"ul. Sw. Krzyza 21,31-023 Krak?w,Poland","phones":"+48124261815","fax":"","email":"cityhostel@cityhostel.pl","url":"http://www.cityhostel.pl/en/","countryIso2":"PL","countryName":"Poland","hotelRating":"1","latitude":"50.0629","longitude":"19.9432","state_id":1635,"state_name":"Lesser Poland Voivodeship","country_id":176},{"active":false,"Giataid":"132997","cityId":86763,"cityName":"Krakow","hotelId":132997,"hotelName":"Stary","address":"ul. Szczepanska 5,31-011 Krakau,Poland","phones":"+48123840808","fax":"+48123840809","email":"stary@hotel.com.pl","url":"http://stary.hotel.com.pl/","countryIso2":"PL","countryName":"Poland","hotelRating":"5","latitude":"50.0631","longitude":"19.9364","state_id":1635,"state_name":"Lesser Poland Voivodeship","country_id":176},{"active":false,"Giataid":"132998","cityId":86763,"cityName":"Krakow","hotelId":132998,"hotelName":"Atelier Aparthotel","address":"Ulica Topolowa 40,31-506 Krak?w,Poland","phones":"+48124232121","fax":"+48124223223","email":"info@atelieraparthotel.pl","url":"http://www.atelieraparthotel.pl/","countryIso2":"PL","countryName":"Poland","hotelRating":"3","latitude":"50.0664","longitude":"19.9555","state_id":1635,"state_name":"Lesser Poland Voivodeship","country_id":176},{"active":false,"Giataid":"132999","cityId":86763,"cityName":"Krakow","hotelId":132999,"hotelName":"Daniel Griffin Aparthotel","address":"Starowislna 22,31-032 Krakau,Poland","phones":"+48124210660","fax":"+48124266260","email":"info@bluebells.pl","url":"http://www.bluebells.pl","countryIso2":"PL","countryName":"Poland","hotelRating":"2","latitude":"50.0572","longitude":"19.9448","state_id":1635,"state_name":"Lesser Poland Voivodeship","country_id":176},{"active":false,"Giataid":"133000","cityId":86763,"cityName":"Krakow","hotelId":133000,"hotelName":"The Bonerowski Palace","address":"Rynek Gl?wny 42 / ulica Sw. Jana 1,31-013 Cracow,Poland","phones":"+48123741300","fax":"","email":"recepcja@palacbonerowski.pl","url":"http://www.palacbonerowski.com/","countryIso2":"PL","countryName":"Poland","hotelRating":"5","latitude":"50.0625","longitude":"19.9383","state_id":1635,"state_name":"Lesser Poland Voivodeship","country_id":176},{"active":false,"Giataid":"133003","cityId":88148,"cityName":"Sopot","hotelId":133003,"hotelName":"Miramar","address":"ulica Zamkowa G?ra 25,81-713 Sopot,Poland","phones":"+48585500011","fax":"+48585511788","email":"miramar@hotelmiramar.pl","url":"http://hotelmiramar.pl/index.php?lang=3","countryIso2":"PL","countryName":"Poland","hotelRating":"2","latitude":"54.4605","longitude":"18.5557","state_id":1624,"state_name":"Pomeranian Voivodeship","country_id":176},{"active":false,"Giataid":"133004","cityId":null,"cityName":"Torun","hotelId":133004,"hotelName":"Pod Czarna Roza","address":"Rabianska 11,Torun,Poland","phones":"","fax":"","email":"","url":"","countryIso2":"PL","countryName":"Poland","hotelRating":"3","latitude":"53.0087","longitude":"18.6047","state_id":null,"state_name":null,"country_id":null},{"active":false,"Giataid":"135674","cityId":null,"cityName":"Torun","hotelId":133005,"hotelName":"Filmar","address":"ul. Grudziadzka 45,87-100 Torun,Poland","phones":"+48566694800","fax":"","email":"","url":"","countryIso2":"PL","countryName":"Poland","hotelRating":"4","latitude":"53.0196","longitude":"18.6094","state_id":null,"state_name":null,"country_id":null},{"active":false,"Giataid":"133007","cityId":88480,"cityName":"Warsaw","hotelId":133007,"hotelName":"ibis Warszawa Ostrobramska","address":"ulica Ostrobramska 36,04-118 Warszawa,Poland","phones":"+48225157800","fax":"+48225157888","email":"H3129@accor.com","url":"http://www.accorhotels.com/de/hotel-3129-ibis-warszawa-ostrobramska/index.shtml","countryIso2":"PL","countryName":"Poland","hotelRating":"2","latitude":"52.2331","longitude":"21.1198","state_id":1637,"state_name":"Masovian Voivodeship","country_id":176},{"active":false,"Giataid":"135204","cityId":null,"cityName":"Szklarska Poreba","hotelId":135204,"hotelName":"Kursanatorium KRUS","address":"","phones":"","fax":"","email":"","url":"","countryIso2":"PL","countryName":"Poland","hotelRating":"3","latitude":"50.8267","longitude":"15.5218","state_id":null,"state_name":null,"country_id":null},{"active":false,"Giataid":"135442","cityId":86763,"cityName":"Krakow","hotelId":135442,"hotelName":"Benefis","address":"ulica Barska 2,30-307 Krak?w,Poland","phones":"+48122520710","fax":"+48122520712","email":"benefis@hotelbenefis.pl","url":"http://www.hotelbenefis.pl","countryIso2":"PL","countryName":"Poland","hotelRating":"3","latitude":"50.0523","longitude":"19.9284","state_id":1635,"state_name":"Lesser Poland Voivodeship","country_id":176},{"active":false,"Giataid":"135667","cityId":null,"cityName":"Jaroslawiec (Postomino)","hotelId":135667,"hotelName":"Krol Plaza Spa & WellneSS","address":"Ulica Baltycka 16,76-107 Jaroslawiec,Poland","phones":"+48598109456","fax":"+48598109456","email":"rezerwacja@krolplazaspa.pl","url":"http://www.krolplazaspa.pl","countryIso2":"PL","countryName":"Poland","hotelRating":"4","latitude":"54.5405","longitude":"16.5426","state_id":null,"state_name":null,"country_id":null},{"active":false,"Giataid":"135668","cityId":87037,"cityName":"Mielno","hotelId":135668,"hotelName":"Willa Alexander","address":"Ul. BoWiD 7,76-032 Mielno,Poland","phones":"+48943166161","fax":"+48943166161","email":"willa.alexander@neo.pl","url":"http://willa-alexander.pl/","countryIso2":"PL","countryName":"Poland","hotelRating":"3","latitude":"54.2613","longitude":"16.0641","state_id":1633,"state_name":"West Pomeranian Voivodeship","country_id":176},{"active":false,"Giataid":"135925","cityId":null,"cityName":"Gdansk","hotelId":135925,"hotelName":"Radisson Blu Hotel Gdansk","address":"Dlugi Targ 19,Powroznicza,80-828 Gdansk,Poland","phones":"+48583254444","fax":"+48583254455","email":"info.gdansk@radissonblu.com","url":"http://www.radissonblu.com/hotel-gdansk/?facilitator=TRIVAGO&amp;csref=trivago_gdnzh","countryIso2":"PL","countryName":"Poland","hotelRating":"5","latitude":"54.3477","longitude":"18.6546","state_id":null,"state_name":null,"country_id":null},{"active":false,"Giataid":"136478","cityId":86621,"cityName":"Katowice","hotelId":136478,"hotelName":"Economy Silesian Hotel","address":"ulica Szybowcowa 1A,40-502 Katowice,Poland","phones":"+48326068800","fax":"+48326068801","email":"kat@quality-hotels.pl","url":"http://www.quality-hotels.pl/katowice-comfort","countryIso2":"PL","countryName":"Poland","hotelRating":"2","latitude":"50.2443","longitude":"19.029","state_id":1623,"state_name":"Silesian Voivodeship","country_id":176},{"active":false,"Giataid":"136479","cityId":86621,"cityName":"Katowice","hotelId":136479,"hotelName":"Quality Silesian Hotel","address":"Ulica Szybowcowa 1A,40-502 Katowice,Poland","phones":"+48326068800","fax":"+48326068801","email":"kat@quality-hotels.pl","url":"http://www.quality-hotels.pl/katowice-quality","countryIso2":"PL","countryName":"Poland","hotelRating":"3","latitude":"50.2444","longitude":"19.0295","state_id":1623,"state_name":"Silesian Voivodeship","country_id":176},{"active":false,"Giataid":"136539","cityId":null,"cityName":"L?dz","hotelId":136539,"hotelName":"andel's by Vienna House Lodz","address":"Ulica Ogrodowa 17,91-065 L?dz,Poland","phones":"+48422791000","fax":"+48422791001","email":"info@andelslodz.com","url":"http://www.andelslodz.com/","countryIso2":"PL","countryName":"Poland","hotelRating":"4","latitude":"51.7784","longitude":"19.4476","state_id":null,"state_name":null,"country_id":null},{"active":false,"Giataid":"136540","cityId":null,"cityName":"Miedzyzdroje","hotelId":136540,"hotelName":"Marina","address":"Gryfa Pomorskiego 1,72-500 Miedzyzdroje,Poland","phones":"+48913280449","fax":"+48913282382","email":"marinahotel@az.pl","url":"http://www.marinahotel.az.pl/","countryIso2":"PL","countryName":"Poland","hotelRating":"3","latitude":"53.9283","longitude":"14.45","state_id":null,"state_name":null,"country_id":null},{"active":false,"Giataid":"136544","cityId":87247,"cityName":"Olsztyn","hotelId":136544,"hotelName":"Manor","address":"ul. Kanarkowa 47,11-041 Olsztyn,Poland","phones":"+48895241700","fax":"+48895241700","email":"recepcja@manorhotel.eu","url":"http://www.manorhotel.eu/","countryIso2":"PL","countryName":"Poland","hotelRating":"4","latitude":"53.8066","longitude":"20.4177","state_id":1623,"state_name":"Silesian Voivodeship","country_id":176},{"active":false,"Giataid":"136708","cityId":86763,"cityName":"Krakow","hotelId":136708,"hotelName":"Apis","address":"Aleja 29 Listopada 137,31-406 Krak?w,Poland","phones":"+48126176500","fax":"+48126176510","email":"info@hotelapis.pl","url":"http://www.hotelapis.pl/","countryIso2":"PL","countryName":"Poland","hotelRating":"3","latitude":"50.0911","longitude":"19.9604","state_id":1635,"state_name":"Lesser Poland Voivodeship","country_id":176},{"active":false,"Giataid":"138053","cityId":null,"cityName":"L?dz","hotelId":138053,"hotelName":"Grand Hotel Lodz","address":"Ulica Piotrkowska 72,90-102 L?dz,Poland","phones":"+48426339920","fax":"+48426337876","email":"grand@hotel.com.pl","url":"http://grand.hotel.com.pl/grand_en/HOTEL","countryIso2":"PL","countryName":"Poland","hotelRating":"3","latitude":"51.7685","longitude":"19.4567","state_id":null,"state_name":null,"country_id":null},{"active":false,"Giataid":"138190","cityId":86763,"cityName":"Krakow","hotelId":138190,"hotelName":"Redbrick Aparthotel","address":"Ul. Kurniki 3,31-156 Krak?w,Poland","phones":"+48126286600","fax":"+48124301919","email":"redbrick@redbrick.pl","url":"http://www.redbrick.pl/de/","countryIso2":"PL","countryName":"Poland","hotelRating":"3","latitude":"50.0671","longitude":"19.9435","state_id":1635,"state_name":"Lesser Poland Voivodeship","country_id":176},{"active":false,"Giataid":"138191","cityId":null,"cityName":"Rzesz?w","hotelId":138191,"hotelName":"Hotel Hubertus Rzeszow","address":"ul. Adama Mickiewicza 5,35-064 Rzeszow,Poland","phones":"","fax":"","email":"","url":"","countryIso2":"PL","countryName":"Poland","hotelRating":"3","latitude":"50.0376","longitude":"22.006","state_id":null,"state_name":null,"country_id":null},{"active":false,"Giataid":"138192","cityId":86763,"cityName":"Krakow","hotelId":138192,"hotelName":"Wielopole","address":"Wielopole 3,31-072 Krakow,Poland","phones":"","fax":"","email":"","url":"","countryIso2":"PL","countryName":"Poland","hotelRating":"3","latitude":"50.059","longitude":"19.9435","state_id":1635,"state_name":"Lesser Poland Voivodeship","country_id":176},{"active":false,"Giataid":"138341","cityId":88480,"cityName":"Warsaw","hotelId":138341,"hotelName":"Harctur","address":"","phones":"","fax":"","email":"","url":"","countryIso2":"PL","countryName":"Poland","hotelRating":"2","latitude":"52.2212","longitude":"20.9828","state_id":1637,"state_name":"Masovian Voivodeship","country_id":176},{"active":false,"Giataid":"139650","cityId":null,"cityName":"Wisla","hotelId":139650,"hotelName":"Willa Agawa","address":"NULL","phones":"","fax":"","email":"","url":"","countryIso2":"PL","countryName":"Poland","hotelRating":"1","latitude":"49.6473","longitude":"18.8677","state_id":null,"state_name":null,"country_id":null},{"active":false,"Giataid":"139696","cityId":null,"cityName":"Wisla","hotelId":139696,"hotelName":"Krokus","address":"ul. G?rnoslaska 9,43-460 Wisla,Poland","phones":"+48338551140","fax":"+48338551032","email":"krokus@krokus.pl","url":"http://www.krokus.pl","countryIso2":"PL","countryName":"Poland","hotelRating":"1","latitude":"49.6593","longitude":"18.8661","state_id":null,"state_name":null,"country_id":null},{"active":false,"Giataid":"139697","cityId":null,"cityName":"Wisla","hotelId":139697,"hotelName":"Ania Ferienhaus","address":"","phones":"","fax":"","email":"","url":"","countryIso2":"PL","countryName":"Poland","hotelRating":"1","latitude":"49.6451","longitude":"18.8742","state_id":null,"state_name":null,"country_id":null},{"active":false,"Giataid":"139701","cityId":null,"cityName":"Gdansk","hotelId":139701,"hotelName":"Willa Jolanta","address":"Narewska 15,80-110 Gdansk,Poland","phones":"","fax":"","email":"","url":"","countryIso2":"PL","countryName":"Poland","hotelRating":"2","latitude":"54.3465","longitude":"18.6213","state_id":null,"state_name":null,"country_id":null},{"active":false,"Giataid":"139704","cityId":null,"cityName":"Wisla","hotelId":139704,"hotelName":"Willa Montana","address":"ul. 1 Maja 71,43-460 Wisla,Poland","phones":"+48338578491","fax":"","email":"","url":"http://www.montana-wisla.eu","countryIso2":"PL","countryName":"Poland","hotelRating":"1","latitude":"49.6543","longitude":"18.8598","state_id":null,"state_name":null,"country_id":null},{"active":false,"Giataid":"139705","cityId":null,"cityName":"Wisla","hotelId":139705,"hotelName":"Willa Nad Potokiem","address":"Cieslar?w 18,43-460 Wisla,Poland","phones":"+48570750157","fax":"","email":"nadpotokiem@interia.pl","url":"http://www.nadpotokiem.org","countryIso2":"PL","countryName":"Poland","hotelRating":"1","latitude":"49.6515","longitude":"18.8214","state_id":null,"state_name":null,"country_id":null},{"active":false,"Giataid":"139708","cityId":null,"cityName":"Wisla","hotelId":139708,"hotelName":"Willa Jana","address":"ul. Willowa 24,43-460 Wisla,Poland","phones":"+48338552806","fax":"","email":"biuro@willajana.pl","url":"http://www.willajana.pl","countryIso2":"PL","countryName":"Poland","hotelRating":"1","latitude":"49.6534","longitude":"18.8668","state_id":null,"state_name":null,"country_id":null},{"active":false,"Giataid":"139709","cityId":null,"cityName":"Wisla","hotelId":139709,"hotelName":"Willa Emilia","address":"ul. Wyzwolenia 2,43-460 Wisla,Poland","phones":"+48338552651","fax":"+48338552651","email":"willaemilia@wp.pl","url":"http://www.willaemilia.eu","countryIso2":"PL","countryName":"Poland","hotelRating":"1","latitude":"49.6307","longitude":"18.9044","state_id":null,"state_name":null,"country_id":null},{"active":false,"Giataid":"139711","cityId":null,"cityName":"Wisla","hotelId":139711,"hotelName":"Irena","address":"","phones":"","fax":"","email":"","url":"","countryIso2":"PL","countryName":"Poland","hotelRating":"1","latitude":"49.6451","longitude":"18.8742","state_id":null,"state_name":null,"country_id":null},{"active":false,"Giataid":"139718","cityId":null,"cityName":"Wisla","hotelId":139718,"hotelName":"Zajazd na Zielonym","address":"NULL","phones":"","fax":"","email":"","url":"","countryIso2":"PL","countryName":"Poland","hotelRating":"1","latitude":"49.6473","longitude":"18.8677","state_id":null,"state_name":null,"country_id":null},{"active":false,"Giataid":"139714","cityId":null,"cityName":"Wisla","hotelId":139714,"hotelName":"U Beatki","address":"","phones":"","fax":"","email":"","url":"","countryIso2":"PL","countryName":"Poland","hotelRating":"1","latitude":"49.6451","longitude":"18.8742","state_id":null,"state_name":null,"country_id":null},{"active":false,"Giataid":"139722","cityId":null,"cityName":"Wisla","hotelId":139722,"hotelName":"Kamratowka","address":"","phones":"","fax":"","email":"","url":"","countryIso2":"PL","countryName":"Poland","hotelRating":"1","latitude":"49.6451","longitude":"18.8742","state_id":null,"state_name":null,"country_id":null},{"active":false,"Giataid":"139715","cityId":null,"cityName":"Wisla","hotelId":139715,"hotelName":"U Matysa","address":"","phones":"","fax":"","email":"","url":"","countryIso2":"PL","countryName":"Poland","hotelRating":"1","latitude":"49.6451","longitude":"18.8742","state_id":null,"state_name":null,"country_id":null},{"active":false,"Giataid":"139719","cityId":87207,"cityName":"Nowy Targ","hotelId":139719,"hotelName":"Willa Jodla","address":"os. Gazdy 44,34-400 Nowy Targ,Poland","phones":"","fax":"","email":"bronislawa.guzik@gmail.com","url":"http://www.willajodla.pl","countryIso2":"PL","countryName":"Poland","hotelRating":"1","latitude":"49.5163","longitude":"20.0557","state_id":1635,"state_name":"Lesser Poland Voivodeship","country_id":176},{"active":false,"Giataid":"139723","cityId":null,"cityName":"Wisla","hotelId":139723,"hotelName":"Tryczkow","address":"","phones":"","fax":"","email":"","url":"","countryIso2":"PL","countryName":"Poland","hotelRating":"1","latitude":"49.6451","longitude":"18.8742","state_id":null,"state_name":null,"country_id":null},{"active":false,"Giataid":"139724","cityId":null,"cityName":"Wisla","hotelId":139724,"hotelName":"Szemkow","address":"","phones":"","fax":"","email":"","url":"","countryIso2":"PL","countryName":"Poland","hotelRating":"1","latitude":"49.6451","longitude":"18.8742","state_id":null,"state_name":null,"country_id":null},{"active":false,"Giataid":"139725","cityId":null,"cityName":"Wisla","hotelId":139725,"hotelName":"Za woda","address":"","phones":"","fax":"","email":"","url":"","countryIso2":"PL","countryName":"Poland","hotelRating":"1","latitude":"49.6451","longitude":"18.8742","state_id":null,"state_name":null,"country_id":null},{"active":false,"Giataid":"139726","cityId":null,"cityName":"Wisla","hotelId":139726,"hotelName":"Willa Asia","address":"Ulica Nowa 9,43-460 Wisla,Poland","phones":"","fax":"","email":"","url":"","countryIso2":"PL","countryName":"Poland","hotelRating":"1","latitude":"49.6561","longitude":"18.8218","state_id":null,"state_name":null,"country_id":null},{"active":false,"Giataid":"142039","cityId":null,"cityName":"Gdansk","hotelId":142039,"hotelName":"Gdansk","address":"ulica Szafarnia 9,80-755 Gdansk,Poland","phones":"+48583001717","fax":"+48583001718","email":"rezerwacja@hotelgdansk.com.pl","url":"http://www.hotelgdansk.pl","countryIso2":"PL","countryName":"Poland","hotelRating":"4","latitude":"54.3493","longitude":"18.6605","state_id":null,"state_name":null,"country_id":null},{"active":false,"Giataid":"142183","cityId":null,"cityName":"Poznan","hotelId":142183,"hotelName":"City Park Hotel & Residence","address":"Wyspianskiego 26a,60 751 Poznan,Poland","phones":"+48612218400","fax":"+48612218402","email":"residence@citypark.com.pl","url":"http://cityparkresidence.com.pl/DE/index.html","countryIso2":"PL","countryName":"Poland","hotelRating":"5","latitude":"52.4004","longitude":"16.8938","state_id":null,"state_name":null,"country_id":null},{"active":false,"Giataid":"142181","cityId":86763,"cityName":"Krakow","hotelId":142181,"hotelName":"Ambasador","address":"Dietla 91,Krakow,Poland","phones":"+48124222230","fax":"+48124222230","email":"rezerwacja@ambasador-hotel.pl","url":"http://www.jewishkrakow.net/en/sleep/apart-hotel-ambassador/","countryIso2":"PL","countryName":"Poland","hotelRating":"3","latitude":"50.0565","longitude":"19.9459","state_id":1635,"state_name":"Lesser Poland Voivodeship","country_id":176},{"active":false,"Giataid":"142182","cityId":88675,"cityName":"Zakopane","hotelId":142182,"hotelName":"Bellamonte Aparthotel","address":"Ulica Kaszelewskiego 7c,34-500 Zakopane,Poland","phones":"+48182012392","fax":"+48182011268","email":"info@bellamonte.pl","url":"http://www.bellamonte.pl","countryIso2":"PL","countryName":"Poland","hotelRating":"3","latitude":"49.2951","longitude":"19.9427","state_id":1635,"state_name":"Lesser Poland Voivodeship","country_id":176},{"active":false,"Giataid":"143106","cityId":null,"cityName":"Poznan","hotelId":143106,"hotelName":"Hp Park","address":"ul. abpa A. Baraniaka nr 77,Poznan 61-131,Poland","phones":"+48618741100","fax":"+48618741200","email":"hppoznan@hotelepark.pl","url":"http://www.hotelepark.pl/en/hotel-poznan","countryIso2":"PL","countryName":"Poland","hotelRating":"3","latitude":"52.3998","longitude":"16.972","state_id":null,"state_name":null,"country_id":null},{"active":false,"Giataid":"143385","cityId":null,"cityName":"Wiewiecko","hotelId":143385,"hotelName":"Lesna Polana","address":"ul. Wojska Polskiego 28,78-111 Ustronie Morskie,Poland","phones":"+48943515522","fax":"+48943515230","email":"info@lesna-polana.pl","url":"http://www.lesna-polana.pl/","countryIso2":"PL","countryName":"Poland","hotelRating":"3","latitude":"54.2157","longitude":"15.7716","state_id":null,"state_name":null,"country_id":null},{"active":false,"Giataid":"144359","cityId":86763,"cityName":"Krakow","hotelId":144359,"hotelName":"Kossak","address":"Plac Juliusza Kossaka 1,31-106 Krakow,Poland","phones":"+48123795900","fax":"+48123795910","email":"kossak@hotelkossak.pl","url":"http://www.hotelkossak.pl/","countryIso2":"PL","countryName":"Poland","hotelRating":"4","latitude":"50.056","longitude":"19.9284","state_id":1635,"state_name":"Lesser Poland Voivodeship","country_id":176},{"active":false,"Giataid":"145134","cityId":86763,"cityName":"Krakow","hotelId":145134,"hotelName":"The Secret Garden Hostel","address":"Ulica Skawinska 7,31-066 Krak?w,Poland","phones":"+48124305445","fax":"+48124305445","email":"info@thesecretgarden.pl","url":"http://www.thesecretgarden.pl/pl/kontakt","countryIso2":"PL","countryName":"Poland","hotelRating":"2","latitude":"50.0476","longitude":"19.9419","state_id":1635,"state_name":"Lesser Poland Voivodeship","country_id":176},{"active":false,"Giataid":"145216","cityId":null,"cityName":"Miedzywodzie","hotelId":145216,"hotelName":"Metamorfoza","address":"Ulica Szkolna 3,72-415 Miedzywodzie,Poland","phones":"+48913813812","fax":"+48913813990","email":"recepcja@cr-metamorfoza.pl","url":"http://cr-metamorfoza.pl","countryIso2":"PL","countryName":"Poland","hotelRating":"1","latitude":"54.0059","longitude":"14.6905","state_id":null,"state_name":null,"country_id":null},{"active":false,"Giataid":"145217","cityId":null,"cityName":"Darlowko","hotelId":145217,"hotelName":"Apollo","address":"Ulica Kapielowa 11,76-150 Darlowo,Poland","phones":"+48943142453","fax":"+48943141163","email":"recepcja@hotelapollo.pl","url":"http://www.hotelapollo.pl/","countryIso2":"PL","countryName":"Poland","hotelRating":"4","latitude":"54.4405","longitude":"16.3815","state_id":null,"state_name":null,"country_id":null},{"active":false,"Giataid":"202572","cityId":86763,"cityName":"Krakow","hotelId":202572,"hotelName":"Globus Aparthotel","address":"Ulica Dietla 91,31-031 Krak?w,Poland","phones":"+48123506265","fax":"+48124228088","email":"biuro@globuskrk.pl","url":"http://www.globuskrk.pl/","countryIso2":"PL","countryName":"Poland","hotelRating":"3","latitude":"50.0565","longitude":"19.9459","state_id":1635,"state_name":"Lesser Poland Voivodeship","country_id":176},{"active":false,"Giataid":"177193","cityId":86763,"cityName":"Krakow","hotelId":177193,"hotelName":"Old Time","address":"Szlak 33,Krakow,Poland","phones":"","fax":"","email":"","url":"","countryIso2":"PL","countryName":"Poland","hotelRating":"3","latitude":"50.0714","longitude":"19.9373","state_id":1635,"state_name":"Lesser Poland Voivodeship","country_id":176},{"active":false,"Giataid":"182412","cityId":86313,"cityName":"Gniezno","hotelId":182412,"hotelName":"Pietrak","address":"Ulica Chrobrego 3,62-200 Gniezno,Poland","phones":"+48614261497","fax":"+48614261497150","email":"gniezno@pietrak.pl%20","url":"http://www.pietrak.pl/gniezno/index.html","countryIso2":"PL","countryName":"Poland","hotelRating":"4","latitude":"52.5355","longitude":"17.5974","state_id":1634,"state_name":"Greater Poland Voivodeship","country_id":176},{"active":false,"Giataid":"182804","cityId":null,"cityName":"Swieradow Zdroj","hotelId":182804,"hotelName":"Hotel & Medi-Spa Bialy Kamien / WeiSSer Stein","address":"Le?na 8, 59-850 ?wierad?w-Zdr?j, Poland","phones":"+48 75 781 7551","fax":"+48 75 781 7070","email":"","url":"","countryIso2":"PL","countryName":"Poland","hotelRating":"4","latitude":"50.9013","longitude":"15.3436","state_id":null,"state_name":null,"country_id":null},{"active":false,"Giataid":"182990","cityId":null,"cityName":"Gdansk","hotelId":182990,"hotelName":"Qubus Gdansk","address":"Chmielna 47 - 52,80-748 Gdansk,Poland","phones":"+48587522100","fax":"+48587522200","email":"gdansk@qubushotel.com","url":"http://www.qubushotel.com/hotele.php?id_h=18&amp;lang=2&amp;dzial=kontakt#menu","countryIso2":"PL","countryName":"Poland","hotelRating":"4","latitude":"54.3452","longitude":"18.655","state_id":null,"state_name":null,"country_id":null},{"active":false,"Giataid":"182991","cityId":86763,"cityName":"Krakow","hotelId":182991,"hotelName":"Park Inn by Radisson Krakow","address":"Ulica Monte Cassino 2,30-337 Krakow,Poland","phones":"+48123755555","fax":"+48123755556","email":"reservations.krakow@rezidorparkinn.com","url":"http://www.parkinn.com/hotel-krakow","countryIso2":"PL","countryName":"Poland","hotelRating":"4","latitude":"50.0474","longitude":"19.93","state_id":1635,"state_name":"Lesser Poland Voivodeship","country_id":176},{"active":false,"Giataid":"183708","cityId":86763,"cityName":"Krakow","hotelId":183708,"hotelName":"ApartmentsApart Krakow","address":"ulica Dietla 75/1A,31-050 Krakow,Poland","phones":"+48223512250","fax":"+48124214201","email":"info@residencekazimierz.com","url":"http://www.residencekazimierz.com/","countryIso2":"PL","countryName":"Poland","hotelRating":"3","latitude":"50.0546","longitude":"19.9447","state_id":1635,"state_name":"Lesser Poland Voivodeship","country_id":176},{"active":false,"Giataid":"187850","cityId":null,"cityName":"Wisla","hotelId":187850,"hotelName":"Golebiewski","address":"Aleja Ks. Bp. Bursche 3,43-460 Wisla,Poland","phones":"+48338554700","fax":"+48338554500","email":"wisla@golebiewski.pl","url":"http://www.golebiewski.pl/wisla","countryIso2":"PL","countryName":"Poland","hotelRating":"4","latitude":"49.661","longitude":"18.8591","state_id":null,"state_name":null,"country_id":null},{"active":false,"Giataid":"188108","cityId":86763,"cityName":"Krakow","hotelId":188108,"hotelName":"Unicus","address":"ulica Florianska 35 / Sw Marka 20,31-020 Krak?w,Poland","phones":"+48124337111","fax":"+48124337110","email":"recepcja@hotelunicus.pl","url":"http://www.hotelunicus.pl","countryIso2":"PL","countryName":"Poland","hotelRating":"4","latitude":"50.0636","longitude":"19.9408","state_id":1635,"state_name":"Lesser Poland Voivodeship","country_id":176},{"active":false,"Giataid":"196055","cityId":null,"cityName":"Miedzyzdroje","hotelId":196055,"hotelName":"Hotel Trofana","address":"Ulica Zdrojowa 9,72-500 Miedzyzdroje,Poland","phones":"+48913280482","fax":"+48913280383","email":"info@trofana.pl","url":"http://hotel-trofana.pl/","countryIso2":"PL","countryName":"Poland","hotelRating":"3","latitude":"53.9299","longitude":"14.4477","state_id":null,"state_name":null,"country_id":null},{"active":false,"Giataid":"196199","cityId":null,"cityName":"Ostr?da","hotelId":196199,"hotelName":"Willa Port Resort","address":"Mickiewicza 17,14-100 Ostr?da,Poland","phones":"+48896424600","fax":"+48896424610","email":"recepcja@willaport.pl","url":"http://www.willaport.pl/","countryIso2":"PL","countryName":"Poland","hotelRating":"4","latitude":"53.7075","longitude":"19.957","state_id":null,"state_name":null,"country_id":null},{"active":false,"Giataid":"201493","cityId":86397,"cityName":"Grzybowo","hotelId":201493,"hotelName":"Ferienanlage Grzybowo","address":"NULL","phones":"","fax":"","email":"","url":"","countryIso2":"PL","countryName":"Poland","hotelRating":"1","latitude":"54.1628","longitude":"15.4931","state_id":1633,"state_name":"West Pomeranian Voivodeship","country_id":176},{"active":false,"Giataid":"201494","cityId":null,"cityName":"Kolobrzeg","hotelId":201494,"hotelName":"Aparthotel Kolobrzeg","address":"NULL","phones":"","fax":"","email":"","url":"","countryIso2":"PL","countryName":"Poland","hotelRating":"1","latitude":"54.1837","longitude":"15.5789","state_id":null,"state_name":null,"country_id":null},{"active":false,"Giataid":"201495","cityId":null,"cityName":"Sarbinowo Morskie","hotelId":201495,"hotelName":"Zagroda Sarbinowo","address":"ul. Polna 9,76-034 Sarbinowo,Poland","phones":"+48510230386","fax":"","email":"zagroda.sarbinowo@interia.pl","url":"http://www.zagroda-sarbinowo.pl/","countryIso2":"PL","countryName":"Poland","hotelRating":"1","latitude":"54.2422","longitude":"15.9751","state_id":null,"state_name":null,"country_id":null},{"active":false,"Giataid":"201496","cityId":null,"cityName":"Jaroslawiec (Postomino)","hotelId":201496,"hotelName":"Duet Domki","address":"Ul. Letniskowa 29,76-106 Jaroslawiec,Poland","phones":"+48525531518","fax":"","email":"rezerwacja@duetdomki.pl","url":"http://www.duetdomki.pl/","countryIso2":"PL","countryName":"Poland","hotelRating":"3","latitude":"54.5356","longitude":"16.549","state_id":null,"state_name":null,"country_id":null},{"active":false,"Giataid":"201497","cityId":null,"cityName":"Wicko","hotelId":201497,"hotelName":"Dom Kaszubski i Chata Gburska","address":"Dymnica 4,84352 Wicko,Poland","phones":"+48604698048","fax":"","email":"rtrawicki@wp.eu","url":"http://www.nadmorzem.agrowakacje.pl/ferienhauser.html","countryIso2":"PL","countryName":"Poland","hotelRating":"1","latitude":"54.7637","longitude":"17.7194","state_id":null,"state_name":null,"country_id":null},{"active":false,"Giataid":"201498","cityId":86292,"cityName":"Gdynia","hotelId":201498,"hotelName":"Villa Fred","address":"Ruchu Oporu 23,81-474 Gdynia,Poland","phones":"","fax":"","email":"","url":"","countryIso2":"PL","countryName":"Poland","hotelRating":"4","latitude":"54.4932","longitude":"18.5465","state_id":1624,"state_name":"Pomeranian Voivodeship","country_id":176},{"active":false,"Giataid":"201769","cityId":null,"cityName":"Ostr?da","hotelId":201769,"hotelName":"Platinum","address":"Wyszynskiego 11 A,14-100 Ostr?da,Poland","phones":"+48896423600","fax":"+48896423692","email":"recepcja@hotelplatinum.pl","url":"http://www.hotelplatinum.pl","countryIso2":"PL","countryName":"Poland","hotelRating":"4","latitude":"53.6979","longitude":"19.9596","state_id":null,"state_name":null,"country_id":null},{"active":false,"Giataid":"202572","cityId":86763,"cityName":"Krakow","hotelId":202572,"hotelName":"Globus Aparthotel","address":"Ulica Dietla 91,31-031 Krak?w,Poland","phones":"+48123506265","fax":"+48124228088","email":"biuro@globuskrk.pl","url":"http://www.globuskrk.pl/","countryIso2":"PL","countryName":"Poland","hotelRating":"3","latitude":"50.0565","longitude":"19.9459","state_id":1635,"state_name":"Lesser Poland Voivodeship","country_id":176},{"active":false,"Giataid":"202987","cityId":null,"cityName":"Wroclaw","hotelId":202987,"hotelName":"The Granary - La Suite Hotel","address":"Mennicza 24,50-057 Wroclaw,Poland","phones":"+48713952600","fax":"+48713952610","email":"granary@granaryhotel.com","url":"http://www.granaryhotel.com","countryIso2":"PL","countryName":"Poland","hotelRating":"5","latitude":"51.1061","longitude":"17.0349","state_id":null,"state_name":null,"country_id":null},{"active":false,"Giataid":"203207","cityId":null,"cityName":"Poznan","hotelId":203207,"hotelName":"Wloski","address":"Dolna Wilda 8,61-552 Poznan,Poland","phones":"+48618335262","fax":"+48618335261","email":"info@hotelwloski.pl","url":"http://hotelwloski.pl/hotel_eng/","countryIso2":"PL","countryName":"Poland","hotelRating":"3","latitude":"52.3975","longitude":"16.9265","state_id":null,"state_name":null,"country_id":null},{"active":false,"Giataid":"203208","cityId":86763,"cityName":"Krakow","hotelId":203208,"hotelName":"Hotel Swing","address":"Ulica Dobrego Pasterza 124,31-416 Krak?w,Poland","phones":"+48123111111","fax":"+48123111110","email":"marketing@hotelswing.pl","url":"http://www.hotelswing.pl/kontakt.html","countryIso2":"PL","countryName":"Poland","hotelRating":"4","latitude":"50.089","longitude":"19.9809","state_id":1635,"state_name":"Lesser Poland Voivodeship","country_id":176},{"active":false,"Giataid":"203209","cityId":86763,"cityName":"Krakow","hotelId":203209,"hotelName":"Hotel Fero Express","address":"Ulica Boleslawa Smialego 60,30-398 Krakow,Poland","phones":"+48123900900","fax":"+48123965801","email":"info@fero.krakow.pl","url":"http://www.facebook.com/fero.express#!/fero.express?sk=info","countryIso2":"PL","countryName":"Poland","hotelRating":"3","latitude":"50.0199","longitude":"19.8244","state_id":1635,"state_name":"Lesser Poland Voivodeship","country_id":176},{"active":false,"Giataid":"203630","cityId":null,"cityName":"Torun","hotelId":203630,"hotelName":"Hotel 1231","address":"Przedzamcze 6,87-100 Torun,Poland","phones":"+48566190910","fax":"","email":"","url":"","countryIso2":"PL","countryName":"Poland","hotelRating":"4","latitude":"53.0098","longitude":"18.611","state_id":null,"state_name":null,"country_id":null},{"active":false,"Giataid":"203661","cityId":null,"cityName":"Bialystok","hotelId":203661,"hotelName":"Hotel 3 Trio","address":"Hurtowa 3,15-399 Bialystok,Poland","phones":"+48857454050","fax":"","email":"","url":"","countryIso2":"PL","countryName":"Poland","hotelRating":"3","latitude":"53.1167","longitude":"23.1258","state_id":null,"state_name":null,"country_id":null},{"active":false,"Giataid":"203733","cityId":86763,"cityName":"Krakow","hotelId":203733,"hotelName":"Hamilton Suites Atlantis Apartments","address":"Ul Napoleona Cybulskiego 2,31-117 Krakow,Poland","phones":"","fax":"","email":"","url":"","countryIso2":"PL","countryName":"Poland","hotelRating":"4","latitude":"50.062","longitude":"19.9273","state_id":1635,"state_name":"Lesser Poland Voivodeship","country_id":176},{"active":false,"Giataid":"203741","cityId":86763,"cityName":"Krakow","hotelId":203741,"hotelName":"Aae Mosquito Hostel Krakow","address":"rynek Kleparski 4/6,31-150 Krakow,Poland","phones":"+48660926190","fax":"","email":"","url":"","countryIso2":"PL","countryName":"Poland","hotelRating":"2","latitude":"50.0666","longitude":"19.94","state_id":1635,"state_name":"Lesser Poland Voivodeship","country_id":176},{"active":false,"Giataid":"203806","cityId":86763,"cityName":"Krakow","hotelId":203806,"hotelName":"Abella Suites and Apartments","address":"Ulica Dluga 48,31-146 Krakow,Poland","phones":"+48122920534","fax":"","email":"","url":"","countryIso2":"PL","countryName":"Poland","hotelRating":"2","latitude":"50.07","longitude":"19.9371","state_id":1635,"state_name":"Lesser Poland Voivodeship","country_id":176},{"active":false,"Giataid":"203945","cityId":86763,"cityName":"Krakow","hotelId":203945,"hotelName":"Hostel Al Fresco","address":"ul. Pijarska 3,31-015 Krakow,Poland","phones":"","fax":"","email":"","url":"","countryIso2":"PL","countryName":"Poland","hotelRating":"2","latitude":"50.0653","longitude":"19.9374","state_id":1635,"state_name":"Lesser Poland Voivodeship","country_id":176},{"active":false,"Giataid":"204050","cityId":null,"cityName":"Wroclaw","hotelId":204050,"hotelName":"Akira Bed&breakfast","address":"Plac Strzelecki 28,City Centre,50-224 Wroclaw,Lower Silesian,Poland","phones":"","fax":"","email":"","url":"","countryIso2":"PL","countryName":"Poland","hotelRating":"2","latitude":"51.1219","longitude":"17.0273","state_id":null,"state_name":null,"country_id":null},{"active":false,"Giataid":"204052","cityId":null,"cityName":"Gdansk","hotelId":204052,"hotelName":"Akme Villa","address":"Drwecka 1","phones":"","fax":"","email":"","url":"","countryIso2":"PL","countryName":"Poland","hotelRating":"3","latitude":"54.3454","longitude":"18.6191","state_id":null,"state_name":null,"country_id":null},{"active":false,"Giataid":"204295","cityId":87940,"cityName":"Rewal","hotelId":204295,"hotelName":"Alfa","address":"Szczecinska 2,72-344 Rewal,Poland","phones":"","fax":"","email":"","url":"","countryIso2":"PL","countryName":"Poland","hotelRating":"3","latitude":"54.0804","longitude":"15.0095","state_id":1633,"state_name":"West Pomeranian Voivodeship","country_id":176},{"active":false,"Giataid":"204486","cityId":null,"cityName":"Miedzyzdroje","hotelId":204486,"hotelName":"Amadea","address":"Gryfa Pomorskiego 2,72-500 Miedzyzdroje,Poland","phones":"","fax":"","email":"","url":"","countryIso2":"PL","countryName":"Poland","hotelRating":"1","latitude":"53.9285","longitude":"14.4498","state_id":null,"state_name":null,"country_id":null},{"active":false,"Giataid":"204506","cityId":null,"cityName":"Rzesz?w","hotelId":204506,"hotelName":"Hotel Ambasadorski","address":"Rynek 13-14,35-064 Rzesz?w,Poland","phones":"+48172502444","fax":"","email":"","url":"","countryIso2":"PL","countryName":"Poland","hotelRating":"4","latitude":"50.0373","longitude":"22.0055","state_id":null,"state_name":null,"country_id":null},{"active":false,"Giataid":"204503","cityId":88480,"cityName":"Warsaw","hotelId":204503,"hotelName":"Amarylis B&b","address":"Rzedzinska 19,01-368 Warsaw,Poland","phones":"","fax":"","email":"","url":"","countryIso2":"PL","countryName":"Poland","hotelRating":"1","latitude":"52.2319","longitude":"20.9215","state_id":1637,"state_name":"Masovian Voivodeship","country_id":176},{"active":false,"Giataid":"204602","cityId":86763,"cityName":"Krakow","hotelId":204602,"hotelName":"Angel House","address":"Blich 6/23,Krakow,Poland","phones":"+48514141400","fax":"","email":"","url":"","countryIso2":"PL","countryName":"Poland","hotelRating":"3","latitude":"50.0601","longitude":"19.9481","state_id":1635,"state_name":"Lesser Poland Voivodeship","country_id":176},{"active":false,"Giataid":"204639","cityId":86292,"cityName":"Gdynia","hotelId":204639,"hotelName":"Antares","address":"Komandorska 59,81-232 Gdynia,Poland","phones":"+48586233639","fax":"","email":"","url":"","countryIso2":"PL","countryName":"Poland","hotelRating":"2","latitude":"54.5298","longitude":"18.4967","state_id":1624,"state_name":"Pomeranian Voivodeship","country_id":176},{"active":false,"Giataid":"204651","cityId":86763,"cityName":"Krakow","hotelId":204651,"hotelName":"Antica Guesthouse","address":"Czarnowiejska 76,30-054 Cracow,Poland","phones":"","fax":"","email":"","url":"","countryIso2":"PL","countryName":"Poland","hotelRating":"3","latitude":"50.0679","longitude":"19.9158","state_id":1635,"state_name":"Lesser Poland Voivodeship","country_id":176},{"active":false,"Giataid":"204676","cityId":86292,"cityName":"Gdynia","hotelId":204676,"hotelName":"Hotel Rozany Gaj","address":"J?zefa Korzeniowskiego 19,81-376 Gdynia,Poland","phones":"","fax":"","email":"","url":"","countryIso2":"PL","countryName":"Poland","hotelRating":"3","latitude":"54.5093","longitude":"18.551","state_id":1624,"state_name":"Pomeranian Voivodeship","country_id":176},{"active":false,"Giataid":"204702","cityId":null,"cityName":"Wroclaw","hotelId":204702,"hotelName":"Apartament Swidnicki","address":"NULL","phones":"","fax":"","email":"","url":"","countryIso2":"PL","countryName":"Poland","hotelRating":"1","latitude":"50.8446","longitude":"16.4957","state_id":null,"state_name":null,"country_id":null},{"active":false,"Giataid":"204703","cityId":null,"cityName":"Poznan","hotelId":204703,"hotelName":"Apartament Arena","address":"60-216 Poznan,Poland","phones":"","fax":"","email":"","url":"","countryIso2":"PL","countryName":"Poland","hotelRating":"1","latitude":"52.3947","longitude":"16.8966","state_id":null,"state_name":null,"country_id":null},{"active":false,"Giataid":"204705","cityId":null,"cityName":"Wroclaw","hotelId":204705,"hotelName":"Apartament Jatki","address":"ul.Odrzanska 6A/9,Wroclaw,Poland","phones":"","fax":"","email":"","url":"","countryIso2":"PL","countryName":"Poland","hotelRating":"1","latitude":"51.1118","longitude":"17.0311","state_id":null,"state_name":null,"country_id":null},{"active":false,"Giataid":"204708","cityId":null,"cityName":"Poznan","hotelId":204708,"hotelName":"Apartament M2 Poznan","address":"Szczepankowo 89A,Poznan,Poland","phones":"","fax":"","email":"","url":"","countryIso2":"PL","countryName":"Poland","hotelRating":"3","latitude":"52.3637","longitude":"17.012","state_id":null,"state_name":null,"country_id":null},{"active":false,"Giataid":"204712","cityId":88480,"cityName":"Warsaw","hotelId":204712,"hotelName":"Apartament Topaz","address":"ul.Powstancow Slaskich 89A,Lok 242,01-466 Warsaw,Poland","phones":"","fax":"","email":"","url":"","countryIso2":"PL","countryName":"Poland","hotelRating":"1","latitude":"52.242","longitude":"20.9114","state_id":1637,"state_name":"Masovian Voivodeship","country_id":176},{"active":false,"Giataid":"204875","cityId":86763,"cityName":"Krakow","hotelId":204875,"hotelName":"Apartamenty Bracka 6","address":"Bracka 6,Krakow,Poland","phones":"","fax":"","email":"","url":"","countryIso2":"PL","countryName":"Poland","hotelRating":"4","latitude":"50.0602","longitude":"19.9363","state_id":1635,"state_name":"Lesser Poland Voivodeship","country_id":176},{"active":false,"Giataid":"204876","cityId":null,"cityName":"Bialowieza","hotelId":204876,"hotelName":"Apartamenty Carskie","address":"ul.Stacja Towarowa 4,17-230 Bialowieza,Poland","phones":"+48856812119","fax":"+48856812119","email":"","url":"http://www.carska.pl/","countryIso2":"PL","countryName":"Poland","hotelRating":"1","latitude":"52.6903","longitude":"23.8734","state_id":null,"state_name":null,"country_id":null},{"active":false,"Giataid":"204887","cityId":88675,"cityName":"Zakopane","hotelId":204887,"hotelName":"Apartamenty Sun&Snow Zakopane","address":"AL 3 MAJA 31 70-215 SZCECIN","phones":"","fax":"","email":"","url":"","countryIso2":"PL","countryName":"Poland","hotelRating":"1","latitude":"49.2932","longitude":"19.9584","state_id":1635,"state_name":"Lesser Poland Voivodeship","country_id":176},{"active":false,"Giataid":"204879","cityId":88480,"cityName":"Warsaw","hotelId":204879,"hotelName":"Apartamenty Hotelowe Zgoda by DeSilva","address":"Zgoda 6,00-018 Warszawa,Poland","phones":"","fax":"","email":"","url":"","countryIso2":"PL","countryName":"Poland","hotelRating":"3","latitude":"52.2328","longitude":"21.0137","state_id":1637,"state_name":"Masovian Voivodeship","country_id":176},{"active":false,"Giataid":"204880","cityId":86763,"cityName":"Krakow","hotelId":204880,"hotelName":"Apartamenty Muzyczny Krakow","address":"ul. Karmelicka 5,31-133 Krak?w,Poland","phones":"+48123414586","fax":"","email":"","url":"","countryIso2":"PL","countryName":"Poland","hotelRating":"3","latitude":"50.0639","longitude":"19.9329","state_id":1635,"state_name":"Lesser Poland Voivodeship","country_id":176},{"active":false,"Giataid":"204888","cityId":88675,"cityName":"Zakopane","hotelId":204888,"hotelName":"Apartamenty Tatra","address":"Do Samk?w 29,Zakopane,Poland","phones":"","fax":"","email":"","url":"","countryIso2":"PL","countryName":"Poland","hotelRating":"1","latitude":"49.3043","longitude":"19.9664","state_id":1635,"state_name":"Lesser Poland Voivodeship","country_id":176},{"active":false,"Giataid":"204889","cityId":86763,"cityName":"Krakow","hotelId":204889,"hotelName":"Apartamenty Tww Lubicz","address":"Lubicz 3,Krakow,Poland","phones":"","fax":"","email":"","url":"","countryIso2":"PL","countryName":"Poland","hotelRating":"3","latitude":"50.0645","longitude":"19.9457","state_id":1635,"state_name":"Lesser Poland Voivodeship","country_id":176},{"active":false,"Giataid":"204890","cityId":86763,"cityName":"Krakow","hotelId":204890,"hotelName":"Apartamenty Tww Tomasza","address":"ul. Sw. Tomasza 25,31-027 Krakow,Poland","phones":"","fax":"","email":"","url":"","countryIso2":"PL","countryName":"Poland","hotelRating":"3","latitude":"50.0622","longitude":"19.9411","state_id":1635,"state_name":"Lesser Poland Voivodeship","country_id":176},{"active":false,"Giataid":"204892","cityId":88480,"cityName":"Warsaw","hotelId":204892,"hotelName":"Apartamenty u Kruka","address":"","phones":"","fax":"","email":"","url":"","countryIso2":"PL","countryName":"Poland","hotelRating":"1","latitude":"52.225","longitude":"21.0054","state_id":1637,"state_name":"Masovian Voivodeship","country_id":176},{"active":false,"Giataid":"204932","cityId":null,"cityName":"Wroclaw","hotelId":204932,"hotelName":"Aparthouse","address":"ul.Oltaszynska 24,53-006 Wroclaw,Poland","phones":"","fax":"","email":"office@aparthouse.eu","url":"http://www.apartamenty-wroclaw.com.pl/","countryIso2":"PL","countryName":"Poland","hotelRating":"1","latitude":"51.0672","longitude":"17.0108","state_id":null,"state_name":null,"country_id":null},{"active":false,"Giataid":"204945","cityId":86763,"cityName":"Krakow","hotelId":204945,"hotelName":"Yourplace Lemon Apartments","address":"ul.Szlak 50,31-153 Krakow,Poland","phones":"","fax":"","email":"","url":"","countryIso2":"PL","countryName":"Poland","hotelRating":"3","latitude":"50.0705","longitude":"19.9433","state_id":1635,"state_name":"Lesser Poland Voivodeship","country_id":176},{"active":false,"Giataid":"204976","cityId":86763,"cityName":"Krakow","hotelId":204976,"hotelName":"Metropolitan Apartments","address":"Zyblikiewicza 15,31-029 Krak?w,Poland","phones":"+48509547744","fax":"","email":"","url":"","countryIso2":"PL","countryName":"Poland","hotelRating":"3","latitude":"50.0599","longitude":"19.9454","state_id":1635,"state_name":"Lesser Poland Voivodeship","country_id":176},{"active":false,"Giataid":"204975","cityId":86763,"cityName":"Krakow","hotelId":204975,"hotelName":"Apartments Florian - Kazimierz","address":"Ulitsa Starowislna 43,31-038 Krak?w,Poland","phones":"","fax":"","email":"","url":"","countryIso2":"PL","countryName":"Poland","hotelRating":"3","latitude":"50.055","longitude":"19.9467","state_id":1635,"state_name":"Lesser Poland Voivodeship","country_id":176},{"active":false,"Giataid":"205176","cityId":86586,"cityName":"Kalisz","hotelId":205176,"hotelName":"Arena Hotel","address":"ul.H Sawickiej 22-24,62-800 Kalisz,Poland","phones":"+48625982700","fax":"","email":"recepcja@arenahotel.pl","url":"http://www.arenahotel.pl/","countryIso2":"PL","countryName":"Poland","hotelRating":"2","latitude":"51.7489","longitude":"18.0502","state_id":1634,"state_name":"Greater Poland Voivodeship","country_id":176},{"active":false,"Giataid":"205216","cityId":88480,"cityName":"Warsaw","hotelId":205216,"hotelName":"Arkadia","address":"Radzyminska 182,Warsaw,Poland","phones":"","fax":"","email":"","url":"","countryIso2":"PL","countryName":"Poland","hotelRating":"3","latitude":"52.279","longitude":"21.0693","state_id":1637,"state_name":"Masovian Voivodeship","country_id":176},{"active":false,"Giataid":"205242","cityId":86763,"cityName":"Krakow","hotelId":205242,"hotelName":"Ars Hostel","address":"Koletek 7,31-069 Krakow,Poland","phones":"","fax":"","email":"","url":"","countryIso2":"PL","countryName":"Poland","hotelRating":"1","latitude":"50.0522","longitude":"19.9389","state_id":1635,"state_name":"Lesser Poland Voivodeship","country_id":176},{"active":false,"Giataid":"205251","cityId":86763,"cityName":"Krakow","hotelId":205251,"hotelName":"Art Niebieski","address":"Ulica Flisacka 3,30-114 Krak?w,Poland","phones":"+48122974000","fax":"","email":"","url":"","countryIso2":"PL","countryName":"Poland","hotelRating":"5","latitude":"50.0522","longitude":"19.9174","state_id":1635,"state_name":"Lesser Poland Voivodeship","country_id":176},{"active":false,"Giataid":"205281","cityId":86763,"cityName":"Krakow","hotelId":205281,"hotelName":"Artur","address":"Ulica Aleksandry 30,30-837 Krakow,Poland","phones":"","fax":"","email":"","url":"","countryIso2":"PL","countryName":"Poland","hotelRating":"3","latitude":"50.009","longitude":"20.0184","state_id":1635,"state_name":"Lesser Poland Voivodeship","country_id":176},{"active":false,"Giataid":"205383","cityId":null,"cityName":"Slupsk","hotelId":205383,"hotelName":"Atena","address":"Jana Kilinskiego 7,Slupsk,Poland","phones":"","fax":"","email":"","url":"","countryIso2":"PL","countryName":"Poland","hotelRating":"2","latitude":"54.4701","longitude":"17.033","state_id":null,"state_name":null,"country_id":null},{"active":false,"Giataid":"205420","cityId":86763,"cityName":"Krakow","hotelId":205420,"hotelName":"Atlantis Hostel","address":"J?zefa Dietla 58,Krakow,Poland","phones":"","fax":"","email":"","url":"","countryIso2":"PL","countryName":"Poland","hotelRating":"2","latitude":"50.0541","longitude":"19.9432","state_id":1635,"state_name":"Lesser Poland Voivodeship","country_id":176},{"active":false,"Giataid":"205434","cityId":null,"cityName":"Elblag","hotelId":205434,"hotelName":"Atrium","address":"Mostowa 13,Elblag,Poland","phones":"","fax":"","email":"","url":"","countryIso2":"PL","countryName":"Poland","hotelRating":"3","latitude":"54.1581","longitude":"19.3944","state_id":null,"state_name":null,"country_id":null},{"active":false,"Giataid":"205524","cityId":null,"cityName":"Zielona G?ra","hotelId":205524,"hotelName":"Aura","address":"Lesna 15,65-794 Zielona Gora,Poland","phones":"","fax":"","email":"","url":"","countryIso2":"PL","countryName":"Poland","hotelRating":"3","latitude":"51.9409","longitude":"15.4673","state_id":null,"state_name":null,"country_id":null},{"active":false,"Giataid":"205612","cityId":86763,"cityName":"Krakow","hotelId":205612,"hotelName":"Pokoje Goscinne Unikat","address":"Wislna Street 10,Krakow,Poland","phones":"+48124219871","fax":"","email":"","url":"","countryIso2":"PL","countryName":"Poland","hotelRating":"2","latitude":"50.0603","longitude":"19.9346","state_id":1635,"state_name":"Lesser Poland Voivodeship","country_id":176},{"active":false,"Giataid":"205671","cityId":86763,"cityName":"Krakow","hotelId":205671,"hotelName":"B&b Kolory","address":"Estery 10,Krakow,Poland","phones":"","fax":"","email":"","url":"","countryIso2":"PL","countryName":"Poland","hotelRating":"3","latitude":"50.0519","longitude":"19.9453","state_id":1635,"state_name":"Lesser Poland Voivodeship","country_id":176},{"active":false,"Giataid":"205720","cityId":null,"cityName":"Wroclaw","hotelId":205720,"hotelName":"Bacero","address":"ul. Oltaszynska 107,53-034 Wroclaw,Poland","phones":"+48713397550","fax":"+48713397550","email":"hotelbacero@hotelbacero.com.pl","url":"http://www.hotelbacero.com.pl/bacero/index.php?lang=eng","countryIso2":"PL","countryName":"Poland","hotelRating":"3","latitude":"51.0602","longitude":"17.007","state_id":null,"state_name":null,"country_id":null},{"active":false,"Giataid":"205800","cityId":86763,"cityName":"Krakow","hotelId":205800,"hotelName":"Balloon Hostel","address":"ul.Estery 12,31-056 Krakow,Poland","phones":"","fax":"","email":"","url":"","countryIso2":"PL","countryName":"Poland","hotelRating":"1","latitude":"50.0518","longitude":"19.9454","state_id":1635,"state_name":"Lesser Poland Voivodeship","country_id":176},{"active":false,"Giataid":"205898","cityId":88148,"cityName":"Sopot","hotelId":205898,"hotelName":"Bayjonn Hotel & Restaurant","address":"Powstanc?w Warszawy 7,81-718 Sopot,Poland","phones":"+48730717171","fax":"","email":"","url":"","countryIso2":"PL","countryName":"Poland","hotelRating":"3","latitude":"54.4457","longitude":"18.5681","state_id":1624,"state_name":"Pomeranian Voivodeship","country_id":176},{"active":false,"Giataid":"206085","cityId":null,"cityName":"Swinoujscie","hotelId":206085,"hotelName":"Belweder","address":"Stanislawa Wyspianskiego 1,72-600 Swinoujscie,Poland","phones":"","fax":"","email":"","url":"","countryIso2":"PL","countryName":"Poland","hotelRating":"1","latitude":"53.9109","longitude":"14.2471","state_id":null,"state_name":null,"country_id":null},{"active":false,"Giataid":"206086","cityId":null,"cityName":"Ustron","hotelId":206086,"hotelName":"Belweder","address":"Zdrojowa 15,43-450 Ustron,Poland","phones":"","fax":"","email":"","url":"","countryIso2":"PL","countryName":"Poland","hotelRating":"5","latitude":"49.7192","longitude":"18.8323","state_id":null,"state_name":null,"country_id":null},{"active":false,"Giataid":"206087","cityId":88480,"cityName":"Warsaw","hotelId":206087,"hotelName":"Belwederski","address":"Aleksandra Sulkiewicza 11,Warsaw,Poland","phones":"","fax":"","email":"","url":"","countryIso2":"PL","countryName":"Poland","hotelRating":"3","latitude":"52.21","longitude":"21.0288","state_id":1637,"state_name":"Masovian Voivodeship","country_id":176},{"active":false,"Giataid":"206137","cityId":87037,"cityName":"Mielno","hotelId":206137,"hotelName":"Beskid Hotel","address":"NULL","phones":"","fax":"","email":"","url":"","countryIso2":"PL","countryName":"Poland","hotelRating":"1","latitude":"54.2638","longitude":"16.0727","state_id":1633,"state_name":"West Pomeranian Voivodeship","country_id":176},{"active":false,"Giataid":"206182","cityId":86621,"cityName":"Katowice","hotelId":206182,"hotelName":"Park Inn by Radisson Katowice","address":"Ulica Bytkowska 1a,40-147 Katowice,Poland","phones":"+48327211111","fax":"+48327211100","email":"rezerwacja@bestwesternkatowice.pl","url":"http://www.bestwesternkatowice.pl/","countryIso2":"PL","countryName":"Poland","hotelRating":"4","latitude":"50.29","longitude":"19.0054","state_id":1623,"state_name":"Silesian Voivodeship","country_id":176},{"active":false,"Giataid":"206235","cityId":null,"cityName":"Jelenia G?ra","hotelId":206235,"hotelName":"Hotel Bella","address":"ul. Zamoyskiego 3,58-560 Jelenia G?ra,Poland","phones":"+48756431250","fax":"+48756431251","email":"recepcja@hotelbella.pl","url":"http://www.hotelbella.pl","countryIso2":"PL","countryName":"Poland","hotelRating":"3","latitude":"50.863","longitude":"15.6775","state_id":null,"state_name":null,"country_id":null},{"active":false,"Giataid":"206240","cityId":86763,"cityName":"Krakow","hotelId":206240,"hotelName":"Biskupia Apartments","address":"Biskupia 4,Krakow,Poland","phones":"","fax":"","email":"","url":"","countryIso2":"PL","countryName":"Poland","hotelRating":"3","latitude":"50.0675","longitude":"19.9346","state_id":1635,"state_name":"Lesser Poland Voivodeship","country_id":176},{"active":false,"Giataid":"206257","cityId":86292,"cityName":"Gdynia","hotelId":206257,"hotelName":"Blick","address":"Jana z Kolna 6,81-351 Gdynia,Poland","phones":"","fax":"","email":"","url":"","countryIso2":"PL","countryName":"Poland","hotelRating":"3","latitude":"54.5235","longitude":"18.5418","state_id":1624,"state_name":"Pomeranian Voivodeship","country_id":176},{"active":false,"Giataid":"206266","cityId":null,"cityName":"Poznan","hotelId":206266,"hotelName":"Blow Up Hall 5050","address":"ul. Kosciuszki 42,61-891 Poznan,Poland","phones":"+48616579980","fax":"","email":"","url":"","countryIso2":"PL","countryName":"Poland","hotelRating":"5","latitude":"52.4015","longitude":"16.9262","state_id":null,"state_name":null,"country_id":null},{"active":false,"Giataid":"206276","cityId":86763,"cityName":"Krakow","hotelId":206276,"hotelName":"Blue Hostel","address":"Westerplatte 12/7,31-000 Krakow,Poland","phones":"","fax":"","email":"","url":"","countryIso2":"PL","countryName":"Poland","hotelRating":"1","latitude":"50.0617","longitude":"19.9445","state_id":1635,"state_name":"Lesser Poland Voivodeship","country_id":176},{"active":false,"Giataid":"206325","cityId":85999,"cityName":"Bydgoszcz","hotelId":206325,"hotelName":"Bohema Hotel & Spa","address":"Ksiedza Stanislawa Konarskiego 9,85-066 Bydgoszcz,Poland","phones":"","fax":"","email":"","url":"","countryIso2":"PL","countryName":"Poland","hotelRating":"5","latitude":"53.1257","longitude":"18.0068","state_id":1625,"state_name":"Kuyavian-Pomeranian Voivodeship","country_id":176},{"active":false,"Giataid":"206351","cityId":null,"cityName":"Wroclaw","hotelId":206351,"hotelName":"Boogie Hostel","address":"Ruska 35,50-079 Wroclaw,Poland","phones":"","fax":"","email":"","url":"","countryIso2":"PL","countryName":"Poland","hotelRating":"1","latitude":"51.1109","longitude":"17.0238","state_id":null,"state_name":null,"country_id":null},{"active":false,"Giataid":"206400","cityId":88480,"cityName":"Warsaw","hotelId":206400,"hotelName":"Chopin Boutique B&B","address":"Ulitsa Smolna 14,Mieszkanie 7,00-375 Warszawa,Poland","phones":"+48228294800","fax":"","email":"","url":"","countryIso2":"PL","countryName":"Poland","hotelRating":"3","latitude":"52.2332","longitude":"21.0242","state_id":1637,"state_name":"Masovian Voivodeship","country_id":176},{"active":false,"Giataid":"206607","cityId":null,"cityName":"Torun","hotelId":206607,"hotelName":"Bulwar","address":"Bulwar Filadelfijski 18,Torun,Poland","phones":"","fax":"","email":"","url":"","countryIso2":"PL","countryName":"Poland","hotelRating":"4","latitude":"53.0079","longitude":"18.6025","state_id":null,"state_name":null,"country_id":null},{"active":false,"Giataid":"206632","cityId":88148,"cityName":"Sopot","hotelId":206632,"hotelName":"Hotel Bursztyn","address":"Emilii Plater 19,81-777 Sopot,Poland","phones":"+48585514068","fax":"","email":"","url":"","countryIso2":"PL","countryName":"Poland","hotelRating":"2","latitude":"54.4369","longitude":"18.5789","state_id":1624,"state_name":"Pomeranian Voivodeship","country_id":176},