[{"active":false,"Giataid":"371865","cityId":58067,"cityName":"Bissau","hotelId":371865,"hotelName":"Azalai Hotel 24 De Setembro","address":"Avenida Pansau Na Isna,Santa Lusia,C.P. 285,Bissau,Guinea-Bissau","phones":"+2453224505","fax":"","email":"","url":"","countryIso2":"GW","countryName":"Guinea-Bissau","hotelRating":"4","latitude":"11.8763","longitude":"-15.5912","state_id":4014,"state_name":"Rajasthan","country_id":101},{"active":false,"Giataid":"617700","cityId":58067,"cityName":"Bissau","hotelId":617700,"hotelName":"Hotel Azaalai - 24 des Septembro","address":"","phones":"","fax":"","email":"","url":"","countryIso2":"GW","countryName":"Guinea-Bissau","hotelRating":"1","latitude":"11.8764","longitude":"-15.5908","state_id":4014,"state_name":"Rajasthan","country_id":101},{"active":false,"Giataid":"617705","cityId":58067,"cityName":"Bissau","hotelId":617705,"hotelName":"Ilha de Kere","address":"","phones":"+245966794965","fax":"","email":"","url":"","countryIso2":"GW","countryName":"Guinea-Bissau","hotelRating":"1","latitude":"11.8635","longitude":"-15.6144","state_id":4014,"state_name":"Rajasthan","country_id":101},{"active":false,"Giataid":"627883","cityId":58067,"cityName":"Bissau","hotelId":627883,"hotelName":"Ledger Plaza Bissau Hotel","address":"","phones":"","fax":"","email":"","url":"","countryIso2":"GW","countryName":"Guinea-Bissau","hotelRating":"4","latitude":"11.867","longitude":"-15.6286","state_id":4014,"state_name":"Rajasthan","country_id":101},{"active":false,"Giataid":"627887","cityId":58067,"cityName":"Bissau","hotelId":627887,"hotelName":"Jordani","address":"","phones":"","fax":"","email":"","url":"","countryIso2":"GW","countryName":"Guinea-Bissau","hotelRating":"1","latitude":"11.859","longitude":"-15.5828","state_id":4014,"state_name":"Rajasthan","country_id":101},{"active":false,"Giataid":"785817","cityId":58067,"cityName":"Bissau","hotelId":785817,"hotelName":"Hotel Imperio","address":"Praca Dos Herois Nacionais  1,Bissau,Guinea-Bissau","phones":"","fax":"","email":"info@hotelimperio.net","url":"http://hotelimperio.net","countryIso2":"GW","countryName":"Guinea-Bissau","hotelRating":"4","latitude":"11.859","longitude":"-15.5828","state_id":4014,"state_name":"Rajasthan","country_id":101},{"active":false,"Giataid":"789521","cityId":58067,"cityName":"Bissau","hotelId":789521,"hotelName":"Hotel Uaque","address":"Rua Das Flores 17,Bissau 1000,Nimane,Guinea-Bissau","phones":"","fax":"","email":"","url":"","countryIso2":"GW","countryName":"Guinea-Bissau","hotelRating":"1","latitude":"11.859","longitude":"-15.5828","state_id":4014,"state_name":"Rajasthan","country_id":101},{"active":false,"Giataid":"534105","cityId":58067,"cityName":"Bissau","hotelId":10058887,"hotelName":"Malaika Hotel","address":"Rua Osvaldo Vieiria,Bissau,Guinea-Bissau","phones":"","fax":"","email":"","url":"","countryIso2":"GW","countryName":"Guinea-Bissau","hotelRating":"2","latitude":"11.8583","longitude":"-15.5836","state_id":4014,"state_name":"Rajasthan","country_id":101},{"active":false,"Giataid":"617707","cityId":58067,"cityName":"Bissau","hotelId":20000001,"hotelName":"Hotel Ancar","address":"Rua Osvaldo Vieira 10,0314 Bissau,Achada do Burro,Guinea-Bissau","phones":"","fax":"","email":"","url":"","countryIso2":"GW","countryName":"Guinea-Bissau","hotelRating":"0","latitude":"11.8578","longitude":"-15.5832","state_id":4014,"state_name":"Rajasthan","country_id":101},{"active":false,"Giataid":"534301","cityId":58067,"cityName":"Bissau","hotelId":20000004,"hotelName":"Hotel Lisboa Bissau","address":"Avenue Combatante Libertade Patria,Bissau,Guinea-Bissau,Guinea-Bissau","phones":"","fax":"","email":"","url":"","countryIso2":"GW","countryName":"Guinea-Bissau","hotelRating":"3","latitude":"11.8581","longitude":"-15.6122","state_id":4014,"state_name":"Rajasthan","country_id":101},{"active":false,"Giataid":"202059","cityId":null,"cityName":"?le de Rubane","hotelId":20000006,"hotelName":"Lodge Ponta Anchaca","address":"Archipel des Bijagos,Bubaque,99999 Ile de Rubane,Guinea-Bissau","phones":"","fax":"","email":"","url":"","countryIso2":"GW","countryName":"Guinea-Bissau","hotelRating":"4","latitude":"11.3067","longitude":"-15.8015","state_id":null,"state_name":null,"country_id":null},{"active":false,"Giataid":"856455","cityId":58067,"cityName":"Bissau","hotelId":20317857,"hotelName":"Hotel Ceiba Bissau","address":"Avenida Francisco Mendes,Bissau,Guinea-Bissau","phones":"","fax":"","email":"","url":"","countryIso2":"GW","countryName":"Guinea-Bissau","hotelRating":"5","latitude":"11.859","longitude":"-15.5828","state_id":4014,"state_name":"Rajasthan","country_id":101}]