[{"active":false,"Giataid":"13400","cityId":65498,"cityName":"Seoul","hotelId":13400,"hotelName":"Grand Hyatt Seoul","address":"322 Sowol-ro,Yongsan-gu,Seoul 04347,South Korea","phones":"+8227971234","fax":"+8227986953","email":"seoul.grand@hyatt.com","url":"http://hyatt.com/hyatt/wwg/hotels/selrs/index.jsp?language=de","countryIso2":"KR","countryName":"South Korea","hotelRating":"5","latitude":"37.5399","longitude":"126.996","state_id":3849,"state_name":"Seoul","country_id":116},{"active":false,"Giataid":"13754","cityId":65498,"cityName":"Seoul","hotelId":13754,"hotelName":"Hamilton","address":"179 Itaewon-dong,Yongsan-gu,Seoul,South Korea","phones":"+8227940171","fax":"+8227950457","email":"hamilton@hamilton.co.kr","url":"http://www.hamilton.co.kr","countryIso2":"KR","countryName":"South Korea","hotelRating":"3","latitude":"37.5348","longitude":"126.994","state_id":3849,"state_name":"Seoul","country_id":116},{"active":false,"Giataid":"14496","cityId":null,"cityName":"Cheju-Do","hotelId":14496,"hotelName":"Hyatt Regency Jeju","address":"114 Jungmungwangwang-ro 72 beon-gil,Seogwipo-si  63535,Jeju-do,South Korea","phones":"+82647331234","fax":"+82647322039","email":"jeju.regency@hyatt.com","url":"https://jeju.regency.hyatt.com/en/hotel/home.html","countryIso2":"KR","countryName":"South Korea","hotelRating":"5","latitude":"33.2445","longitude":"126.406","state_id":null,"state_name":null,"country_id":null},{"active":false,"Giataid":"15594","cityId":null,"cityName":"Kyongju","hotelId":15594,"hotelName":"Concorde Kyongju","address":"410 shinpyong-dong,Gyeongju-si,Gyeongsangbug-do,South Korea","phones":"+82547457000","fax":"+82547457010","email":"concorde@chollian.net","url":"http://www.concorde.co.kr","countryIso2":"KR","countryName":"South Korea","hotelRating":"5","latitude":"35.8451","longitude":"129.284","state_id":null,"state_name":null,"country_id":null},{"active":false,"Giataid":"16530","cityId":65498,"cityName":"Seoul","hotelId":16530,"hotelName":"Lotte Hotel Seoul","address":"30 Eulji-ro,Jung-gu,Seoul 04533,South Korea","phones":"+8227711000","fax":"+8227523758","email":"","url":"http://www.lottehotel.com/seoul/en/","countryIso2":"KR","countryName":"South Korea","hotelRating":"5","latitude":"37.5654","longitude":"126.981","state_id":3849,"state_name":"Seoul","country_id":116},{"active":false,"Giataid":"19556","cityId":null,"cityName":"Pusan","hotelId":19556,"hotelName":"Kukje","address":"830-62 Beomil 2-dong,Dong-gu,Busan,South Korea","phones":"+82516421330","fax":"+82516426595","email":"master@hotelkukje.com","url":"http://www.hotelkukje.com/eng_html/index.html","countryIso2":"KR","countryName":"South Korea","hotelRating":"3","latitude":"35.1383","longitude":"129.062","state_id":null,"state_name":null,"country_id":null},{"active":false,"Giataid":"23255","cityId":65498,"cityName":"Seoul","hotelId":23255,"hotelName":"Towers","address":"","phones":"","fax":"","email":"","url":"","countryIso2":"KR","countryName":"South Korea","hotelRating":"4","latitude":"37.5502","longitude":"126.985","state_id":3849,"state_name":"Seoul","country_id":116},{"active":false,"Giataid":"24396","cityId":65498,"cityName":"Seoul","hotelId":24396,"hotelName":"The Westin Chosun Seoul","address":"106 Sogong-ro,Jung-gu,Seoul 04533,South Korea","phones":"+8227710500","fax":"+8227521443","email":"crm@chosunhotel.co.kr","url":"http://www.starwoodhotels.com/westin/property/overview/index.html?propertyID=1064","countryIso2":"KR","countryName":"South Korea","hotelRating":"5","latitude":"37.5642","longitude":"126.98","state_id":3849,"state_name":"Seoul","country_id":116},{"active":false,"Giataid":"129681","cityId":null,"cityName":"Kyongju","hotelId":129681,"hotelName":"Kolon","address":"289-17 Bulgug-Lo,Gyeongsangbug-Do,Gyeongju-Si 38126,South Korea","phones":"+82547469001","fax":"","email":"","url":"http://directrooms.com/south-korea/hotels/kolon-hotel-gyeongju-5995-address.htm","countryIso2":"KR","countryName":"South Korea","hotelRating":"5","latitude":"35.7879","longitude":"129.322","state_id":null,"state_name":null,"country_id":null},{"active":false,"Giataid":"129682","cityId":65498,"cityName":"Seoul","hotelId":129682,"hotelName":"Vabien II Suite","address":"25-10 Uijuro 1ga,Jung-gu,Myeong-dong,Seoul 04517,South Korea","phones":"+82263990113","fax":"+82263991000","email":"sales@vabien2.com","url":"http://www.vabien2.com/en/www/src/main.php","countryIso2":"KR","countryName":"South Korea","hotelRating":"3","latitude":"37.5653","longitude":"126.968","state_id":3849,"state_name":"Seoul","country_id":116},{"active":false,"Giataid":"129683","cityId":65498,"cityName":"Seoul","hotelId":129683,"hotelName":"M-Chereville Mckorea","address":"17 Gangnam-daero 61-gil,5F Milatel Chereville,Seoul,South Korea","phones":"","fax":"","email":"","url":"","countryIso2":"KR","countryName":"South Korea","hotelRating":"4","latitude":"37.4989","longitude":"127.025","state_id":3849,"state_name":"Seoul","country_id":116},{"active":false,"Giataid":"129684","cityId":65498,"cityName":"Seoul","hotelId":129684,"hotelName":"Somerset Palace Seoul","address":"7 Yulgok-ro 2-gil,Jongno-gu,Seoul 03143,South Korea","phones":"+82267308888","fax":"+82267308080","email":"enquiry.seoul@the-ascott.com","url":"http://www.somerset.com/south_korea/seoul/somerset_palace.html","countryIso2":"KR","countryName":"South Korea","hotelRating":"4","latitude":"37.5749","longitude":"126.981","state_id":3849,"state_name":"Seoul","country_id":116},{"active":false,"Giataid":"132627","cityId":65301,"cityName":"Daejeon","hotelId":132627,"hotelName":"Hotel Adria","address":"27 Oncheon-ro,Yuseong-gu,Daejeon 34168,South Korea","phones":"+82428283636","fax":"","email":"","url":"","countryIso2":"KR","countryName":"South Korea","hotelRating":"3","latitude":"36.356","longitude":"127.341","state_id":3850,"state_name":"Daejeon","country_id":116},{"active":false,"Giataid":"132628","cityId":65301,"cityName":"Daejeon","hotelId":132628,"hotelName":"Interciti","address":"545 Bongmyeong-dong,Yuseong-gu,Daejeon,South Korea","phones":"+82426006006","fax":"","email":"hotelinterciti@gmail.com","url":"http://www.hotelinterciti.com","countryIso2":"KR","countryName":"South Korea","hotelRating":"4","latitude":"36.3544","longitude":"127.348","state_id":3850,"state_name":"Daejeon","country_id":116},{"active":false,"Giataid":"132630","cityId":65400,"cityName":"Incheon","hotelId":132630,"hotelName":"Ramada Songdo","address":"29 Neungheodae-ro 267beon-gil,Yeonsu-gu,Incheon 21944,South Korea","phones":"+82328322000","fax":"+82328302345","email":"","url":"http://www.ramada-songdo.co.kr/intro.asp","countryIso2":"KR","countryName":"South Korea","hotelRating":"4","latitude":"37.4141","longitude":"126.655","state_id":3848,"state_name":"Incheon","country_id":116},{"active":false,"Giataid":"132632","cityId":null,"cityName":"Pusan","hotelId":132632,"hotelName":"Beach Tourist","address":"523-44 Nambumin-dong,Seo-gu,49264 Busan,South Korea","phones":"+82512310750","fax":"+82512310752","email":"","url":"","countryIso2":"KR","countryName":"South Korea","hotelRating":"2","latitude":"35.0849","longitude":"129.026","state_id":null,"state_name":null,"country_id":null},{"active":false,"Giataid":"132633","cityId":null,"cityName":"Pusan","hotelId":132633,"hotelName":"Sangnam International House","address":"30 San Jangieon-dong,Kumjeong-ku,Busan,South Korea","phones":"+82515107000","fax":"+82515837070","email":"sangnam@sangnam.co.kr","url":"http://www.sangnam.co.kr/","countryIso2":"KR","countryName":"South Korea","hotelRating":"3","latitude":"35.2357","longitude":"129.084","state_id":null,"state_name":null,"country_id":null},{"active":false,"Giataid":"132634","cityId":65498,"cityName":"Seoul","hotelId":132634,"hotelName":"Doulos Hotel","address":"112 Gwansu-dong,Jongno-gu,Seoul,South Korea","phones":"+82222662244","fax":"+82222668267","email":"","url":"http://www.douloshotel.com/e_index.htm?PHPSESSID=b93ff3e465ad35d9d2e1e366229326be","countryIso2":"KR","countryName":"South Korea","hotelRating":"3","latitude":"37.5693","longitude":"126.991","state_id":3849,"state_name":"Seoul","country_id":116},{"active":false,"Giataid":"132635","cityId":65498,"cityName":"Seoul","hotelId":132635,"hotelName":"Hotel Benhur","address":"13-18 Yoido-Dong,Yeongdungpo-Gu,Seoul,South Korea","phones":"+8227832233","fax":"+8227831667","email":"","url":"http://www.trivago.de/seoul-101629/hotel/benhur-475351","countryIso2":"KR","countryName":"South Korea","hotelRating":"3","latitude":"37.5303","longitude":"126.92","state_id":3849,"state_name":"Seoul","country_id":116},{"active":false,"Giataid":"132636","cityId":65498,"cityName":"Seoul","hotelId":132636,"hotelName":"Astoria Hotel","address":"13-2 Namhak-dong,Jung-gu,Seoul,South Korea","phones":"","fax":"","email":"","url":"","countryIso2":"KR","countryName":"South Korea","hotelRating":"3","latitude":"37.5609","longitude":"126.991","state_id":3849,"state_name":"Seoul","country_id":116},{"active":false,"Giataid":"521121","cityId":65498,"cityName":"Seoul","hotelId":132637,"hotelName":"Hotel M","address":"14-23 Yeouido-Dong,Yeongdeungpo-Gu,Seoul 150-871,South Korea","phones":"+8227832273","fax":"","email":"","url":"http://www.hotelm.co.kr/html/eng/wc/index.html","countryIso2":"KR","countryName":"South Korea","hotelRating":"3","latitude":"37.5296","longitude":"126.92","state_id":3849,"state_name":"Seoul","country_id":116},{"active":false,"Giataid":"132638","cityId":65498,"cityName":"Seoul","hotelId":132638,"hotelName":"Ramada Hotel & Suites Seoul Namdaemun","address":"27 Chilpae ro,Jung-gu,Seoul 100135,South Korea","phones":"+82221198900","fax":"+82221198989","email":"","url":"http://www.ramada.com/Ramada/control/Booking/property_info?propertyId=19384","countryIso2":"KR","countryName":"South Korea","hotelRating":"4","latitude":"37.5605","longitude":"126.972","state_id":3849,"state_name":"Seoul","country_id":116},{"active":false,"Giataid":"132639","cityId":65498,"cityName":"Seoul","hotelId":132639,"hotelName":"Three Seven Stay","address":"15-13 Yeouido-dong,Yeongdeungpo-gu,Yeouido,Seoul,South Korea","phones":"+82269293777","fax":"+82269293776","email":"","url":"http://www.three7stay.com/eng/about/overview.asp","countryIso2":"KR","countryName":"South Korea","hotelRating":"3","latitude":"37.5283","longitude":"126.92","state_id":3849,"state_name":"Seoul","country_id":116},{"active":false,"Giataid":"132640","cityId":65498,"cityName":"Seoul","hotelId":132640,"hotelName":"Central","address":"137 Cheonggyecheon-ro,Jongno-gu,Seoul 03193,South Korea","phones":"+82263656500","fax":"+82222656139","email":"","url":"","countryIso2":"KR","countryName":"South Korea","hotelRating":"3","latitude":"37.5688","longitude":"126.993","state_id":3849,"state_name":"Seoul","country_id":116},{"active":false,"Giataid":"132641","cityId":65498,"cityName":"Seoul","hotelId":132641,"hotelName":"Savoy","address":"10 Myeongdong 8na-gil,Jung-gu,Seoul,South Korea","phones":"+8227727700","fax":"+8227557669","email":"savoy@savoy.co.kr","url":"http://www.savoyhotel.co.kr/html/eng/wc/index.asp","countryIso2":"KR","countryName":"South Korea","hotelRating":"3","latitude":"37.5617","longitude":"126.984","state_id":3849,"state_name":"Seoul","country_id":116},{"active":false,"Giataid":"132642","cityId":65498,"cityName":"Seoul","hotelId":132642,"hotelName":"Seoul Leisure Tourist","address":"816 Tongil-ro,Eunpyeong-Gu,Seoul 03351,South Korea","phones":"","fax":"","email":"","url":"","countryIso2":"KR","countryName":"South Korea","hotelRating":"3","latitude":"37.5638","longitude":"126.979","state_id":3849,"state_name":"Seoul","country_id":116},{"active":false,"Giataid":"132643","cityId":65498,"cityName":"Seoul","hotelId":132643,"hotelName":"Victoria","address":"42-8 Mia 4-Dong,Gangbuk-Gu,142-804 Seoul,South Korea","phones":"","fax":"","email":"","url":"","countryIso2":"KR","countryName":"South Korea","hotelRating":"3","latitude":"37.6105","longitude":"127.031","state_id":3849,"state_name":"Seoul","country_id":116},{"active":false,"Giataid":"132644","cityId":65498,"cityName":"Seoul","hotelId":132644,"hotelName":"Seoul Residence","address":"708-16 Yeoksam-Dong,Gangnam-Gu,Seoul,South Korea","phones":"+82262023100","fax":"+82262023669","email":"reservation@seoulresidence.co.kr","url":"http://www.booking.com/hotel/kr/seoul-residence.de.html","countryIso2":"KR","countryName":"South Korea","hotelRating":"3","latitude":"37.5034","longitude":"127.048","state_id":3849,"state_name":"Seoul","country_id":116},{"active":false,"Giataid":"132645","cityId":65498,"cityName":"Seoul","hotelId":132645,"hotelName":"Dodo Tourist Hotel","address":"94-154 Yoido-dong 2ga,Yeongdeungpo-gu,Seoul,South Korea","phones":"+82226723535","fax":"+82220693232","email":"heasim0320@hanmail.net","url":"http://hoteldodo.co.kr/e_index.htm?PHPSESSID=e3e7c50a8fdb96b2b7c4819ae6a83245","countryIso2":"KR","countryName":"South Korea","hotelRating":"3","latitude":"37.5208","longitude":"126.912","state_id":3849,"state_name":"Seoul","country_id":116},{"active":false,"Giataid":"132646","cityId":65498,"cityName":"Seoul","hotelId":132646,"hotelName":"Hotel Elle Inn","address":"98-14 Garwol-Dong Yongsan-Gu,(98-16 Kalwol-Dong),Seoul,South Korea","phones":"+8227928700","fax":"","email":"","url":"","countryIso2":"KR","countryName":"South Korea","hotelRating":"3","latitude":"37.5405","longitude":"126.972","state_id":3849,"state_name":"Seoul","country_id":116},{"active":false,"Giataid":"132647","cityId":65498,"cityName":"Seoul","hotelId":132647,"hotelName":"Prince","address":"1-1 Nam San dong,2-ka Chung ku,Seoul,South Korea","phones":"+8227527111","fax":"+8227527118","email":"webmaster@hotelprinceseoul.co.kr","url":"www.princeseoul.co.kr ","countryIso2":"KR","countryName":"South Korea","hotelRating":"3","latitude":"37.5606","longitude":"126.986","state_id":3849,"state_name":"Seoul","country_id":116},{"active":false,"Giataid":"132648","cityId":65498,"cityName":"Seoul","hotelId":132648,"hotelName":"Hotel River Park","address":"261-4 Yeomchang-dong,Gangseo-gu,Seoul,South Korea","phones":"+82236653000","fax":"+822366563330","email":"info@riverpark.co.kr","url":"http://riverpark.co.kr/eng/","countryIso2":"KR","countryName":"South Korea","hotelRating":"3","latitude":"37.5485","longitude":"126.878","state_id":3849,"state_name":"Seoul","country_id":116},{"active":false,"Giataid":"132649","cityId":65498,"cityName":"Seoul","hotelId":132649,"hotelName":"Hotel Seokyo","address":"130 Yanghwa-ro,Mapo-gu,Seoul 04038,South Korea","phones":"+8223307771","fax":"+8223333388","email":"","url":"http://www.hotelseokyo.co.kr/english/default.asp","countryIso2":"KR","countryName":"South Korea","hotelRating":"4","latitude":"37.5544","longitude":"126.921","state_id":3849,"state_name":"Seoul","country_id":116},{"active":false,"Giataid":"132650","cityId":65498,"cityName":"Seoul","hotelId":132650,"hotelName":"Noblesse & Meridien","address":"465-4 5 Jangan-dong,Dongdaemun-gu,Seoul,South Korea","phones":"+82222489100","fax":"+82222454567","email":"","url":"","countryIso2":"KR","countryName":"South Korea","hotelRating":"3","latitude":"37.5694","longitude":"127.071","state_id":3849,"state_name":"Seoul","country_id":116},{"active":false,"Giataid":"132651","cityId":65498,"cityName":"Seoul","hotelId":132651,"hotelName":"Noblesse Yeoksam","address":"642-2 Yeoksam-dong,Gangnam-gu,Seoul,South Korea","phones":"+8225581202","fax":"+8225580875","email":"","url":"","countryIso2":"KR","countryName":"South Korea","hotelRating":"2","latitude":"37.5014","longitude":"127.036","state_id":3849,"state_name":"Seoul","country_id":116},{"active":false,"Giataid":"132652","cityId":65498,"cityName":"Seoul","hotelId":132652,"hotelName":"Hotel Namsan Park","address":"Seoul,Jung-gu,South Korea","phones":"","fax":"","email":"","url":"","countryIso2":"KR","countryName":"South Korea","hotelRating":"1","latitude":"37.559","longitude":"126.979","state_id":3849,"state_name":"Seoul","country_id":116},{"active":false,"Giataid":"132653","cityId":65498,"cityName":"Seoul","hotelId":132653,"hotelName":"Pj","address":"71 Mareunnae-ro,Jung-gu,Seoul 04548,South Korea","phones":"+82222807000","fax":"+82222745732","email":"mgr@hotelpj.co.kr","url":"http://eng.hotelpj.co.kr/main/index.html","countryIso2":"KR","countryName":"South Korea","hotelRating":"4","latitude":"37.5644","longitude":"126.996","state_id":3849,"state_name":"Seoul","country_id":116},{"active":false,"Giataid":"132654","cityId":65498,"cityName":"Seoul","hotelId":132654,"hotelName":"Brown Hotel Seoul","address":"78 Bomun-ro,Seongbuk-gu,Seoul 02852,South Korea","phones":"+82292666015","fax":"","email":"","url":"http://www.tripadvisor.de/Hotel_Review-g294197-d323983-Reviews-Brown_Hotel_Seoul-Seoul.html","countryIso2":"KR","countryName":"South Korea","hotelRating":"2","latitude":"37.5822","longitude":"127.021","state_id":3849,"state_name":"Seoul","country_id":116},{"active":false,"Giataid":"132655","cityId":65498,"cityName":"Seoul","hotelId":132655,"hotelName":"Sejong Hotel","address":"145 Toegye-ro,Jung-gu,Seoul 04537,South Korea","phones":"+8227736000","fax":"+8227754906","email":"","url":"http://www.sejong.co.kr/en/","countryIso2":"KR","countryName":"South Korea","hotelRating":"4","latitude":"37.5613","longitude":"126.988","state_id":3849,"state_name":"Seoul","country_id":116},{"active":false,"Giataid":"132656","cityId":65498,"cityName":"Seoul","hotelId":132656,"hotelName":"Stay 7 Mapo Residence Hotel","address":"204 Mapo-daero,Mapo-gu,Seoul 04206,South Korea","phones":"+8223659010","fax":"+8223923724","email":"service@stay7mapo.com","url":"http://www.stay7mapo.com/html/eng/wc/index.html","countryIso2":"KR","countryName":"South Korea","hotelRating":"3","latitude":"37.5522","longitude":"126.956","state_id":3849,"state_name":"Seoul","country_id":116},{"active":false,"Giataid":"132659","cityId":65527,"cityName":"Ulsan","hotelId":132659,"hotelName":"Hotel Hyundai Ulsan","address":"875 Bangeojinsunhwando-ro,Dong-gu,Ulsan,South Korea","phones":"+82522512233","fax":"+82522327170","email":"hotelhyundaiulsan@hhi.co.kr","url":"http://www.hyundaihotel.com/ulsan_en/index.jsp","countryIso2":"KR","countryName":"South Korea","hotelRating":"4","latitude":"35.5197","longitude":"129.43","state_id":3852,"state_name":"Ulsan","country_id":116},{"active":false,"Giataid":"134304","cityId":65498,"cityName":"Seoul","hotelId":134304,"hotelName":"Ellui Hotel","address":"129 Cheongdam-dong,Gangnam-gu,Seoul,South Korea","phones":"+8225143535","fax":"+82234473535","email":"","url":"http://www.ellui.com/","countryIso2":"KR","countryName":"South Korea","hotelRating":"4","latitude":"37.5258","longitude":"127.054","state_id":3849,"state_name":"Seoul","country_id":116},{"active":false,"Giataid":"136667","cityId":65400,"cityName":"Incheon","hotelId":136667,"hotelName":"Hotel Sky Incheon Airport","address":"15, Sindosinam-ro 149beon-gil,Jung-gu,Incheon 22371,South Korea","phones":"+82327521101","fax":"+82327521109","email":"info@hotelsky.co.kr","url":"http://eng.hotelsky.co.kr/","countryIso2":"KR","countryName":"South Korea","hotelRating":"3","latitude":"37.4945","longitude":"126.489","state_id":3848,"state_name":"Incheon","country_id":116},{"active":false,"Giataid":"136856","cityId":65498,"cityName":"Seoul","hotelId":136856,"hotelName":"New Oriental","address":"Toegyero 14 Street 1,Subway 4line Myeong Dong Station,Jung-gu,Seoul 100-053,South Korea","phones":"+8227530701","fax":"","email":"","url":"","countryIso2":"KR","countryName":"South Korea","hotelRating":"2","latitude":"37.5604","longitude":"126.984","state_id":3849,"state_name":"Seoul","country_id":116},{"active":false,"Giataid":"136871","cityId":null,"cityName":"Cheju-Do","hotelId":136871,"hotelName":"Palace","address":"1192-18 Samdoi-dong,Jeju,Jeju Island,South Korea","phones":"+82647538811","fax":"","email":"","url":"http://www.trivago.de/jeju-si-101945/hotel/palace-jeju-596446","countryIso2":"KR","countryName":"South Korea","hotelRating":"3","latitude":"33.5168","longitude":"126.524","state_id":null,"state_name":null,"country_id":null},{"active":false,"Giataid":"136872","cityId":65498,"cityName":"Seoul","hotelId":136872,"hotelName":"Provista Hotel","address":"338 Seocho-daero,Seocho-gu,Seoul 06632,South Korea","phones":"+8225971140","fax":"+8225971170","email":"","url":"http://www.provista.co.kr","countryIso2":"KR","countryName":"South Korea","hotelRating":"4","latitude":"37.495","longitude":"127.019","state_id":3849,"state_name":"Seoul","country_id":116},{"active":false,"Giataid":"136873","cityId":65498,"cityName":"Seoul","hotelId":136873,"hotelName":"Hotel At Home","address":"200 Yeonji-Dong,Jongro-Gu,Seoul,South Korea","phones":"+8227624343","fax":"+8227624312","email":"","url":"","countryIso2":"KR","countryName":"South Korea","hotelRating":"2","latitude":"37.5727","longitude":"126.999","state_id":3849,"state_name":"Seoul","country_id":116},{"active":false,"Giataid":"136874","cityId":65498,"cityName":"Seoul","hotelId":136874,"hotelName":"Jamsil Tourist","address":"250-9 Jamsil-Dong,Songpa-Gu,Seoul,South Korea","phones":"+8224212761","fax":"+8224176836","email":"","url":"http://www.jshotel.co.kr/html/eng/wc/index.html","countryIso2":"KR","countryName":"South Korea","hotelRating":"2","latitude":"37.5049","longitude":"127.088","state_id":3849,"state_name":"Seoul","country_id":116},{"active":false,"Giataid":"136875","cityId":null,"cityName":"Cheju-Do","hotelId":136875,"hotelName":"Hotel Milano Crown","address":"103 Noyeon-ro,Jeju,South Korea","phones":"+82647467800","fax":"+82647467805","email":"","url":"","countryIso2":"KR","countryName":"South Korea","hotelRating":"3","latitude":"33.4858","longitude":"126.491","state_id":null,"state_name":null,"country_id":null},{"active":false,"Giataid":"136876","cityId":65490,"cityName":"Seogwipo","hotelId":136876,"hotelName":"Travellers","address":"30 Hoesu-dong,Seogwipo-si,Jeju-do,South Korea","phones":"+82647389000","fax":"+82647389009","email":"travellershtl@hanmail.net","url":"http://www.trivago.de/seogwipo-101957/hotel/travellers-jeju-596461","countryIso2":"KR","countryName":"South Korea","hotelRating":"4","latitude":"33.2861","longitude":"126.444","state_id":3853,"state_name":"Jeju","country_id":116},{"active":false,"Giataid":"136877","cityId":65297,"cityName":"Chuncheon","hotelId":136877,"hotelName":"Bears Tourist","address":"300-3 Samcheon-dong,Gangnam-dong,Chuncheon,South Korea","phones":"+82332562525","fax":"","email":"","url":"","countryIso2":"KR","countryName":"South Korea","hotelRating":"3","latitude":"37.8709","longitude":"127.699","state_id":3862,"state_name":"Gangwon Province","country_id":116},{"active":false,"Giataid":"136878","cityId":null,"cityName":"Cheju-Do","hotelId":136878,"hotelName":"New Kyung Nam","address":"314-1 Seogwi-dong,Seogwipo-si,Jeju-Do,South Korea","phones":"+8284647332121","fax":"+8284647332129","email":"","url":"","countryIso2":"KR","countryName":"South Korea","hotelRating":"3","latitude":"33.2467","longitude":"126.558","state_id":null,"state_name":null,"country_id":null},{"active":false,"Giataid":"136879","cityId":65400,"cityName":"Incheon","hotelId":136879,"hotelName":"Olympos Hotel","address":"257Jemullyang-ro,Jung-gu,Incheon,South Korea","phones":"+82327625181","fax":"+82327635281","email":"incheon@paradise.biz","url":"http://incheon.paradisehotel.co.kr/en/main/","countryIso2":"KR","countryName":"South Korea","hotelRating":"4","latitude":"37.4748","longitude":"126.618","state_id":3848,"state_name":"Incheon","country_id":116},{"active":false,"Giataid":"136880","cityId":65490,"cityName":"Seogwipo","hotelId":136880,"hotelName":"Daekuk Isleinn Hotel","address":"15 Jungjeong-ro 5beon-gil,Seogwipo 63592,Jeju Island,South Korea","phones":"+82647630002","fax":"+82647630055","email":"","url":"http://www.trivago.de/seogwipo-101957/hotel/daekuk-isleinn-jeju-596431","countryIso2":"KR","countryName":"South Korea","hotelRating":"3","latitude":"33.2488","longitude":"126.558","state_id":3853,"state_name":"Jeju","country_id":116},{"active":false,"Giataid":"136881","cityId":65441,"cityName":"Mokpo","hotelId":136881,"hotelName":"Shinan Beach Hotel","address":"440-4 Jukgyo-Dong,Mokpo,Jeollanam-do,South Korea","phones":"+82612433399","fax":"","email":"","url":"","countryIso2":"KR","countryName":"South Korea","hotelRating":"3","latitude":"34.7854","longitude":"126.369","state_id":3856,"state_name":"South Jeolla Province","country_id":116},{"active":false,"Giataid":"136882","cityId":null,"cityName":"Pusan","hotelId":136882,"hotelName":"Lord Beach Hotel","address":"20 Gunam-ro 30beon-gil,Haeundae-gu,Busan 48094,South Korea","phones":"+82517479911","fax":"+82517479920","email":"","url":"http://www.lordbeach.co.kr/","countryIso2":"KR","countryName":"South Korea","hotelRating":"3","latitude":"35.161","longitude":"129.16","state_id":null,"state_name":null,"country_id":null},{"active":false,"Giataid":"136883","cityId":65300,"cityName":"Daegu","hotelId":136883,"hotelName":"The Grand Hotel","address":"563-1 Beomeo 1-dong,Susung-gu,Daegu,South Korea","phones":"+82537420001","fax":"","email":"","url":"http://www.taegugrand.co.kr/grand/main/index.php","countryIso2":"KR","countryName":"South Korea","hotelRating":"4","latitude":"35.8578","longitude":"128.626","state_id":3846,"state_name":"Daegu","country_id":116},{"active":false,"Giataid":"136884","cityId":65498,"cityName":"Seoul","hotelId":136884,"hotelName":"Hotel Sunshine","address":"205 Dosan-daero,Gangnam-gu,Seoul,South Korea","phones":"+8225488222","fax":"+8225470777","email":"","url":"","countryIso2":"KR","countryName":"South Korea","hotelRating":"3","latitude":"37.5203","longitude":"127.029","state_id":3849,"state_name":"Seoul","country_id":116},{"active":false,"Giataid":"136885","cityId":65498,"cityName":"Seoul","hotelId":136885,"hotelName":"The California Hotel","address":"164 Bongeunsa-ro,Gangnam-gu,Seoul,South Korea","phones":"+8225534100","fax":"","email":"","url":"","countryIso2":"KR","countryName":"South Korea","hotelRating":"3","latitude":"37.5066","longitude":"127.032","state_id":3849,"state_name":"Seoul","country_id":116},{"active":false,"Giataid":"136886","cityId":65498,"cityName":"Seoul","hotelId":136886,"hotelName":"New Boolim Tourist Hotel","address":"620-27 Geunnong-dong,Dongdaemun-gu,Seoul,South Korea","phones":"+8229620021","fax":"+8229620025","email":"","url":"","countryIso2":"KR","countryName":"South Korea","hotelRating":"2","latitude":"37.5795","longitude":"127.045","state_id":3849,"state_name":"Seoul","country_id":116},{"active":false,"Giataid":"136887","cityId":65412,"cityName":"Jeonju","hotelId":136887,"hotelName":"Core","address":"627-3 Seonosong-dong,Deokjin-gu,Jeonju,South Korea","phones":"","fax":"","email":"","url":"","countryIso2":"KR","countryName":"South Korea","hotelRating":"4","latitude":"35.8252","longitude":"127.145","state_id":3851,"state_name":"North Jeolla Province","country_id":116},{"active":false,"Giataid":"136895","cityId":65512,"cityName":"Suwon","hotelId":136895,"hotelName":"Stay7 Suwon","address":"","phones":"","fax":"","email":"","url":"","countryIso2":"KR","countryName":"South Korea","hotelRating":"3","latitude":"37.2622","longitude":"127.031","state_id":3847,"state_name":"Gyeonggi Province","country_id":116},{"active":false,"Giataid":"136893","cityId":65498,"cityName":"Seoul","hotelId":136893,"hotelName":"Hotel Valentine","address":"1008-12 Doksan-dong,Geumcheon-gu,Seoul,South Korea","phones":"+8228958880","fax":"+8228956111","email":"","url":"http://www.hotelvalentine.co.kr/html/eng/wc/index.html","countryIso2":"KR","countryName":"South Korea","hotelRating":"2","latitude":"37.4652","longitude":"126.897","state_id":3849,"state_name":"Seoul","country_id":116},{"active":false,"Giataid":"136894","cityId":65512,"cityName":"Suwon","hotelId":136894,"hotelName":"Korea Tourist Hotel","address":"62 Gwongwang-ro 175beon-gil,Paldal-gu,Suwon 16490,Gyeonggi-do,South Korea","phones":"+82312215678","fax":"+82312217118","email":"webmaster@htkorea.co.kr","url":"http://www.htkorea.co.kr/ENG/DA/","countryIso2":"KR","countryName":"South Korea","hotelRating":"3","latitude":"37.2643","longitude":"127.029","state_id":3847,"state_name":"Gyeonggi Province","country_id":116},{"active":false,"Giataid":"136896","cityId":65504,"cityName":"Sokcho","hotelId":136896,"hotelName":"The Kensington Stars Hotel","address":"998 Seoraksan-ro,Sokcho 24903,Gangwon-do,South Korea","phones":"+82336354001","fax":"+82336354011","email":"kensington@kensington.co.kr","url":"http://www.kensington.co.kr/english/english.html","countryIso2":"KR","countryName":"South Korea","hotelRating":"4","latitude":"38.1732","longitude":"128.498","state_id":3862,"state_name":"Gangwon Province","country_id":116},{"active":false,"Giataid":"136897","cityId":65300,"cityName":"Daegu","hotelId":136897,"hotelName":"Saint Western","address":"","phones":"","fax":"","email":"","url":"","countryIso2":"KR","countryName":"South Korea","hotelRating":"4","latitude":"35.8547","longitude":"128.506","state_id":3846,"state_name":"Daegu","country_id":116},{"active":false,"Giataid":"136898","cityId":65512,"cityName":"Suwon","hotelId":136898,"hotelName":"Central Hotel","address":"1-2 Gyo-dong,Paldal-gu,Suwon,Gyeonggi-do,South Korea","phones":"+82312460011","fax":"+82312460018","email":"master@suwoncentral.com","url":"http://www.suwoncentral.com/english/main.php","countryIso2":"KR","countryName":"South Korea","hotelRating":"2","latitude":"37.2747","longitude":"127.016","state_id":3847,"state_name":"Gyeonggi Province","country_id":116},{"active":false,"Giataid":"136901","cityId":65498,"cityName":"Seoul","hotelId":136901,"hotelName":"Lifestyle L Hotel","address":"12 Gyeongin-ro 108-gil,Yeongdeungpo-gu,Seoul,South Korea","phones":"+82226751982","fax":"+82226750038","email":"","url":"","countryIso2":"KR","countryName":"South Korea","hotelRating":"2","latitude":"37.5172","longitude":"126.912","state_id":3849,"state_name":"Seoul","country_id":116},{"active":false,"Giataid":"136902","cityId":65406,"cityName":"Jeju City","hotelId":136902,"hotelName":"Ocean Grand","address":"1252-55 Hamdeok-ro,Jocheon-eup,Bukjeju-gun,Jeju-do,South Korea","phones":"+82647830007","fax":"+82647837133","email":"Webmaster@oceangrand.co.kr","url":"http://www.oceangrand.co.kr/english/main.asp","countryIso2":"KR","countryName":"South Korea","hotelRating":"3","latitude":"33.5426","longitude":"126.665","state_id":3853,"state_name":"Jeju","country_id":116},{"active":false,"Giataid":"136903","cityId":65400,"cityName":"Incheon","hotelId":136903,"hotelName":"Incheon Airport Oceanside","address":"128-17 Deokgyo-dong,Jung-gu,Incheon,South Korea","phones":"+82327460072","fax":"+82327467228","email":"info@oceanside.co.kr","url":"http://www.oceanside.co.kr/kr/index/","countryIso2":"KR","countryName":"South Korea","hotelRating":"4","latitude":"37.4265","longitude":"126.421","state_id":3848,"state_name":"Incheon","country_id":116},{"active":false,"Giataid":"136906","cityId":null,"cityName":"Pusan","hotelId":136906,"hotelName":"Hotel Libero","address":"1380-14 Joong-Dong,Haeundae-Gu,Busan,South Korea","phones":"+82517402111","fax":"+82517402100","email":"rivierahotel@hanmir.com","url":"http://www.rivierahotel.co.kr/EN/index.html","countryIso2":"KR","countryName":"South Korea","hotelRating":"3","latitude":"35.162","longitude":"129.161","state_id":null,"state_name":null,"country_id":null},{"active":false,"Giataid":"136908","cityId":null,"cityName":"Pusan","hotelId":136908,"hotelName":"Haeundae Centum Hotel","address":"20 Centum 3-ro,U-dong,Haeundae-gu,Busan 48060,South Korea","phones":"+82517209000","fax":"+82517209090","email":"","url":"","countryIso2":"KR","countryName":"South Korea","hotelRating":"4","latitude":"35.1682","longitude":"129.133","state_id":null,"state_name":null,"country_id":null},{"active":false,"Giataid":"136909","cityId":null,"cityName":"Pusan","hotelId":136909,"hotelName":"Hotel Illua","address":"97 Dalmaji-gil,Haeundae-gu,Busan 48117,South Korea","phones":"+82517441331","fax":"","email":"","url":"","countryIso2":"KR","countryName":"South Korea","hotelRating":"3","latitude":"35.1589","longitude":"129.175","state_id":null,"state_name":null,"country_id":null},{"active":false,"Giataid":"136910","cityId":65297,"cityName":"Chuncheon","hotelId":136910,"hotelName":"Chuncheon Sejong","address":"31 Bonguisan-gil,Chuncheon 24265,Gangwon-do,South Korea","phones":"","fax":"","email":"","url":"","countryIso2":"KR","countryName":"South Korea","hotelRating":"3","latitude":"37.8867","longitude":"127.731","state_id":3862,"state_name":"Gangwon Province","country_id":116},{"active":false,"Giataid":"136911","cityId":65498,"cityName":"Seoul","hotelId":136911,"hotelName":"Centro","address":"39 Hyoryeong-ro 55-gil,Seocho-gu,Seoul 06651,South Korea","phones":"+82234866000","fax":"+82234866022","email":"","url":"http://www.centrohotel.co.kr/index.php?module=Default&amp;action=English","countryIso2":"KR","countryName":"South Korea","hotelRating":"3","latitude":"37.4867","longitude":"127.014","state_id":3849,"state_name":"Seoul","country_id":116},{"active":false,"Giataid":"136912","cityId":65498,"cityName":"Seoul","hotelId":136912,"hotelName":"Friend Hotel","address":"345 Hyoryeong-ro,Seocho-gu,Seoul,South Korea","phones":"+8225217111","fax":"+8225217120","email":"","url":"","countryIso2":"KR","countryName":"South Korea","hotelRating":"3","latitude":"37.4833","longitude":"127.033","state_id":3849,"state_name":"Seoul","country_id":116},{"active":false,"Giataid":"136913","cityId":65498,"cityName":"Seoul","hotelId":136913,"hotelName":"CO-OP Residence Seocho","address":"1679-1 Seocho-dong,Seocho-gu,Seoul,South Korea","phones":"","fax":"","email":"","url":"","countryIso2":"KR","countryName":"South Korea","hotelRating":"3","latitude":"37.4952","longitude":"127.02","state_id":3849,"state_name":"Seoul","country_id":116},{"active":false,"Giataid":"136917","cityId":null,"cityName":"Kyongju","hotelId":136917,"hotelName":"Gyeongju Park Tourist","address":"170-1 Noseo-Dong,Gyeongju,South Korea","phones":"","fax":"","email":"","url":"","countryIso2":"KR","countryName":"South Korea","hotelRating":"2","latitude":"35.8392","longitude":"129.205","state_id":null,"state_name":null,"country_id":null},{"active":false,"Giataid":"136918","cityId":65498,"cityName":"Seoul","hotelId":136918,"hotelName":"Tiffany Tourist Hotel","address":"132-17 Cheongdam-dong,Gangnam-gu,Seoul,South Korea","phones":"+8225450015","fax":"+8225450426","email":"","url":"","countryIso2":"KR","countryName":"South Korea","hotelRating":"1","latitude":"37.5214","longitude":"127.057","state_id":3849,"state_name":"Seoul","country_id":116},{"active":false,"Giataid":"136920","cityId":65400,"cityName":"Incheon","hotelId":136920,"hotelName":"Best Western Incheon Royal Hotel","address":"367 Baekbeom-ro,Namdong-gu,Incheon,South Korea","phones":"+82324213300","fax":"+82324210473","email":"","url":"http://www.royalhotel.co.kr/","countryIso2":"KR","countryName":"South Korea","hotelRating":"4","latitude":"37.4652","longitude":"126.71","state_id":3848,"state_name":"Incheon","country_id":116},{"active":false,"Giataid":"136923","cityId":65300,"cityName":"Daegu","hotelId":136923,"hotelName":"Prince Hotel","address":"150 Myeongdeok-ro,Nam-gu,Daegu,South Korea","phones":"+82536281001","fax":"+82536282833","email":"","url":"http://www.princehotel.co.kr/","countryIso2":"KR","countryName":"South Korea","hotelRating":"2","latitude":"35.8566","longitude":"128.586","state_id":3846,"state_name":"Daegu","country_id":116},{"active":false,"Giataid":"136926","cityId":65498,"cityName":"Seoul","hotelId":136926,"hotelName":"Sunbee Hotel","address":"198-11 Gwanhun-dong,Seoul 03149,Jongno-gu,South Korea","phones":"+8227303451","fax":"","email":"","url":"","countryIso2":"KR","countryName":"South Korea","hotelRating":"3","latitude":"37.5728","longitude":"126.985","state_id":3849,"state_name":"Seoul","country_id":116},{"active":false,"Giataid":"136925","cityId":65498,"cityName":"Seoul","hotelId":136925,"hotelName":"Saerim","address":"192-17 Kwanhun-Dong,Jongro-Gu,Seoul,South Korea","phones":"","fax":"","email":"","url":"","countryIso2":"KR","countryName":"South Korea","hotelRating":"2","latitude":"37.5745","longitude":"126.978","state_id":3849,"state_name":"Seoul","country_id":116},{"active":false,"Giataid":"136931","cityId":65498,"cityName":"Seoul","hotelId":136931,"hotelName":"Gangnam Family Hotel","address":"143 Bongeunsa-ro,Gangnam-gu,Seoul 06122,South Korea","phones":"+82264741515","fax":"82-2-6474-1616","email":"","url":"http://dormy.co.kr/php/index.php?lan=en","countryIso2":"KR","countryName":"South Korea","hotelRating":"3","latitude":"37.5064","longitude":"127.03","state_id":3849,"state_name":"Seoul","country_id":116},{"active":false,"Giataid":"136936","cityId":65504,"cityName":"Sokcho","hotelId":136936,"hotelName":"Maremons","address":"245-5 Daepo-dong,Sokcho-si,Gangwon-do,South Korea","phones":"+82336307000","fax":"","email":"master@@hotelmaremons.com","url":"http://www.hotelmaremons.com","countryIso2":"KR","countryName":"South Korea","hotelRating":"4","latitude":"38.1669","longitude":"128.607","state_id":3862,"state_name":"Gangwon Province","country_id":116},{"active":false,"Giataid":"136938","cityId":65498,"cityName":"Seoul","hotelId":136938,"hotelName":"Niagara Hotel","address":"743 Yangcheon-ro,Gangseo-Gu,Seoul 07539,South Korea","phones":"+82236604000","fax":"+82236604010","email":"","url":"http://book.bestwestern.com/bestwestern/productInfo.do?propertyCode=99510","countryIso2":"KR","countryName":"South Korea","hotelRating":"5","latitude":"37.5491","longitude":"126.879","state_id":3849,"state_name":"Seoul","country_id":116},{"active":false,"Giataid":"136941","cityId":null,"cityName":"Cheju-Do","hotelId":136941,"hotelName":"Pearl Tourist","address":"277-2 Yeong-dong,Jeju,South Korea","phones":"","fax":"","email":"","url":"","countryIso2":"KR","countryName":"South Korea","hotelRating":"3","latitude":"33.4937","longitude":"126.523","state_id":null,"state_name":null,"country_id":null},{"active":false,"Giataid":"136942","cityId":65498,"cityName":"Seoul","hotelId":136942,"hotelName":"Mayfield Hotel","address":"94 Banghwadaero,Ganseo-gu,Seoul 07506,South Korea","phones":"+82226609000","fax":"+82226609001","email":"mayfield@mayfield.co.kr","url":"http://mayfield.co.kr/","countryIso2":"KR","countryName":"South Korea","hotelRating":"5","latitude":"37.5472","longitude":"126.819","state_id":3849,"state_name":"Seoul","country_id":116},{"active":false,"Giataid":"136943","cityId":65406,"cityName":"Jeju City","hotelId":136943,"hotelName":"Jeju Hawaii Hotel","address":"32 Sajang 3-gil,Jeju City 63136,Jeju-do,South Korea","phones":"+82647420061","fax":"+82647420064","email":"","url":"http://jejuhawaii.co.kr/eng/","countryIso2":"KR","countryName":"South Korea","hotelRating":"3","latitude":"33.4831","longitude":"126.491","state_id":3853,"state_name":"Jeju","country_id":116},{"active":false,"Giataid":"136945","cityId":65400,"cityName":"Incheon","hotelId":136945,"hotelName":"Zeumes","address":"2805-3 Incheon Airport town square,Jung-gu,Incheon,South Korea","phones":"+82327529600","fax":"+82327529604","email":"zeumes@paran.com","url":"http://www.hotelzeumes.co.kr/en/","countryIso2":"KR","countryName":"South Korea","hotelRating":"3","latitude":"37.4943","longitude":"126.493","state_id":3848,"state_name":"Incheon","country_id":116},{"active":false,"Giataid":"136950","cityId":null,"cityName":"Yangyang","hotelId":136950,"hotelName":"Naksan Beach","address":"3-2 Jeon Jinri,Ganghyeon-Myeon,Yangyang,Gangwon,South Korea","phones":"+82336724000","fax":"+82336724022","email":"hotel@naksanbeach.co.kr","url":"http://www.naksanbeach.co.kr/","countryIso2":"KR","countryName":"South Korea","hotelRating":"4","latitude":"38.1235","longitude":"128.63","state_id":null,"state_name":null,"country_id":null},{"active":false,"Giataid":"136953","cityId":null,"cityName":"Jecheon","hotelId":136953,"hotelName":"Cheong Pung Resort","address":"1798 Cheongpungho-ro,Cheongpung-myeon,Jecheon-si 27215,Chungcheongbug-do,South Korea","phones":"+82436407000","fax":"","email":"","url":"","countryIso2":"KR","countryName":"South Korea","hotelRating":"4","latitude":"37.016","longitude":"128.18","state_id":null,"state_name":null,"country_id":null},{"active":false,"Giataid":"136954","cityId":65498,"cityName":"Seoul","hotelId":136954,"hotelName":"Yim's House","address":"24 Yulgok-ro 10-gil,Jongno-gu,Seoul,South Korea","phones":"+8227473332","fax":"+8227448551","email":"yimshotel@gmail.com","url":"http://www.yimshouse.com/","countryIso2":"KR","countryName":"South Korea","hotelRating":"1","latitude":"37.5764","longitude":"126.991","state_id":3849,"state_name":"Seoul","country_id":116},{"active":false,"Giataid":"136957","cityId":65498,"cityName":"Seoul","hotelId":136957,"hotelName":"Biwon Hotel","address":"36 Wonnam-dong,Jongro-gu,Seoul,South Korea","phones":"+8227635555","fax":"+8227635554","email":"biwon@biwonhotel.com","url":"http://www.biwonhotel.com/","countryIso2":"KR","countryName":"South Korea","hotelRating":"3","latitude":"37.5757","longitude":"126.998","state_id":3849,"state_name":"Seoul","country_id":116},{"active":false,"Giataid":"136958","cityId":65498,"cityName":"Seoul","hotelId":136958,"hotelName":"Kyung Nam","address":"366-7 Changan-Dong,Tongdaemun-gu,Seoul,South Korea","phones":"+82222472500","fax":"+82222472496","email":"","url":"","countryIso2":"KR","countryName":"South Korea","hotelRating":"3","latitude":"37.5703","longitude":"127.071","state_id":3849,"state_name":"Seoul","country_id":116},{"active":false,"Giataid":"136961","cityId":null,"cityName":"Icheon","hotelId":136961,"hotelName":"Miranda Hotel","address":"45 Jungnicheon-ro 115beon-gil,Icheon 17372,Gyeonggi-do,South Korea","phones":"+82316395214","fax":"+82316332038","email":"","url":"http://www.trivago.de/icheon-101641/hotel/miranda-381976","countryIso2":"KR","countryName":"South Korea","hotelRating":"3","latitude":"37.2761","longitude":"127.451","state_id":null,"state_name":null,"country_id":null},{"active":false,"Giataid":"136964","cityId":65498,"cityName":"Seoul","hotelId":136964,"hotelName":"CO-Op Residence Ohmokgyo","address":"43-14 2Gs Yangpyeong-Dong,Yeongdeungpo-Gu,Seoul,South Korea","phones":"+82221640200","fax":"+82221640203","email":"","url":"","countryIso2":"KR","countryName":"South Korea","hotelRating":"3","latitude":"37.5258","longitude":"126.883","state_id":3849,"state_name":"Seoul","country_id":116},{"active":false,"Giataid":"136965","cityId":65344,"cityName":"Gongju","hotelId":136965,"hotelName":"Baekje Tourist Hotel","address":"433 Ssangbuk-ri,Buyeo-eup,Gongju,Chungcheongnam-do,South Korea","phones":"","fax":"","email":"","url":"","countryIso2":"KR","countryName":"South Korea","hotelRating":"3","latitude":"36.2919","longitude":"126.922","state_id":3859,"state_name":"South Chungcheong Province","country_id":116},{"active":false,"Giataid":"136966","cityId":65498,"cityName":"Seoul","hotelId":136966,"hotelName":"Olympiana","address":"44-5 Bangi-dong,Songpa-gu,Seoul,South Korea","phones":"","fax":"","email":"","url":"","countryIso2":"KR","countryName":"South Korea","hotelRating":"2","latitude":"37.5502","longitude":"126.985","state_id":3849,"state_name":"Seoul","country_id":116},{"active":false,"Giataid":"136968","cityId":65301,"cityName":"Daejeon","hotelId":136968,"hotelName":"Hotel Yousung","address":"9 Oncheon-ro,Yuseong-gu,Daejeon,South Korea","phones":"+82428200100","fax":"","email":"yousunghotel@yahoo.co.kr","url":"http://www.yousunghotel.com/english/index.php","countryIso2":"KR","countryName":"South Korea","hotelRating":"4","latitude":"36.3562","longitude":"127.339","state_id":3850,"state_name":"Daejeon","country_id":116},{"active":false,"Giataid":"136972","cityId":null,"cityName":"Cheongju","hotelId":136972,"hotelName":"Grand Plaza Hotel","address":"500-3 Yulrang-dong,Sangdang-gu,Cheongju-si,Chungcheongbuk-do,South Korea","phones":"+8243290000","fax":"+82432901010","email":"","url":"http://www.ramadakorea.co.kr/","countryIso2":"KR","countryName":"South Korea","hotelRating":"4","latitude":"36.6666","longitude":"127.494","state_id":null,"state_name":null,"country_id":null},{"active":false,"Giataid":"136973","cityId":65498,"cityName":"Seoul","hotelId":136973,"hotelName":"Green World","address":"505-2 Deung Chon-Dong,Gang seo-gu,Seoul,South Korea","phones":"+82226531999","fax":"+82226511389","email":"webmaster@hotelgreenworld.co.kr","url":"http://www.hotelgreenworld.co.kr/","countryIso2":"KR","countryName":"South Korea","hotelRating":"3","latitude":"37.5515","longitude":"126.863","state_id":3849,"state_name":"Seoul","country_id":116},{"active":false,"Giataid":"136974","cityId":65498,"cityName":"Seoul","hotelId":136974,"hotelName":"Cheongdam Human Starville","address":"454 Dosan-daero,Gangnam-gu,Seoul 06062,South Korea","phones":"+8225560070","fax":"","email":"","url":"http://www.humanstarville.com/en/chungdam","countryIso2":"KR","countryName":"South Korea","hotelRating":"4","latitude":"37.5239","longitude":"127.046","state_id":3849,"state_name":"Seoul","country_id":116},{"active":false,"Giataid":"136976","cityId":null,"cityName":"Wonju","hotelId":136976,"hotelName":"Chiaksan","address":"555-1 Hakgok-ri,Wonju,Gangwon-do,South Korea","phones":"","fax":"","email":"","url":"","countryIso2":"KR","countryName":"South Korea","hotelRating":"3","latitude":"37.44","longitude":"128.05","state_id":null,"state_name":null,"country_id":null},{"active":false,"Giataid":"136978","cityId":null,"cityName":"Pusan","hotelId":136978,"hotelName":"Hotel Paragon","address":"46 Gwangjang-ro,Gwaebeop-dong,Sasang-gu,Busan 46972,South Korea","phones":"+82513282001","fax":"+82513282009","email":"webmaster@hotelparagon.com","url":"http://www.hotelparagon.com/","countryIso2":"KR","countryName":"South Korea","hotelRating":"4","latitude":"35.162","longitude":"128.981","state_id":null,"state_name":null,"country_id":null},{"active":false,"Giataid":"136980","cityId":65498,"cityName":"Seoul","hotelId":136980,"hotelName":"Young Dong","address":"144 Dosan-Daero,Gangnam-Gu,Seoul,South Korea","phones":"+8225420112","fax":"+8225468409","email":"","url":"","countryIso2":"KR","countryName":"South Korea","hotelRating":"3","latitude":"37.518","longitude":"127.025","state_id":3849,"state_name":"Seoul","country_id":116},{"active":false,"Giataid":"136982","cityId":65498,"cityName":"Seoul","hotelId":136982,"hotelName":"Hotel Samjung","address":"150 Bongeunsa-ro,Gangnam-gu,Seoul,South Korea","phones":"+8225571221","fax":"+8225561126","email":"reserve@samjunghotel.co.kr","url":"http://samjunghotel.co.kr","countryIso2":"KR","countryName":"South Korea","hotelRating":"4","latitude":"37.5059","longitude":"127.031","state_id":3849,"state_name":"Seoul","country_id":116},{"active":false,"Giataid":"136983","cityId":65498,"cityName":"Seoul","hotelId":136983,"hotelName":"Human Starville Yeoksam","address":"606-18 Yeoksam-dong,Gangnam-gu,Seoul,South Korea","phones":"","fax":"","email":"","url":"","countryIso2":"KR","countryName":"South Korea","hotelRating":"3","latitude":"37.5068","longitude":"127.034","state_id":3849,"state_name":"Seoul","country_id":116},{"active":false,"Giataid":"136984","cityId":65498,"cityName":"Seoul","hotelId":136984,"hotelName":"Riverside","address":"6-1 Jamwon-dong,Seocho-gu,Apgujeong / Cheongdam,Seoul,South Korea","phones":"+82-2-6710-1100","fax":"","email":"","url":"","countryIso2":"KR","countryName":"South Korea","hotelRating":"4","latitude":"37.4837","longitude":"127.032","state_id":3849,"state_name":"Seoul","country_id":116},{"active":false,"Giataid":"136985","cityId":65498,"cityName":"Seoul","hotelId":136985,"hotelName":"Seoul Rex Hotel","address":"65 Hoehyun-dong 1ga,Jung-gu,Myeong-dong,Seoul,South Korea","phones":"+8227523191","fax":"+8227559548","email":"","url":"http://www.hotelrex.co.kr/","countryIso2":"KR","countryName":"South Korea","hotelRating":"3","latitude":"37.5586","longitude":"126.981","state_id":3849,"state_name":"Seoul","country_id":116},{"active":false,"Giataid":"136986","cityId":65498,"cityName":"Seoul","hotelId":136986,"hotelName":"Donghwa Kims Hotel","address":"418 Segeomjeong-ro,66-50 Pyeongchang-dong,Seoul,Jongno-gu,South Korea","phones":"+8223790520","fax":"","email":"","url":"","countryIso2":"KR","countryName":"South Korea","hotelRating":"3","latitude":"37.6225","longitude":"126.927","state_id":3849,"state_name":"Seoul","country_id":116},{"active":false,"Giataid":"136988","cityId":65400,"cityName":"Incheon","hotelId":136988,"hotelName":"Cherbourg","address":"703-41Eulwang-dong,Jung-gu,Incheonsi,South Korea","phones":"+82327520013","fax":"","email":"","url":"","countryIso2":"KR","countryName":"South Korea","hotelRating":"2","latitude":"37.4441","longitude":"126.377","state_id":3848,"state_name":"Incheon","country_id":116},{"active":false,"Giataid":"136990","cityId":65504,"cityName":"Sokcho","hotelId":136990,"hotelName":"Sorak Park","address":"852-15 Seoraksan-ro,Sokcho 24903,Gangwon,South Korea","phones":"+82336367711","fax":"+82336367724","email":"reservations@sorakpark.co.kr","url":"http://www.hotelsorakpark.co.kr/eng/company/intro_hotel.asp","countryIso2":"KR","countryName":"South Korea","hotelRating":"4","latitude":"38.1684","longitude":"128.515","state_id":3862,"state_name":"Gangwon Province","country_id":116},{"active":false,"Giataid":"136991","cityId":null,"cityName":"Paju","hotelId":136991,"hotelName":"M","address":"768-10 Geumchon-dong,Paju-si,Gyeonggi-do,South Korea","phones":"+82319459111","fax":"+82319459128","email":"","url":"","countryIso2":"KR","countryName":"South Korea","hotelRating":"3","latitude":"37.76","longitude":"126.778","state_id":null,"state_name":null,"country_id":null},{"active":false,"Giataid":"136992","cityId":65400,"cityName":"Incheon","hotelId":136992,"hotelName":"Incheon Beach","address":"773-2 Eulwang-dong,Jung-gu,Incheon-si,South Korea","phones":"+82327511177","fax":"+82327511122","email":"webmarster@hotelib.co.kr","url":"http://www.hotelib.co.kr/english/e_main.php","countryIso2":"KR","countryName":"South Korea","hotelRating":"3","latitude":"37.451","longitude":"126.372","state_id":3848,"state_name":"Incheon","country_id":116},{"active":false,"Giataid":"136993","cityId":65498,"cityName":"Seoul","hotelId":136993,"hotelName":"CO-Op Residence Seoul Univ.","address":"861-7 Bongcheon 10-dong,Gwanak-gu,Seoul 150-050,South Korea","phones":"","fax":"","email":"","url":"","countryIso2":"KR","countryName":"South Korea","hotelRating":"3","latitude":"37.4827","longitude":"126.951","state_id":3849,"state_name":"Seoul","country_id":116},{"active":false,"Giataid":"136996","cityId":null,"cityName":"Pusan","hotelId":136996,"hotelName":"Phoenix","address":"54-1 Gudeok-ro,Jung-gu,Busan 48953,South Korea","phones":"+82512458061","fax":"+82512411523","email":"","url":"http://www.hotelphoenix.net/","countryIso2":"KR","countryName":"South Korea","hotelRating":"3","latitude":"35.0983","longitude":"129.03","state_id":null,"state_name":null,"country_id":null},{"active":false,"Giataid":"137001","cityId":65499,"cityName":"Siheung","hotelId":137001,"hotelName":"Bellagio Hotel","address":"4 Yeonseong-ro 13beon-gil,Siheung,South Korea","phones":"+82314047711","fax":"+82314047788","email":"bellagio@hotelbellagio.co.kr","url":"http://www.hotelbellagio.co.kr/","countryIso2":"KR","countryName":"South Korea","hotelRating":"3","latitude":"37.3904","longitude":"126.805","state_id":3847,"state_name":"Gyeonggi Province","country_id":116},{"active":false,"Giataid":"137002","cityId":65498,"cityName":"Seoul","hotelId":137002,"hotelName":"Olympic Parktel Seoul","address":"448 Olympic-ro,Songpa-gu,Seoul,South Korea","phones":"+8224102114","fax":"+8224102100","email":"","url":"http://www.parktel.co.kr/english/index.asp","countryIso2":"KR","countryName":"South Korea","hotelRating":"4","latitude":"37.5224","longitude":"127.116","state_id":3849,"state_name":"Seoul","country_id":116},{"active":false,"Giataid":"137004","cityId":65400,"cityName":"Incheon","hotelId":137004,"hotelName":"The Winners Incheon","address":"891 Eulwang-dong,Incheon,Jung-gu,South Korea","phones":"+82327521111","fax":"","email":"","url":"","countryIso2":"KR","countryName":"South Korea","hotelRating":"3","latitude":"37.461","longitude":"126.369","state_id":3848,"state_name":"Incheon","country_id":116},{"active":false,"Giataid":"137007","cityId":65284,"cityName":"Changwon","hotelId":137007,"hotelName":"Olympic Hotel","address":"97-1 Jungang-dong,Changwon,Gyeongsangnam-do,South Korea","phones":"","fax":"","email":"","url":"","countryIso2":"KR","countryName":"South Korea","hotelRating":"2","latitude":"35.2226","longitude":"128.678","state_id":3857,"state_name":"South Gyeongsang Province","country_id":116},{"active":false,"Giataid":"137042","cityId":65512,"cityName":"Suwon","hotelId":137042,"hotelName":"White Tourist Hotel","address":"Suwon,Gwonseon-gu,South Korea","phones":"","fax":"","email":"","url":"","countryIso2":"KR","countryName":"South Korea","hotelRating":"3","latitude":"37.2602","longitude":"127.023","state_id":3847,"state_name":"Gyeonggi Province","country_id":116},{"active":false,"Giataid":"137045","cityId":65498,"cityName":"Seoul","hotelId":137045,"hotelName":"Yoido","address":"10-3 Yeouido-dong,Yeongdeungpo-gu,Seoul,South Korea","phones":"+8227820121","fax":"+8227852510","email":"master@yoidohotel.co.kr","url":"http://www.changwonhotel.co.kr/hotel/korean/yoido/main.htm","countryIso2":"KR","countryName":"South Korea","hotelRating":"3","latitude":"37.5303","longitude":"126.925","state_id":3849,"state_name":"Seoul","country_id":116},{"active":false,"Giataid":"137049","cityId":65300,"cityName":"Daegu","hotelId":137049,"hotelName":"Gs Plaza","address":"","phones":"","fax":"","email":"","url":"","countryIso2":"KR","countryName":"South Korea","hotelRating":"4","latitude":"35.8824","longitude":"128.662","state_id":3846,"state_name":"Daegu","country_id":116},{"active":false,"Giataid":"137065","cityId":65300,"cityName":"Daegu","hotelId":137065,"hotelName":"Novotel Ambassador Daegu","address":"611 Gukchaebosang-ro,Jung-gu,Daegu 41913,South Korea","phones":"+82536641101","fax":"+82536641102","email":"info@novoteldaegu.com","url":"http://www.novotel.com/de/hotel-7038-novotel-daegu-city-centre/index.shtml","countryIso2":"KR","countryName":"South Korea","hotelRating":"4","latitude":"35.871","longitude":"128.598","state_id":3846,"state_name":"Daegu","country_id":116},{"active":false,"Giataid":"137071","cityId":65498,"cityName":"Seoul","hotelId":137071,"hotelName":"Hotel Airport","address":"11-21 Gonghang-dong,Gangseo-gu,Seoul,South Korea","phones":"+82226621113","fax":"+82226633355","email":"","url":"","countryIso2":"KR","countryName":"South Korea","hotelRating":"2","latitude":"37.5613","longitude":"126.815","state_id":3849,"state_name":"Seoul","country_id":116},{"active":false,"Giataid":"137079","cityId":65300,"cityName":"Daegu","hotelId":137079,"hotelName":"Crystal Hotel","address":"1910 Dalgubeol-daero,1196-1 Dulyu 1-dong,Dulyu-dong,Dalseo-gu,Gwang-yeog-si,Daegu,South Korea","phones":"+82536557799","fax":"+82536557007","email":"hotelcrystal@naver.com","url":"http://www.crystalhotel.co.kr/english/index.html","countryIso2":"KR","countryName":"South Korea","hotelRating":"3","latitude":"35.8618","longitude":"128.573","state_id":3846,"state_name":"Daegu","country_id":116},{"active":false,"Giataid":"137080","cityId":null,"cityName":"Cheju-Do","hotelId":137080,"hotelName":"Oriental","address":"1972 Samdo 2-Dong,Jeju-si,Jeju-do,South Korea","phones":"+82647528222","fax":"+82647529777","email":"rsv@oriental.co.kr","url":"http://www.oriental.co.kr/","countryIso2":"KR","countryName":"South Korea","hotelRating":"4","latitude":"33.5177","longitude":"126.52","state_id":null,"state_name":null,"country_id":null},{"active":false,"Giataid":"137081","cityId":null,"cityName":"Ansan","hotelId":137081,"hotelName":"Tae Pyung Yang","address":"11 Seoam-ro 2-gil,Sangnok-gu,Ansan-si 15581,Gyeonggi-do,South Korea","phones":"+82314174321","fax":"+82314174326","email":"","url":"http://tpyhotel.co.kr/eng/main/index.php","countryIso2":"KR","countryName":"South Korea","hotelRating":"3","latitude":"37.302","longitude":"126.851","state_id":null,"state_name":null,"country_id":null},{"active":false,"Giataid":"137104","cityId":65498,"cityName":"Seoul","hotelId":137104,"hotelName":"Hotel Kobos","address":"13-12 Yeoido-dong,Yeongdeungpo-gu,Seoul,South Korea","phones":"+8227829092","fax":"+8227829095","email":"info@koboshotel.com","url":"http://www.koboshotel.com/en/","countryIso2":"KR","countryName":"South Korea","hotelRating":"3","latitude":"37.5301","longitude":"126.921","state_id":3849,"state_name":"Seoul","country_id":116},{"active":false,"Giataid":"137161","cityId":65265,"cityName":"Asan","hotelId":137161,"hotelName":"Paradise Dogo Hotel","address":"Asan,Chungcheon,South Korea","phones":"","fax":"","email":"","url":"","countryIso2":"KR","countryName":"South Korea","hotelRating":"4","latitude":"36.7657","longitude":"126.887","state_id":3859,"state_name":"South Chungcheong Province","country_id":116},{"active":false,"Giataid":"137170","cityId":null,"cityName":"Boeun","hotelId":137170,"hotelName":"Lake Hills Songnisan","address":"305 Beopjusa-ro,Sokrisan-myeon,Boeun-gun 28908,Chungcheongbuk-do,South Korea","phones":"","fax":"","email":"","url":"","countryIso2":"KR","countryName":"South Korea","hotelRating":"4","latitude":"36.5346","longitude":"127.825","state_id":null,"state_name":null,"country_id":null},{"active":false,"Giataid":"137198","cityId":null,"cityName":"Bugok","hotelId":137198,"hotelName":"Lake Hills Bugok Resort","address":"213-19 Geomun-ri,Bugog-myeon,Changnyeong-gun,Gyeongnam,South Korea","phones":"+82555365181","fax":"","email":"","url":"","countryIso2":"KR","countryName":"South Korea","hotelRating":"4","latitude":"35.4406","longitude":"128.59","state_id":null,"state_name":null,"country_id":null},{"active":false,"Giataid":"137207","cityId":65473,"cityName":"Pyeongchang","hotelId":137207,"hotelName":"Kensington Flora","address":"231 Jingogae-ro,Jinbu,Pyeongchang,Gangwon,South Korea","phones":"+82333305000","fax":"+82333305123","email":"webmaster@kensingtonflorahotel.co.kr","url":"http://www.kensingtonflora.com","countryIso2":"KR","countryName":"South Korea","hotelRating":"4","latitude":"37.6887","longitude":"128.598","state_id":3862,"state_name":"Gangwon Province","country_id":116},{"active":false,"Giataid":"137211","cityId":65265,"cityName":"Asan","hotelId":137211,"hotelName":"The Cheil Hotel Onyang","address":"1462 Oncheon-daero,Asan 31506,Chungcheongnam-do,South Korea","phones":"+82415472500","fax":"+82415450006","email":"","url":"http://www.onyangpalacehotel.co.kr/","countryIso2":"KR","countryName":"South Korea","hotelRating":"4","latitude":"36.7823","longitude":"127","state_id":3859,"state_name":"South Chungcheong Province","country_id":116},{"active":false,"Giataid":"137239","cityId":null,"cityName":"Cheju-Do","hotelId":137239,"hotelName":"New Crown","address":"274-12 Yeon-dong,Jeju,Jeju-do,South Korea","phones":"+82647421001","fax":"+82647427466","email":"","url":"http://www.hotelnewcrown.co.kr/","countryIso2":"KR","countryName":"South Korea","hotelRating":"4","latitude":"33.4842","longitude":"126.49","state_id":null,"state_name":null,"country_id":null},{"active":false,"Giataid":"137244","cityId":65400,"cityName":"Incheon","hotelId":137244,"hotelName":"Sevilla","address":"2801-4 Incheon Airport Town Square,Jung-gu,Incheon 400-833,Seoul National Capital Area,South Korea","phones":"+82327521170","fax":"+82327521175","email":"hotel@hotelsv.co.kr","url":"http://www.hotelsevilla.co.kr/en/","countryIso2":"KR","countryName":"South Korea","hotelRating":"3","latitude":"37.4946","longitude":"126.492","state_id":3848,"state_name":"Incheon","country_id":116},{"active":false,"Giataid":"137265","cityId":65265,"cityName":"Asan","hotelId":137265,"hotelName":"Onyang Grand Hotel","address":"300-28 Oncheon-dong,Asan-si,Chungcheongnam-do,South Korea","phones":"+82415439711","fax":"+82415439729","email":"","url":"http://www.grand-hotel.co.kr/new/index.php","countryIso2":"KR","countryName":"South Korea","hotelRating":"4","latitude":"36.7835","longitude":"127.006","state_id":3859,"state_name":"South Chungcheong Province","country_id":116},{"active":false,"Giataid":"137327","cityId":65512,"cityName":"Suwon","hotelId":137327,"hotelName":"The Suite Place Serviced Residences","address":"52 Hyanggyo-ro,Paldal-gu,Suwon-si,Gyeonggi-do,South Korea","phones":"+82318881515","fax":"","email":"hoon@dormyinn.com","url":"http://www.dormyinn.com/xb01.htm","countryIso2":"KR","countryName":"South Korea","hotelRating":"3","latitude":"37.2694","longitude":"127.006","state_id":3847,"state_name":"Gyeonggi Province","country_id":116},{"active":false,"Giataid":"137329","cityId":65490,"cityName":"Seogwipo","hotelId":137329,"hotelName":"Haevichi Hotel & Resort Jeju","address":"537 Minsokhaean-ro,Pyoseon-myeon,Seogwipo-si 63629,Jeju-do,South Korea","phones":"+82647808100","fax":"+82647808115","email":"haevichi@haevichi.com","url":"http://haevichi.com/eng/","countryIso2":"KR","countryName":"South Korea","hotelRating":"4","latitude":"33.3231","longitude":"126.844","state_id":3853,"state_name":"Jeju","country_id":116},{"active":false,"Giataid":"137333","cityId":65498,"cityName":"Seoul","hotelId":137333,"hotelName":"Bali Tourist","address":"210 Pungseong-ro,Gangdong-gu,Seoul,South Korea","phones":"+8224841411","fax":"+8224886428","email":"","url":"","countryIso2":"KR","countryName":"South Korea","hotelRating":"2","latitude":"37.5291","longitude":"127.135","state_id":3849,"state_name":"Seoul","country_id":116},{"active":false,"Giataid":"137355","cityId":65490,"cityName":"Seogwipo","hotelId":137355,"hotelName":"Seogwipo KAL Hotel","address":"242 Chilsipri-ro,Seogwipo City,Jeju,South Korea","phones":"+82647332001","fax":"+82647339377","email":"kalhotel@airtotalsvc.com","url":"http://english.kalhotel.co.kr/file/seogwifo_comany01_1.asp","countryIso2":"KR","countryName":"South Korea","hotelRating":"4","latitude":"33.2465","longitude":"126.582","state_id":3853,"state_name":"Jeju","country_id":116},{"active":false,"Giataid":"137462","cityId":null,"cityName":"Cheju-Do","hotelId":137462,"hotelName":"Shinsung Resort","address":"989 Ieodo-ro","phones":"","fax":"","email":"","url":"","countryIso2":"KR","countryName":"South Korea","hotelRating":"3","latitude":"33.2424","longitude":"126.518","state_id":null,"state_name":null,"country_id":null},{"active":false,"Giataid":"137889","cityId":null,"cityName":"Cheju-Do","hotelId":137889,"hotelName":"Sunshine","address":"1040 Hamdeok-ri,Jocheon-eup,Jeju-si,South Korea","phones":"+82647804100","fax":"+82647842526","email":"","url":"http://jounsan.com/hotelsunshinejeju/sunshine_intro.html","countryIso2":"KR","countryName":"South Korea","hotelRating":"4","latitude":"33.5442","longitude":"126.662","state_id":null,"state_name":null,"country_id":null},{"active":false,"Giataid":"137896","cityId":65406,"cityName":"Jeju City","hotelId":137896,"hotelName":"Robero","address":"26 Gwandeok-ro,Jeju City 63168,Jeju,South Korea","phones":"+82647577111","fax":"+82647559001","email":"robero@roberohotel.com","url":"http://www.roberohotel.com/","countryIso2":"KR","countryName":"South Korea","hotelRating":"3","latitude":"33.5128","longitude":"126.522","state_id":3853,"state_name":"Jeju","country_id":116},{"active":false,"Giataid":"137896","cityId":65406,"cityName":"Jeju City","hotelId":137896,"hotelName":"Robero","address":"26 Gwandeok-ro,Jeju City 63168,Jeju,South Korea","phones":"+82647577111","fax":"+82647559001","email":"robero@roberohotel.com","url":"http://www.roberohotel.com/","countryIso2":"KR","countryName":"South Korea","hotelRating":"3","latitude":"33.5128","longitude":"126.522","state_id":3853,"state_name":"Jeju","country_id":116},{"active":false,"Giataid":"137900","cityId":65362,"cityName":"Gwangju","hotelId":137900,"hotelName":"Mudeung Park","address":"63-1-san Jisan-dong,Dong-gu,Gwangju,South Korea","phones":"+8262226001","fax":"","email":"","url":"http://www.hotelmudeungpark.co.kr/","countryIso2":"KR","countryName":"South Korea","hotelRating":"4","latitude":"35.1488","longitude":"126.947","state_id":3858,"state_name":"Gwangju","country_id":116},{"active":false,"Giataid":"138333","cityId":65498,"cityName":"Seoul","hotelId":138333,"hotelName":"City Palace","address":"497-23 Dapsimni 5-dong,Dongdaemun,Seoul,South Korea","phones":"","fax":"","email":"","url":"","countryIso2":"KR","countryName":"South Korea","hotelRating":"2","latitude":"37.5692","longitude":"127.051","state_id":3849,"state_name":"Seoul","country_id":116},{"active":false,"Giataid":"138337","cityId":65498,"cityName":"Seoul","hotelId":138337,"hotelName":"Namdaemun Palace Hotel","address":"13 Toegye-ro 8-gil,Jung-gu,Seoul,South Korea","phones":"","fax":"","email":"","url":"","countryIso2":"KR","countryName":"South Korea","hotelRating":"3","latitude":"37.5586","longitude":"126.98","state_id":3849,"state_name":"Seoul","country_id":116},{"active":false,"Giataid":"138342","cityId":65498,"cityName":"Seoul","hotelId":138342,"hotelName":"Vabien I","address":"32-2 Uijuro 1-ga,Jung-gu,Seoul City,South Korea","phones":"","fax":"","email":"","url":"","countryIso2":"KR","countryName":"South Korea","hotelRating":"4","latitude":"37.5653","longitude":"126.968","state_id":3849,"state_name":"Seoul","country_id":116},{"active":false,"Giataid":"138348","cityId":65400,"cityName":"Incheon","hotelId":138348,"hotelName":"Incheon Airport June","address":"18 Sindosinam-ro 150beon-gil,Jung-gu,Incheon 22371,South Korea","phones":"+82327464417","fax":"+82327523239","email":"info@hoteljune.com","url":"http://www.hoteljune.com/en/","countryIso2":"KR","countryName":"South Korea","hotelRating":"3","latitude":"37.4945","longitude":"126.493","state_id":3848,"state_name":"Incheon","country_id":116},{"active":false,"Giataid":"138361","cityId":65400,"cityName":"Incheon","hotelId":138361,"hotelName":"Hotel Grand Incheon Airport","address":"Incheon,Jung-gu,South Korea","phones":"","fax":"","email":"","url":"","countryIso2":"KR","countryName":"South Korea","hotelRating":"2","latitude":"37.4966","longitude":"126.468","state_id":3848,"state_name":"Incheon","country_id":116},{"active":false,"Giataid":"138367","cityId":65300,"cityName":"Daegu","hotelId":138367,"hotelName":"Inter-Burgo Daegu","address":"300 Manchon-dong,Soosung-gu,Daegu 706-803 300,South Korea","phones":"+82536027114","fax":"","email":"","url":"http://ehotel.inter-burgo.com/","countryIso2":"KR","countryName":"South Korea","hotelRating":"5","latitude":"35.8737","longitude":"128.66","state_id":3846,"state_name":"Daegu","country_id":116},{"active":false,"Giataid":"142062","cityId":65498,"cityName":"Seoul","hotelId":142062,"hotelName":"California","address":"98-6 Garak-Dong,Songpa-Gu,Seoul,South Korea","phones":"","fax":"","email":"","url":"","countryIso2":"KR","countryName":"South Korea","hotelRating":"3","latitude":"37.4941","longitude":"127.119","state_id":3849,"state_name":"Seoul","country_id":116},{"active":false,"Giataid":"142063","cityId":65297,"cityName":"Chuncheon","hotelId":142063,"hotelName":"Chuncheon Tourist Hotel","address":"12 Jungang-lo 68beon-gil,Chuncheon,Gangwon-do,South Korea","phones":"+82332571900","fax":"","email":"","url":"","countryIso2":"KR","countryName":"South Korea","hotelRating":"3","latitude":"37.8801","longitude":"127.726","state_id":3862,"state_name":"Gangwon Province","country_id":116},{"active":false,"Giataid":"142065","cityId":65498,"cityName":"Seoul","hotelId":142065,"hotelName":"Coatel Chereville","address":"11 Gangnam-daero 53-gil,Seocho-gu,Seoul,South Korea","phones":"+82262883333","fax":"+82262883700","email":"","url":"http://coatel.co.kr/english/home/home.html","countryIso2":"KR","countryName":"South Korea","hotelRating":"3","latitude":"37.4939","longitude":"127.028","state_id":3849,"state_name":"Seoul","country_id":116},{"active":false,"Giataid":"142075","cityId":null,"cityName":"Kyongju","hotelId":142075,"hotelName":"Hyundai","address":"338 Bomun-ro,Gyeongju-si 38117,Gyeongsangbuk-do,South Korea","phones":"+82547482233","fax":"+82547488234","email":"","url":"http://www.hyundaihotel.com/gyeongju_en/","countryIso2":"KR","countryName":"South Korea","hotelRating":"5","latitude":"35.8505","longitude":"129.277","state_id":null,"state_name":null,"country_id":null},{"active":false,"Giataid":"142076","cityId":65347,"cityName":"Goseong","hotelId":142076,"hotelName":"I Park Condominium","address":"75-16 Goseong-daero,Toseong-myeon,Goseong,Gangwon-do,South Korea","phones":"+82336359300","fax":"+82220164599","email":"","url":"http://www.i-parkcondo.co.kr","countryIso2":"KR","countryName":"South Korea","hotelRating":"3","latitude":"38.2099","longitude":"128.508","state_id":3857,"state_name":"South Gyeongsang Province","country_id":116},{"active":false,"Giataid":"142101","cityId":65473,"cityName":"Pyeongchang","hotelId":142101,"hotelName":"Hotel Odaesan","address":"Pyeonchang,Gangwon-do,South Korea","phones":"","fax":"","email":"","url":"","countryIso2":"KR","countryName":"South Korea","hotelRating":"4","latitude":"37.5315","longitude":"128.442","state_id":3862,"state_name":"Gangwon Province","country_id":116},{"active":false,"Giataid":"142102","cityId":65265,"cityName":"Asan","hotelId":142102,"hotelName":"Onyang Hot Spring Hotel","address":"1459 Oncheon-daero,Asan-si 31507,Chungcheongnam-do,South Korea","phones":"+82415401000","fax":"","email":"","url":"","countryIso2":"KR","countryName":"South Korea","hotelRating":"4","latitude":"36.7833","longitude":"127","state_id":3859,"state_name":"South Chungcheong Province","country_id":116},{"active":false,"Giataid":"142103","cityId":65498,"cityName":"Seoul","hotelId":142103,"hotelName":"Hotel Prima Seoul","address":"536 Dosan-daero,Gangnam-Gu,Seoul 06071,South Korea","phones":"+82260069114","fax":"+8225448523","email":"","url":"http://www.prima.co.kr/","countryIso2":"KR","countryName":"South Korea","hotelRating":"4","latitude":"37.5243","longitude":"127.052","state_id":3849,"state_name":"Seoul","country_id":116},{"active":false,"Giataid":"142120","cityId":65498,"cityName":"Seoul","hotelId":142120,"hotelName":"Vista Walkerhill Seoul","address":"177, Walkerhill-ro,Gwangjin-gu,Seoul 04963,South Korea","phones":"+8224652222","fax":"+8224504989","email":"wseoul@whotels.com","url":"http://www.starwoodhotels.com/whotels/property/overview/index.html?propertyID=1451","countryIso2":"KR","countryName":"South Korea","hotelRating":"5","latitude":"37.5544","longitude":"127.111","state_id":3849,"state_name":"Seoul","country_id":116},{"active":false,"Giataid":"182505","cityId":65498,"cityName":"Seoul","hotelId":182505,"hotelName":"Eastgate Tower","address":"20 Jangchungdan-ro 13-gil,Jung-gu,Seoul 04563,South Korea","phones":"+82234070700","fax":"+82234070900","email":"booking@eastgatehotel.kr","url":"http://www.eastgatehotel.kr/","countryIso2":"KR","countryName":"South Korea","hotelRating":"4","latitude":"37.5686","longitude":"127.008","state_id":3849,"state_name":"Seoul","country_id":116},{"active":false,"Giataid":"187547","cityId":65512,"cityName":"Suwon","hotelId":187547,"hotelName":"ibis Ambassador Suwon","address":"132 Kwonkwang-ro,Paldal-gu,16491  Suwon,South Korea","phones":"+82312305000","fax":"+82312305007","email":"","url":"http://www.ibishotel.com/de/hotel-6528-ibis-suwon-ambassador/index.shtml","countryIso2":"KR","countryName":"South Korea","hotelRating":"3","latitude":"37.2593","longitude":"127.031","state_id":3847,"state_name":"Gyeonggi Province","country_id":116},{"active":false,"Giataid":"187687","cityId":null,"cityName":"Cheongju","hotelId":187687,"hotelName":"Cherbourg","address":"","phones":"","fax":"","email":"","url":"","countryIso2":"KR","countryName":"South Korea","hotelRating":"1","latitude":"36.642","longitude":"127.455","state_id":null,"state_name":null,"country_id":null},{"active":false,"Giataid":"187784","cityId":null,"cityName":"Cheju-Do","hotelId":187784,"hotelName":"Jeju Seoul Tourist Hotel","address":"1192-20 Samdo 2-dong,Jeju-si,Jeju Island,South Korea","phones":"+82647522211","fax":"+8227364578","email":"","url":"http://appleworld.com/hotelinfo/hotel/04006785","countryIso2":"KR","countryName":"South Korea","hotelRating":"3","latitude":"33.5168","longitude":"126.524","state_id":null,"state_name":null,"country_id":null},{"active":false,"Giataid":"201747","cityId":null,"cityName":"Pusan","hotelId":201747,"hotelName":"Toyoko Inn Busan Station 2","address":"125 Jungang-daero,Jung-gu,Busan 48924,South Korea","phones":"+82514421045","fax":"+82514421046","email":"","url":"http://www.toyoko-inn.com/e_hotel/00178/index.html","countryIso2":"KR","countryName":"South Korea","hotelRating":"3","latitude":"35.1089","longitude":"129.037","state_id":null,"state_name":null,"country_id":null},{"active":false,"Giataid":"202150","cityId":null,"cityName":"Kyongju","hotelId":202150,"hotelName":"Commodore Gyeongju","address":"422 Bomun-ro,Gyeongju-si,Gyeongsangbug-do,South Korea","phones":"+82547457701","fax":"+82547408260","email":"","url":"http://www.booking.com/hotel/kr/commodore-gyeongju.de.html","countryIso2":"KR","countryName":"South Korea","hotelRating":"4","latitude":"35.8447","longitude":"129.286","state_id":null,"state_name":null,"country_id":null},{"active":false,"Giataid":"226698","cityId":65498,"cityName":"Seoul","hotelId":226698,"hotelName":"Hotel Artnouveau Yeoksam","address":"506 Eonju-ro,Gangnam-gu,Seoul 06152,South Korea","phones":"+8225577100","fax":"+8225609011","email":"","url":"http://www.ancsr.com/","countryIso2":"KR","countryName":"South Korea","hotelRating":"4","latitude":"37.5035","longitude":"127.043","state_id":3849,"state_name":"Seoul","country_id":116},{"active":false,"Giataid":"226699","cityId":65498,"cityName":"Seoul","hotelId":226699,"hotelName":"Courtyard Seoul Times Square","address":"15 Yeongjung-ro,Yeongdeungpo-gu,Seoul 07305,South Korea","phones":"+82226383000","fax":"+82226383001","email":"","url":"http://www.marriott.de/hotels/travel/selcy-courtyard-seoul-times-square/","countryIso2":"KR","countryName":"South Korea","hotelRating":"4","latitude":"37.5174","longitude":"126.904","state_id":3849,"state_name":"Seoul","country_id":116},{"active":false,"Giataid":"226700","cityId":65400,"cityName":"Incheon","hotelId":226700,"hotelName":"Orakai Songdo Park Hotel","address":"93-1 Songdo-Dong,Incheon 406840,South Korea","phones":"+82322107000","fax":"+82322107100","email":"","url":"http://book.bestwestern.com/bestwestern/productInfo.do?propertyCode=99518","countryIso2":"KR","countryName":"South Korea","hotelRating":"5","latitude":"37.4194","longitude":"126.65","state_id":3848,"state_name":"Incheon","country_id":116},{"active":false,"Giataid":"226701","cityId":65498,"cityName":"Seoul","hotelId":226701,"hotelName":"Hotel Mare","address":"952-17 Dapsimni-dong,Dongdaemun-Gu,Seoul,South Korea","phones":"+82222148886","fax":"","email":"","url":"","countryIso2":"KR","countryName":"South Korea","hotelRating":"3","latitude":"37.5635","longitude":"127.057","state_id":3849,"state_name":"Seoul","country_id":116},{"active":false,"Giataid":"226804","cityId":65498,"cityName":"Seoul","hotelId":226804,"hotelName":"Dynasty","address":"202-7 Non Hyun-dong,Kangnam-gu,Seoul,South Korea","phones":"+8225403041","fax":"+8225403374","email":"info@dynastyhotel.co.kr","url":"http://www.hoteldynasty.co.kr/e_index.htm","countryIso2":"KR","countryName":"South Korea","hotelRating":"2","latitude":"37.5057","longitude":"127.028","state_id":3849,"state_name":"Seoul","country_id":116},{"active":false,"Giataid":"227193","cityId":65498,"cityName":"Seoul","hotelId":227193,"hotelName":"Imperial Palace Boutique Hotel","address":"221 Itaewon-ro,Yongsan-gu,Seoul,South Korea","phones":"+82237028000","fax":"+82237028099","email":"info@ipboutiquehotel.com","url":"http://ipboutiquehotel.com","countryIso2":"KR","countryName":"South Korea","hotelRating":"4","latitude":"37.5353","longitude":"126.998","state_id":3849,"state_name":"Seoul","country_id":116},{"active":false,"Giataid":"227374","cityId":65498,"cityName":"Seoul","hotelId":227374,"hotelName":"Hotel Nostalgia","address":"1110 Hwagok 6dong,Gangseo-gu,Seoul,South Korea","phones":"+82226910071","fax":"+82226926791","email":"nostalgia@seven.co.kr","url":"http://www.hotelnostalgia.co.kr/about/about_eng.php","countryIso2":"KR","countryName":"South Korea","hotelRating":"3","latitude":"37.5548","longitude":"126.852","state_id":3849,"state_name":"Seoul","country_id":116},{"active":false,"Giataid":"227376","cityId":65498,"cityName":"Seoul","hotelId":227376,"hotelName":"Gangnam Artnouveau City Hotel","address":"49 Seochodae-ro 74 gil,Seocho-gu,Seoul 06626,South Korea","phones":"+8225807300","fax":"+8225807510","email":"resv@ancsr.com","url":"http://www.ancsr.com/artcity2/eng/intro/introduction.asp","countryIso2":"KR","countryName":"South Korea","hotelRating":"4","latitude":"37.5032","longitude":"127.045","state_id":3849,"state_name":"Seoul","country_id":116},{"active":false,"Giataid":"227377","cityId":65498,"cityName":"Seoul","hotelId":227377,"hotelName":"Karak","address":"98-5 Karak Dong,Songpa-Gu,138161 Seoul,South Korea","phones":"","fax":"","email":"","url":"","countryIso2":"KR","countryName":"South Korea","hotelRating":"3","latitude":"37.4939","longitude":"127.121","state_id":3849,"state_name":"Seoul","country_id":116},{"active":false,"Giataid":"431097","cityId":65490,"cityName":"Seogwipo","hotelId":227973,"hotelName":"The Suites Hotel Jeju","address":"2812-10  Saekdal-dong,Seogwipo-si 63535,Jeju-do,South Korea","phones":"+82647383800","fax":"","email":"reservation@suites.co.kr","url":"http://www.suites.co.kr/index_eng.html","countryIso2":"KR","countryName":"South Korea","hotelRating":"5","latitude":"33.249","longitude":"126.408","state_id":3853,"state_name":"Jeju","country_id":116},{"active":false,"Giataid":"230182","cityId":65498,"cityName":"Seoul","hotelId":230182,"hotelName":"Blue Pearl Hotel","address":"129-3 Cheongdam-dong,Gangnam-gu,Seoul,South Korea","phones":"","fax":"","email":"","url":"","countryIso2":"KR","countryName":"South Korea","hotelRating":"3","latitude":"37.5256","longitude":"127.054","state_id":3849,"state_name":"Seoul","country_id":116},{"active":false,"Giataid":"232334","cityId":65512,"cityName":"Suwon","hotelId":232334,"hotelName":"Ramada Plaza Suwon","address":"940 Ingye-dong,Paldal-gu,Suwon,South Korea","phones":"+82312300001","fax":"+82312300004","email":"reservation@ramadasuwon.com","url":"http://www.ramada.com/Ramada/control/Booking/property_info?propertyId=23973","countryIso2":"KR","countryName":"South Korea","hotelRating":"4","latitude":"37.278","longitude":"127.033","state_id":3847,"state_name":"Gyeonggi Province","country_id":116},{"active":false,"Giataid":"232370","cityId":65498,"cityName":"Seoul","hotelId":232370,"hotelName":"Hankang Hotel","address":"147 Achasan-ro 78-gil,Seoul,South Korea","phones":"","fax":"","email":"","url":"","countryIso2":"KR","countryName":"South Korea","hotelRating":"3","latitude":"37.5482","longitude":"127.109","state_id":3849,"state_name":"Seoul","country_id":116},{"active":false,"Giataid":"232372","cityId":65498,"cityName":"Seoul","hotelId":232372,"hotelName":"Metro Hotel","address":"14 Myeong-dong 9ga-Gil,Jung-gu,Seoul 04534,South Korea","phones":"+8227521112","fax":"+8227574411","email":"reservation@metrohotel.co.kr","url":"http://www.metrohotel.co.kr/index_eng.php?menu=contactus&amp;lang=eng","countryIso2":"KR","countryName":"South Korea","hotelRating":"3","latitude":"37.565","longitude":"126.984","state_id":3849,"state_name":"Seoul","country_id":116},{"active":false,"Giataid":"232876","cityId":65400,"cityName":"Incheon","hotelId":232876,"hotelName":"Incheon Airtel","address":"3 Sindosinam-ro 149beon-gil,Jung-gu,Incheon 22371,South Korea","phones":"+82327510006","fax":"+82327521133","email":"info@hotelairpark.com","url":"http://www.hotelairpark.com/en/","countryIso2":"KR","countryName":"South Korea","hotelRating":"4","latitude":"37.4945","longitude":"126.49","state_id":3848,"state_name":"Incheon","country_id":116},{"active":false,"Giataid":"233571","cityId":65498,"cityName":"Seoul","hotelId":233571,"hotelName":"Benikea Hotel Acacia","address":"360 Dongho-ro,Jung-gu,Seoul 04561,South Korea","phones":"+82222774917","fax":"+82222774730","email":"","url":"http://www.hotelacacia.co.kr/eng/html/wc/index.asp","countryIso2":"KR","countryName":"South Korea","hotelRating":"3","latitude":"37.5667","longitude":"127.003","state_id":3849,"state_name":"Seoul","country_id":116},{"active":false,"Giataid":"233572","cityId":65498,"cityName":"Seoul","hotelId":233572,"hotelName":"Hotel Skypark Myeongdong I","address":"15 Myeongdong 8na-gil,Jung-gu,Seoul,South Korea","phones":"+82269009301","fax":"+82296009309","email":"","url":"http://www.skyparkhotel.com/eng/html/a/02.asp","countryIso2":"KR","countryName":"South Korea","hotelRating":"3","latitude":"37.5612","longitude":"126.984","state_id":3849,"state_name":"Seoul","country_id":116},{"active":false,"Giataid":"233576","cityId":65400,"cityName":"Incheon","hotelId":233576,"hotelName":"Songdo Bridge Hotel","address":"233 Convensia-daero,Yeonsu-gu,Incheon 22011,South Korea","phones":"+82322103000","fax":"+82322103300","email":"info@songdobridgehotel.com","url":"http://www.songdobridgehotel.com/","countryIso2":"KR","countryName":"South Korea","hotelRating":"4","latitude":"37.3845","longitude":"126.639","state_id":3848,"state_name":"Incheon","country_id":116},{"active":false,"Giataid":"234059","cityId":65362,"cityName":"Gwangju","hotelId":234059,"hotelName":"Shin Yang Park Hotel","address":"20-8 Jisan-Dong,Dong-Gu,501150 Gwangju,South Korea","phones":"","fax":"","email":"","url":"","countryIso2":"KR","countryName":"South Korea","hotelRating":"4","latitude":"35.1665","longitude":"126.87","state_id":3858,"state_name":"Gwangju","country_id":116},{"active":false,"Giataid":"234074","cityId":65300,"cityName":"Daegu","hotelId":234074,"hotelName":"Hotel Inter Burgo Exco","address":"702-845 Sangyeok 2-dong,Buk-gu,Daegu,South Korea","phones":"+82533800114","fax":"+82533800109","email":"hotelexco@inter-burgo.com","url":"http://jpn.ibexco.net/eng/index.html","countryIso2":"KR","countryName":"South Korea","hotelRating":"4","latitude":"35.9069","longitude":"128.611","state_id":3846,"state_name":"Daegu","country_id":116},{"active":false,"Giataid":"234317","cityId":65512,"cityName":"Suwon","hotelId":234317,"hotelName":"Hotel Amour & Symphony","address":"9 Bandal-ro 128beon-gil,Yeongtong-gu,Suwon 16704,Gyeonggi-do,South Korea","phones":"+82312062106","fax":"+82312060944","email":"info@amourhotel.com","url":"http://www.amourhotel.com/en/","countryIso2":"KR","countryName":"South Korea","hotelRating":"3","latitude":"37.2546","longitude":"127.075","state_id":3847,"state_name":"Gyeonggi Province","country_id":116},{"active":false,"Giataid":"234318","cityId":65400,"cityName":"Incheon","hotelId":234318,"hotelName":"Charis Hotel","address":"28 Gyeyang-daero,Gyeyang-gu,Incheon 21120,South Korea","phones":"+82325560880","fax":"+82325560834","email":"info@hotelcharis.co.kr","url":"http://www.hotelcharis.com/","countryIso2":"KR","countryName":"South Korea","hotelRating":"3","latitude":"37.5264","longitude":"126.723","state_id":3848,"state_name":"Incheon","country_id":116},{"active":false,"Giataid":"234319","cityId":65400,"cityName":"Incheon","hotelId":234319,"hotelName":"Harbor Park Hotel","address":"217 Jemullyang-ro,Jung-gu,Incheon 22313,South Korea","phones":"+82327709500","fax":"+82327709506","email":"","url":"http://www.harborparkhotel.com/eng/","countryIso2":"KR","countryName":"South Korea","hotelRating":"4","latitude":"37.4724","longitude":"126.62","state_id":3848,"state_name":"Incheon","country_id":116},{"active":false,"Giataid":"234320","cityId":65400,"cityName":"Incheon","hotelId":234320,"hotelName":"Sheraton Incheon","address":"153 Convensia,Yeonsu-gu,Incheon 21998,South Korea","phones":"+82328351000","fax":"+82328351001","email":"sheraton.incheon@sheraton.com","url":"http://www.starwoodhotels.com/sheraton/property/overview/index.html?propertyID=3342","countryIso2":"KR","countryName":"South Korea","hotelRating":"5","latitude":"37.3906","longitude":"126.645","state_id":3848,"state_name":"Incheon","country_id":116},{"active":false,"Giataid":"234322","cityId":65490,"cityName":"Seogwipo","hotelId":234322,"hotelName":"Shineville Resort","address":"6347-17 Iljudong-ro,Pyoseon-myeon,Seogwipo-si 63626,Jeju-do,South Korea","phones":"+8215884888","fax":"","email":"","url":"","countryIso2":"KR","countryName":"South Korea","hotelRating":"4","latitude":"33.306","longitude":"126.792","state_id":3853,"state_name":"Jeju","country_id":116},{"active":false,"Giataid":"234478","cityId":65498,"cityName":"Seoul","hotelId":234478,"hotelName":"Best Western Premier Guro Hotel","address":"1128-1 Guro-dong,Guro-gu,Seoul,South Korea","phones":"+82269059500","fax":"+82269059509","email":"","url":"http://book.bestwestern.com/bestwestern/productInfo.do?propertyCode=99519","countryIso2":"KR","countryName":"South Korea","hotelRating":"4","latitude":"37.4842","longitude":"126.896","state_id":3849,"state_name":"Seoul","country_id":116},{"active":false,"Giataid":"234482","cityId":null,"cityName":"Cheongju","hotelId":234482,"hotelName":"Hotel Gallery","address":"607 Jikji-daero,Heungdeok-gu,Cheongju-si 28452,Chungcheongbuk-do,South Korea","phones":"+82432671121","fax":"+82432639532","email":"info@newgalleryhotel.com","url":"http://www.newgalleryhotel.com","countryIso2":"KR","countryName":"South Korea","hotelRating":"3","latitude":"36.6431","longitude":"127.46","state_id":null,"state_name":null,"country_id":null},{"active":false,"Giataid":"234483","cityId":65498,"cityName":"Seoul","hotelId":234483,"hotelName":"BENIKEA Hotel FLOWER","address":"269 Wangsan-Ro,Dongdaemun-Gu,130-866 Seoul,South Korea","phones":"+8229628251","fax":"","email":"","url":"","countryIso2":"KR","countryName":"South Korea","hotelRating":"2","latitude":"37.5848","longitude":"127.05","state_id":3849,"state_name":"Seoul","country_id":116},{"active":false,"Giataid":"234485","cityId":65498,"cityName":"Seoul","hotelId":234485,"hotelName":"Hill House Hotel","address":"42 Sogong-ro 3-gil,Jung-gu,Seoul,South Korea","phones":"","fax":"","email":"","url":"","countryIso2":"KR","countryName":"South Korea","hotelRating":"3","latitude":"37.5568","longitude":"126.982","state_id":3849,"state_name":"Seoul","country_id":116},{"active":false,"Giataid":"234488","cityId":65498,"cityName":"Seoul","hotelId":234488,"hotelName":"Hotel Biz Jongro Insadong","address":"7 Samil-daero 26-gil,Jongno-gu,Seoul 110-320,South Korea","phones":"","fax":"","email":"","url":"","countryIso2":"KR","countryName":"South Korea","hotelRating":"2","latitude":"37.573","longitude":"126.988","state_id":3849,"state_name":"Seoul","country_id":116},{"active":false,"Giataid":"234489","cityId":65498,"cityName":"Seoul","hotelId":234489,"hotelName":"Hotel Cutee, Gangnam","address":"48 Seolleung-ro 90-gil,Gangnam-gu,Seoul 06193,South Korea","phones":"","fax":"","email":"","url":"","countryIso2":"KR","countryName":"South Korea","hotelRating":"2","latitude":"37.505","longitude":"127.053","state_id":3849,"state_name":"Seoul","country_id":116},{"active":false,"Giataid":"234491","cityId":65498,"cityName":"Seoul","hotelId":234491,"hotelName":"KPop Hotel","address":"547 Eonju-ro,Gangnam-gu,135913,Seoul,South Korea","phones":"+82220180015","fax":"+82220180018","email":"master@hotellamir.co.kr","url":"http://hotellamir.co.kr/","countryIso2":"KR","countryName":"South Korea","hotelRating":"3","latitude":"37.5067","longitude":"127.04","state_id":3849,"state_name":"Seoul","country_id":116},{"active":false,"Giataid":"234493","cityId":65498,"cityName":"Seoul","hotelId":234493,"hotelName":"Lotte City Mapo","address":"109 Mapo-daero,Mapo-gu,Seoul,South Korea","phones":"+82260091000","fax":"","email":"","url":"http://www.lottehotel.com/city/mapo/en/","countryIso2":"KR","countryName":"South Korea","hotelRating":"4","latitude":"37.5452","longitude":"126.95","state_id":3849,"state_name":"Seoul","country_id":116},{"active":false,"Giataid":"234495","cityId":65498,"cityName":"Seoul","hotelId":234495,"hotelName":"M. Biz","address":"11 Teheran-ro 79-gil,Gangnam-gu,Seoul,South Korea","phones":"+8225391722","fax":"","email":"","url":"","countryIso2":"KR","countryName":"South Korea","hotelRating":"2","latitude":"37.5076","longitude":"127.055","state_id":3849,"state_name":"Seoul","country_id":116},{"active":false,"Giataid":"234496","cityId":65498,"cityName":"Seoul","hotelId":234496,"hotelName":"Mate Hotel","address":"921-6 Hwagok1-Dong,Gangseo-gu,Seoul,South Korea","phones":"+82226051700","fax":"+82226913803","email":"","url":"http://hotel.partyon.co.kr/","countryIso2":"KR","countryName":"South Korea","hotelRating":"3","latitude":"37.5301","longitude":"126.841","state_id":3849,"state_name":"Seoul","country_id":116},{"active":false,"Giataid":"234497","cityId":65498,"cityName":"Seoul","hotelId":234497,"hotelName":"Amourex Hotel","address":"19 Wangsimni-ro 20-gil,Seongdong-gu,Seoul 04709,South Korea","phones":"+822229276345","fax":"+8229220963","email":"yoon8220@hanmail.net","url":"http://www.amourexhotel.com/","countryIso2":"KR","countryName":"South Korea","hotelRating":"3","latitude":"37.5636","longitude":"127.035","state_id":3849,"state_name":"Seoul","country_id":116},{"active":false,"Giataid":"235065","cityId":65512,"cityName":"Suwon","hotelId":235065,"hotelName":"Benikea Hotel Suwon","address":"9 Hyowon-ro 266beon-gil,Kwonsun-ku,Suwon-si,Gyeonggi-do,South Korea","phones":"+82312367112","fax":"+82312367009","email":"swmaster@joahotel.com","url":"http://www.joahotel.com/hotel/e_suwon.php","countryIso2":"KR","countryName":"South Korea","hotelRating":"3","latitude":"37.2613","longitude":"127.031","state_id":3847,"state_name":"Gyeonggi Province","country_id":116},{"active":false,"Giataid":"236568","cityId":65498,"cityName":"Seoul","hotelId":236568,"hotelName":"Banyan Tree Club & Spa Seoul","address":"60 JangChungdan-Ro,Jung-Gu,Seoul 04605,South Korea","phones":"+82222508000","fax":"+82222508009","email":"clubandspa-seoul@banyantree.com","url":"http://www.banyantree.com/en/seoul/spa/banyan_tree_spa_seoul","countryIso2":"KR","countryName":"South Korea","hotelRating":"5","latitude":"37.5502","longitude":"126.985","state_id":3849,"state_name":"Seoul","country_id":116},{"active":false,"Giataid":"236639","cityId":null,"cityName":"Haeundae Beach","hotelId":236639,"hotelName":"Sunset Business Hotel","address":"1391-66 9F~15F Joong-dong,Haeundae-gu,Busan 48094,South Korea","phones":"+82517309900","fax":"","email":"","url":"","countryIso2":"KR","countryName":"South Korea","hotelRating":"3","latitude":"35.1603","longitude":"129.162","state_id":null,"state_name":null,"country_id":null},{"active":false,"Giataid":"236641","cityId":65498,"cityName":"Seoul","hotelId":236641,"hotelName":"Ramada Seoul Dongdaemun","address":"354 Dongho-ro,Joong-gu,Seoul 100195,South Korea","phones":"+82222763500","fax":"","email":"","url":"","countryIso2":"KR","countryName":"South Korea","hotelRating":"4","latitude":"37.5665","longitude":"127.002","state_id":3849,"state_name":"Seoul","country_id":116},{"active":false,"Giataid":"236642","cityId":65498,"cityName":"Seoul","hotelId":236642,"hotelName":"New Chonji Hotel","address":"20 Eulji-ro 38-gil,Jung-gu,Seoul 04561,South Korea","phones":"+82222656131","fax":"","email":"","url":"","countryIso2":"KR","countryName":"South Korea","hotelRating":"2","latitude":"37.5658","longitude":"127.004","state_id":3849,"state_name":"Seoul","country_id":116},{"active":false,"Giataid":"236643","cityId":65498,"cityName":"Seoul","hotelId":236643,"hotelName":"Toyoko Inn Seoul Dongdaemun","address":"337 Toegye-ro,Jung-gu,Seoul,South Korea","phones":"+82222671045","fax":"+82222671046","email":"","url":"http://www.toyoko-inn.com/e_hotel/00208/index.html","countryIso2":"KR","countryName":"South Korea","hotelRating":"2","latitude":"37.5646","longitude":"127.009","state_id":3849,"state_name":"Seoul","country_id":116},{"active":false,"Giataid":"236797","cityId":65498,"cityName":"Seoul","hotelId":236797,"hotelName":"Tea Tree","address":"535-12 Sinsa-dong,Gangnam-gu,Seoul,South Korea","phones":"+8225429954","fax":"+8225129953","email":"info@teatreehotel.com","url":"http://www.teatreehotel.com/www/eng/sub_01.php","countryIso2":"KR","countryName":"South Korea","hotelRating":"3","latitude":"37.5193","longitude":"127.023","state_id":3849,"state_name":"Seoul","country_id":116},{"active":false,"Giataid":"236799","cityId":65498,"cityName":"Seoul","hotelId":236799,"hotelName":"La Casa","address":"527-2 Sinsa-dong,Gangnam-gu,Seoul,South Korea","phones":"+8225460088","fax":"","email":"","url":"","countryIso2":"KR","countryName":"South Korea","hotelRating":"4","latitude":"37.5222","longitude":"127.02","state_id":3849,"state_name":"Seoul","country_id":116},{"active":false,"Giataid":"236800","cityId":65498,"cityName":"Seoul","hotelId":236800,"hotelName":"Hangul House Seoul","address":"12-2 Hyoja-ro 7-gil,Jongno-gu,Seoul,South Korea","phones":"","fax":"","email":"","url":"","countryIso2":"KR","countryName":"South Korea","hotelRating":"2","latitude":"37.5786","longitude":"126.973","state_id":3849,"state_name":"Seoul","country_id":116},{"active":false,"Giataid":"236801","cityId":65498,"cityName":"Seoul","hotelId":236801,"hotelName":"Hotel Cozy Myoungdong","address":"61 Namdaemunsijang-gil,Jung-gu,Seoul 04529,South Korea","phones":"+8227738801","fax":"","email":"","url":"","countryIso2":"KR","countryName":"South Korea","hotelRating":"3","latitude":"37.5606","longitude":"126.98","state_id":3849,"state_name":"Seoul","country_id":116},{"active":false,"Giataid":"236802","cityId":65498,"cityName":"Seoul","hotelId":236802,"hotelName":"Kaya Tourist Hotel","address":"253 Hangang-daero,Yongsan-gu,Seoul 04322,South Korea","phones":"","fax":"","email":"","url":"","countryIso2":"KR","countryName":"South Korea","hotelRating":"3","latitude":"37.5409","longitude":"126.972","state_id":3849,"state_name":"Seoul","country_id":116},{"active":false,"Giataid":"237344","cityId":65498,"cityName":"Seoul","hotelId":237344,"hotelName":"Good Time Hotel","address":"104-41 Daehyeon-dong,Seodaemun-gu,Seoul,South Korea","phones":"","fax":"","email":"","url":"","countryIso2":"KR","countryName":"South Korea","hotelRating":"2","latitude":"37.5298","longitude":"126.842","state_id":3849,"state_name":"Seoul","country_id":116},{"active":false,"Giataid":"237345","cityId":null,"cityName":"Pusan","hotelId":237345,"hotelName":"Toyoko Inn Busan Seomyeon","address":"39 Seojeon-ro,Busanjin-gu,Busan,South Korea","phones":"+82516381045","fax":"+82516381046","email":"","url":"http://www.toyoko-inn.com/e_hotel/00221/index.html","countryIso2":"KR","countryName":"South Korea","hotelRating":"3","latitude":"35.1578","longitude":"129.064","state_id":null,"state_name":null,"country_id":null},{"active":false,"Giataid":"238174","cityId":65498,"cityName":"Seoul","hotelId":238174,"hotelName":"Seoul Ymca Tourist","address":"Jongno 2-Ga 9,Seoul,South Korea","phones":"+8227346884","fax":"+8227348003","email":"","url":"http://web.travel.rakuten.co.jp/portal/my/info_page_e.Eng?f_no=15533&amp;f_ptn1=&amp;f_teikei=","countryIso2":"KR","countryName":"South Korea","hotelRating":"2","latitude":"37.5705","longitude":"126.985","state_id":3849,"state_name":"Seoul","country_id":116},{"active":false,"Giataid":"238179","cityId":65498,"cityName":"Seoul","hotelId":238179,"hotelName":"Hotel Mare Gangnam","address":"409 Bongeunsa-ro,Gangnam-gu,Seoul,South Korea","phones":"","fax":"","email":"","url":"","countryIso2":"KR","countryName":"South Korea","hotelRating":"3","latitude":"37.5108","longitude":"127.045","state_id":3849,"state_name":"Seoul","country_id":116},{"active":false,"Giataid":"239349","cityId":65400,"cityName":"Incheon","hotelId":239349,"hotelName":"Incheon Airport Bridge","address":"507-8 Unnam-dong,Jung-gu,Inchoen,South Korea","phones":"+82327515450","fax":"+82327515459","email":"incheonbridgehotel@gmail.com","url":"http://www.incheonbridgehotel.com/en/","countryIso2":"KR","countryName":"South Korea","hotelRating":"3","latitude":"37.4942","longitude":"126.536","state_id":3848,"state_name":"Incheon","country_id":116},{"active":false,"Giataid":"239354","cityId":65498,"cityName":"Seoul","hotelId":239354,"hotelName":"Lifestyle R Hotel","address":"14 Gyeongin-ro 108-gil,Youngdeungpo-gu,Seoul,South Korea","phones":"+82226754800","fax":"","email":"","url":"http://www.r-hotel.co.kr/","countryIso2":"KR","countryName":"South Korea","hotelRating":"3","latitude":"37.5172","longitude":"126.912","state_id":3849,"state_name":"Seoul","country_id":116},{"active":false,"Giataid":"239362","cityId":65498,"cityName":"Seoul","hotelId":239362,"hotelName":"Hotel Skypark Myeongdong II","address":"22 Myeongdong 9-gil,Jung-gu,Seoul,South Korea","phones":"+8227550091","fax":"","email":"","url":"","countryIso2":"KR","countryName":"South Korea","hotelRating":"3","latitude":"37.5649","longitude":"126.985","state_id":3849,"state_name":"Seoul","country_id":116},{"active":false,"Giataid":"239365","cityId":65512,"cityName":"Suwon","hotelId":239365,"hotelName":"Hotel Starmade","address":"46-13 Hyowon-ro 235 beon-gil,Paldal-gu,Suwon 16490,Gyeonggi-do,South Korea","phones":"","fax":"","email":"","url":"","countryIso2":"KR","countryName":"South Korea","hotelRating":"2","latitude":"37.2648","longitude":"127.029","state_id":3847,"state_name":"Gyeonggi Province","country_id":116},{"active":false,"Giataid":"239971","cityId":65498,"cityName":"Seoul","hotelId":239971,"hotelName":"Hotel ArtnouveauSeocho","address":"357 Seocho-daero,Seocho-gu,Seoul,South Korea","phones":"+8225607101","fax":"","email":"","url":"","countryIso2":"KR","countryName":"South Korea","hotelRating":"4","latitude":"37.4934","longitude":"127.028","state_id":3849,"state_name":"Seoul","country_id":116},{"active":false,"Giataid":"240271","cityId":65498,"cityName":"Seoul","hotelId":240271,"hotelName":"Hotel Irene","address":"122 Bukchang-dong,Jung-gu,Seoul,South Korea","phones":"+8227711144","fax":"+8227719977","email":"info@hotelirene.co.kr","url":"http://www.hotelirene.co.kr/en/","countryIso2":"KR","countryName":"South Korea","hotelRating":"3","latitude":"37.5615","longitude":"126.977","state_id":3849,"state_name":"Seoul","country_id":116},{"active":false,"Giataid":"240272","cityId":65498,"cityName":"Seoul","hotelId":240272,"hotelName":"Hotel Irene City","address":"104 3,4 Floor,Bukchang-dong,Jung-gu,Seoul,South Korea","phones":"","fax":"","email":"","url":"","countryIso2":"KR","countryName":"South Korea","hotelRating":"2","latitude":"37.562","longitude":"126.977","state_id":3849,"state_name":"Seoul","country_id":116},{"active":false,"Giataid":"240273","cityId":65498,"cityName":"Seoul","hotelId":240273,"hotelName":"EZ Rent House Residence","address":"172 Singongdeok-Dong,Pentraus 105,Mapo,Seoul,South Korea","phones":"","fax":"","email":"","url":"","countryIso2":"KR","countryName":"South Korea","hotelRating":"3","latitude":"37.5431","longitude":"126.953","state_id":3849,"state_name":"Seoul","country_id":116},{"active":false,"Giataid":"240274","cityId":65512,"cityName":"Suwon","hotelId":240274,"hotelName":"Hotel Silkroad","address":"27-19 Ingye-ro 94beon-gil,Paldal-gu,Suwon,Gyeonggi,South Korea","phones":"+82312329981","fax":"","email":"","url":"","countryIso2":"KR","countryName":"South Korea","hotelRating":"3","latitude":"37.2667","longitude":"127.028","state_id":3847,"state_name":"Gyeonggi Province","country_id":116},{"active":false,"Giataid":"241681","cityId":65498,"cityName":"Seoul","hotelId":241681,"hotelName":"Sheraton Seoul D Cube City Hotel","address":"662 Gyeongin-ro,Guro-gu,Seoul 08209,South Korea","phones":"+82222112000","fax":"+82222112150","email":"sheratonseoul.dcube@sheraton.com","url":"http://www.starwoodhotels.com/sheraton/property/overview/index.html?propertyID=3569","countryIso2":"KR","countryName":"South Korea","hotelRating":"5","latitude":"37.5089","longitude":"126.89","state_id":3849,"state_name":"Seoul","country_id":116},