[{"active":false,"Giataid":"3814","cityId":31016,"cityName":"Soufriere","hotelId":3814,"hotelName":"Anse Chastanet","address":"PO Box 7000,Soufriere,St. Lucia,Saint Lucia","phones":"+17584597000","fax":"+17584597700","email":"ansechastanet@candw.lc","url":"http://www.ansechastanet.com/","countryIso2":"LC","countryName":"Saint Lucia","hotelRating":"4","latitude":"13.8651","longitude":"-61.0773","state_id":4077,"state_name":"Saint Mark Parish","country_id":61},{"active":false,"Giataid":"3815","cityId":66362,"cityName":"Rodney Bay","hotelId":3815,"hotelName":"Bay Gardens Hotel","address":"Rodney Bay Village,Gros Islet,Saint Lucia","phones":"+17584528060","fax":"+17584528059","email":"baygardens@candw.lc","url":"http://www.baygardenshotel.com/","countryIso2":"LC","countryName":"Saint Lucia","hotelRating":"3","latitude":"14.0683","longitude":"-60.9526","state_id":3766,"state_name":"Gros Islet Quarter","country_id":186},{"active":false,"Giataid":"3819","cityId":66362,"cityName":"Rodney Bay","hotelId":3819,"hotelName":"St Lucian by Rex Resorts","address":"PO Box 512,Rodney Bay,Reduit Beach,Castries,Gros Islet,Saint Lucia","phones":"+1758442087415333","fax":"+17584529639","email":"rstlslu@rexresorts.net","url":"http://www.rexresorts.com/_caribbean/_stlucia/_stlucian/index.html","countryIso2":"LC","countryName":"Saint Lucia","hotelRating":"3","latitude":"14.0717","longitude":"-60.9567","state_id":3766,"state_name":"Gros Islet Quarter","country_id":186},{"active":false,"Giataid":"3820","cityId":66362,"cityName":"Rodney Bay","hotelId":3820,"hotelName":"Royal By Rex Resorts","address":"Reduit Beach,Rodney Bay,LC01 405 Gros Islet,Saint Lucia","phones":"+17584528351","fax":"+17584529639","email":"rslslu@rexresorts.net","url":"http://www.rexresorts.com/_caribbean/_stlucia/_stlucian/index.html","countryIso2":"LC","countryName":"Saint Lucia","hotelRating":"4","latitude":"14.0749","longitude":"-60.9544","state_id":3766,"state_name":"Gros Islet Quarter","country_id":186},{"active":false,"Giataid":"3821","cityId":null,"cityName":"Cape Estate","hotelId":3821,"hotelName":"Royalton Saint Lucia","address":"Cap Estate,Gros Islet,Saint Lucia","phones":"+17587311000","fax":"","email":"","url":"","countryIso2":"LC","countryName":"Saint Lucia","hotelRating":"4","latitude":"14.0976","longitude":"-60.9497","state_id":null,"state_name":null,"country_id":null},{"active":false,"Giataid":"6923","cityId":null,"cityName":"Cape Estate","hotelId":6923,"hotelName":"The Orange Grove","address":"","phones":"","fax":"","email":"","url":"","countryIso2":"LC","countryName":"Saint Lucia","hotelRating":"4","latitude":"14.0976","longitude":"-60.9478","state_id":null,"state_name":null,"country_id":null},{"active":false,"Giataid":"6923","cityId":40597,"cityName":"Castries","hotelId":6923,"hotelName":"The Orange Grove","address":"","phones":"","fax":"","email":"","url":"","countryIso2":"LC","countryName":"Saint Lucia","hotelRating":"4","latitude":"14.0976","longitude":"-60.9478","state_id":4799,"state_name":"Occitanie","country_id":75},{"active":false,"Giataid":"6925","cityId":66362,"cityName":"Rodney Bay","hotelId":6925,"hotelName":"Blu St Lucia","address":"Reduit Beach,Gros Islet 3050,Rodney Bay Village,Saint Lucia","phones":"+17584569800","fax":"+17584583600","email":"reservations@villageinnstlucia.com","url":"http://www.villageinnandspa.com","countryIso2":"LC","countryName":"Saint Lucia","hotelRating":"3","latitude":"14.0773","longitude":"-60.9531","state_id":3766,"state_name":"Gros Islet Quarter","country_id":186},{"active":false,"Giataid":"6926","cityId":66184,"cityName":"Gros Islet","hotelId":6926,"hotelName":"St James's Club Morgan Bay","address":"Corinth Grand Riviere Road,Choc Bay,Corinth,Gros Islet,Windward Islands,Saint Lucia","phones":"+17584573700","fax":"+175812684603015","email":"reservations@almondresorts.com","url":"http://www.almondresorts.com/Resorts/AlmondMorgan/","countryIso2":"LC","countryName":"Saint Lucia","hotelRating":"4","latitude":"14.0406","longitude":"-60.9705","state_id":3766,"state_name":"Gros Islet Quarter","country_id":186},{"active":false,"Giataid":"9644","cityId":66362,"cityName":"Rodney Bay","hotelId":9644,"hotelName":"Candyo Inn","address":"Rodney Bay Village,St. Lucia,Saint Lucia","phones":"","fax":"","email":"","url":"","countryIso2":"LC","countryName":"Saint Lucia","hotelRating":"1","latitude":"14.0754","longitude":"-60.9514","state_id":3766,"state_name":"Gros Islet Quarter","country_id":186},{"active":false,"Giataid":"9697","cityId":null,"cityName":"Cape Estate","hotelId":9697,"hotelName":"Capri","address":"12 Cap Drive,Cap Estate,Gros Islet,Saint Lucia","phones":"","fax":"","email":"","url":"","countryIso2":"LC","countryName":"Saint Lucia","hotelRating":"3","latitude":"0","longitude":"0","state_id":null,"state_name":null,"country_id":null},{"active":false,"Giataid":"9697","cityId":null,"cityName":"Cape Estate","hotelId":9697,"hotelName":"Capri","address":"12 Cap Drive,Cap Estate,Gros Islet,Saint Lucia","phones":"","fax":"","email":"","url":"","countryIso2":"LC","countryName":"Saint Lucia","hotelRating":"3","latitude":"0","longitude":"0","state_id":null,"state_name":null,"country_id":null},{"active":false,"Giataid":"11836","cityId":40597,"cityName":"Castries","hotelId":11836,"hotelName":"East Winds Inn","address":"La Brelotte Bay,Gros Islet,P.O. Box 1477,Castries,Saint Lucia","phones":"+17584528212","fax":"+17584529941","email":"info@eastwinds.com","url":"http://www.eastwinds.com/home.php","countryIso2":"LC","countryName":"Saint Lucia","hotelRating":"4","latitude":"14.0546","longitude":"-60.9739","state_id":4799,"state_name":"Occitanie","country_id":75},{"active":false,"Giataid":"12955","cityId":66268,"cityName":"Mon Repos","hotelId":12955,"hotelName":"Fox Grove Inn","address":"","phones":"","fax":"","email":"","url":"","countryIso2":"LC","countryName":"Saint Lucia","hotelRating":"3","latitude":"13.8629","longitude":"-60.906","state_id":3762,"state_name":"Micoud Quarter","country_id":186},{"active":false,"Giataid":"13811","cityId":66362,"cityName":"Rodney Bay","hotelId":13811,"hotelName":"Harmony Suites","address":"P.O. Box 155,Castries,Rodney Bay,St. Lucia,West Indies,Saint Lucia","phones":"+17584528756","fax":"+17584528677","email":"harmony@candw.lc","url":"http://www.harmonysuites.com/","countryIso2":"LC","countryName":"Saint Lucia","hotelRating":"3","latitude":"14.0734","longitude":"-60.954","state_id":3766,"state_name":"Gros Islet Quarter","country_id":186},{"active":false,"Giataid":"14463","cityId":31016,"cityName":"Soufriere","hotelId":14463,"hotelName":"Hummingbird Beach Resort","address":"Anse Chastanet Rd.,P.O.Box 280,Soufriere,St. Lucia,West Indies,Saint Lucia","phones":"+17584597232","fax":"+17584597033","email":"hbr@candw.lc","url":"http://www.nvo.com/pitonresort","countryIso2":"LC","countryName":"Saint Lucia","hotelRating":"2","latitude":"13.8583","longitude":"-61.0622","state_id":4077,"state_name":"Saint Mark Parish","country_id":61},{"active":false,"Giataid":"15003","cityId":null,"cityName":"St. Lucia","hotelId":15003,"hotelName":"Sugar Beach, A Viceroy Resort","address":"Val des Pitons,PO Box 251,La Baie de Silence,Soufriere,Saint Lucia","phones":"+17584568000","fax":"+17584597667","email":"nicholas@thejalousieplantation.com","url":"http://www.jalousieplantation.com/","countryIso2":"LC","countryName":"Saint Lucia","hotelRating":"5","latitude":"13.8282","longitude":"-61.0602","state_id":null,"state_name":null,"country_id":null},{"active":false,"Giataid":"15839","cityId":31016,"cityName":"Soufriere","hotelId":15839,"hotelName":"Ladera Resort","address":"Rabot Estate,Soufriere LC09 101,Saint Lucia,Saint Lucia","phones":"+17584596600","fax":"+17584595156","email":"reservations@ladera.com","url":"http://www.ladera.com/","countryIso2":"LC","countryName":"Saint Lucia","hotelRating":"4","latitude":"13.8329","longitude":"-61.0519","state_id":4077,"state_name":"Saint Mark Parish","country_id":61},{"active":false,"Giataid":"16164","cityId":null,"cityName":"Cape Estate","hotelId":16164,"hotelName":"BodyHoliday","address":"Cariblue Beach,Cap Estate,Castries,Saint Lucia,West Indies,Saint Lucia","phones":"+17584577819","fax":"+17584500171","email":"reservations@thebodyholiday.com","url":"http://www.thebodyholiday.com","countryIso2":"LC","countryName":"Saint Lucia","hotelRating":"4","latitude":"14.1032","longitude":"-60.9472","state_id":null,"state_name":null,"country_id":null},{"active":false,"Giataid":"16900","cityId":null,"cityName":"St. Lucia","hotelId":16900,"hotelName":"Marigot Beach Club Hotel & Dive Resort","address":"Marigot Bay,Castries 123,St. Lucia,Saint Lucia","phones":"+17584514974","fax":"+17584514973","email":"reservations@marigotbeachclub.com","url":"http://www.marigotdiveresort.com","countryIso2":"LC","countryName":"Saint Lucia","hotelRating":"3","latitude":"13.9679","longitude":"-61.0257","state_id":null,"state_name":null,"country_id":null},{"active":false,"Giataid":"17024","cityId":66362,"cityName":"Rodney Bay","hotelId":17024,"hotelName":"Marlin Quay","address":"","phones":"","fax":"","email":"","url":"","countryIso2":"LC","countryName":"Saint Lucia","hotelRating":"3","latitude":"14.0754","longitude":"-60.9514","state_id":3766,"state_name":"Gros Islet Quarter","country_id":186},{"active":false,"Giataid":"20162","cityId":null,"cityName":"Malabar Beach","hotelId":20162,"hotelName":"Rendezvous","address":"Malabar Beach,PO Box 190,Castries,Saint Lucia","phones":"+17584577900","fax":"+17584527419","email":"reservations@theromanticholiday.com","url":"http://www.theromanticholiday.com/60/The_Romantic_Holiday_Home.htm","countryIso2":"LC","countryName":"Saint Lucia","hotelRating":"4","latitude":"14.0233","longitude":"-60.9845","state_id":null,"state_name":null,"country_id":null},{"active":false,"Giataid":"21028","cityId":40597,"cityName":"Castries","hotelId":21028,"hotelName":"Sandals Regency La Toc Golf Resort & Spa","address":"P.O. Box 399,Castries,West Indies,Saint Lucia","phones":"+17584523081","fax":"+17584521012","email":"","url":"http://www.sandals.com/general/resorts.cfm","countryIso2":"LC","countryName":"Saint Lucia","hotelRating":"5","latitude":"14.0083","longitude":"-61.0091","state_id":4799,"state_name":"Occitanie","country_id":75},{"active":false,"Giataid":"21029","cityId":40597,"cityName":"Castries","hotelId":21029,"hotelName":"Sandals Halcyon Beach St. Lucia","address":"P.O.Box GM910,Choc Bay,Castries,Saint Lucia,Saint Lucia","phones":"+17584530222","fax":"+17584518435","email":"","url":"http://www.sandals.com/main/halcyon/ha-home.cfm","countryIso2":"LC","countryName":"Saint Lucia","hotelRating":"4","latitude":"14.0315","longitude":"-60.9761","state_id":4799,"state_name":"Occitanie","country_id":75},{"active":false,"Giataid":"22226","cityId":31016,"cityName":"Soufriere","hotelId":22226,"hotelName":"Stonefield Estate Villa Resort","address":"Soufriere,St Lucia,Saint Lucia","phones":"+17584597037","fax":"+17587584595550","email":"reservations@stonefieldresort.com","url":"http://www.stonefieldresort.com/","countryIso2":"LC","countryName":"Saint Lucia","hotelRating":"4","latitude":"13.8444","longitude":"-61.0601","state_id":4077,"state_name":"Saint Mark Parish","country_id":61},{"active":false,"Giataid":"24470","cityId":null,"cityName":"La Brelotte Bay","hotelId":24470,"hotelName":"Windjammer Landing Villa Beach Resort","address":"P.O.Box 1504,Labrelotte Bay,Castries,Saint Lucia","phones":"+175818775220722","fax":"+17584529454","email":"reservations@windjammer-landing.com","url":"http://www.windjammer-landing.com","countryIso2":"LC","countryName":"Saint Lucia","hotelRating":"4","latitude":"14.0588","longitude":"-60.9744","state_id":null,"state_name":null,"country_id":null},{"active":false,"Giataid":"32010","cityId":66184,"cityName":"Gros Islet","hotelId":32010,"hotelName":"Sandals Grande St. Lucian","address":"P.O. Box G.I. 2247,Gros Islet,Saint Lucia,Saint Lucia","phones":"+17584552000","fax":"+17584552001","email":"","url":"http://www.sandals.com/main/grande/gl-home.cfm","countryIso2":"LC","countryName":"Saint Lucia","hotelRating":"5","latitude":"14.092","longitude":"-60.9587","state_id":3766,"state_name":"Gros Islet Quarter","country_id":186},{"active":false,"Giataid":"138084","cityId":66362,"cityName":"Rodney Bay","hotelId":138084,"hotelName":"Bay Gardens Inn","address":"Rodney Bay Village,Gros Islet,Saint Lucia","phones":"+17584528200","fax":"+17584528002","email":"baygardens@candw.lc","url":"http://www.baygardensinn.com","countryIso2":"LC","countryName":"Saint Lucia","hotelRating":"3","latitude":"14.0686","longitude":"-60.9531","state_id":3766,"state_name":"Gros Islet Quarter","country_id":186},{"active":false,"Giataid":"142064","cityId":66184,"cityName":"Gros Islet","hotelId":142064,"hotelName":"Club St. Lucia By Splash","address":"PO Box 915,Cap Estate Smugglers Village,Gros Islet,Saint Lucia","phones":"+17587584500551","fax":"+17587584500281","email":"","url":"","countryIso2":"LC","countryName":"Saint Lucia","hotelRating":"3","latitude":"14.0976","longitude":"-60.9498","state_id":3766,"state_name":"Gros Islet Quarter","country_id":186},{"active":false,"Giataid":"182808","cityId":66184,"cityName":"Gros Islet","hotelId":182808,"hotelName":"Calabash Cove Resort & Spa","address":"Bonaire Estate,Marisule,PO Box RB 2696,11111 Gros Islet,Westindischen Inseln,Saint Lucia","phones":"+17584563500","fax":"+17584504603","email":"info@calabashcove.com","url":"http://www.calabashcove.com","countryIso2":"LC","countryName":"Saint Lucia","hotelRating":"5","latitude":"14.0505","longitude":"-60.9725","state_id":3766,"state_name":"Gros Islet Quarter","country_id":186},{"active":false,"Giataid":"187352","cityId":66362,"cityName":"Rodney Bay","hotelId":187352,"hotelName":"Gateway Villas","address":"","phones":"","fax":"","email":"","url":"","countryIso2":"LC","countryName":"Saint Lucia","hotelRating":"2","latitude":"14.0754","longitude":"-60.9514","state_id":3766,"state_name":"Gros Islet Quarter","country_id":186},{"active":false,"Giataid":"227202","cityId":66184,"cityName":"Gros Islet","hotelId":227202,"hotelName":"Marina Haven Villas","address":"Gros Islet,Saint Lucia,Saint Lucia","phones":"+17584595457","fax":"+17584595719","email":"saltibusb@slucia.com","url":"http://bensconcierge.lc/reserve-a-villa.html","countryIso2":"LC","countryName":"Saint Lucia","hotelRating":"3","latitude":"14.0734","longitude":"-60.9549","state_id":3766,"state_name":"Gros Islet Quarter","country_id":186},{"active":false,"Giataid":"234416","cityId":66184,"cityName":"Gros Islet","hotelId":234416,"hotelName":"Oceanview","address":"Massade,Gros Islet,Castries,Saint Lucia","phones":"+17584500833","fax":"+17584500837","email":"","url":"http://www.oceanviewstlucia.com/","countryIso2":"LC","countryName":"Saint Lucia","hotelRating":"3","latitude":"14.0829","longitude":"-60.946","state_id":3766,"state_name":"Gros Islet Quarter","country_id":186},{"active":false,"Giataid":"238178","cityId":31016,"cityName":"Soufriere","hotelId":238178,"hotelName":"Chocolat Boucan","address":"Rabot Estateï¿½,PO Box 312,Soufriere,Saint Lucia","phones":"+17585729600","fax":"","email":"reservations@hotelchocolat.com","url":"http://www.thehotelchocolat.com/","countryIso2":"LC","countryName":"Saint Lucia","hotelRating":"4","latitude":"13.8564","longitude":"-61.0564","state_id":4077,"state_name":"Saint Mark Parish","country_id":61},{"active":false,"Giataid":"238214","cityId":31016,"cityName":"Soufriere","hotelId":238214,"hotelName":"La Haut Resort","address":"P.O. Box 304,West Coast Road,Soufriere,Saint Lucia","phones":"+17584597008","fax":"+17584595975","email":"lahaut@candw.lc","url":"http://www.lahaut.com/","countryIso2":"LC","countryName":"Saint Lucia","hotelRating":"2","latitude":"13.8635","longitude":"-61.0536","state_id":4077,"state_name":"Saint Mark Parish","country_id":61},{"active":false,"Giataid":"239101","cityId":31016,"cityName":"Soufriere","hotelId":239101,"hotelName":"Fond Doux Plantation & Resort","address":"P.O. Box 250,Soufri?re,St. Lucia,Saint Lucia","phones":"+17584597545","fax":"+17584597790","email":"info@fonddouxestate.com","url":"http://fonddouxestate.com","countryIso2":"LC","countryName":"Saint Lucia","hotelRating":"3","latitude":"13.8564","longitude":"-61.0563","state_id":4077,"state_name":"Saint Mark Parish","country_id":61},{"active":false,"Giataid":"240368","cityId":66362,"cityName":"Rodney Bay","hotelId":240368,"hotelName":"Bay Gardens Beach Resort & Spa","address":"Reduit Beach,Gros Islet,Saint Lucia","phones":"+17584578500","fax":"+17584578400","email":"baygardensbeachresort@candw.lc","url":"http://www.baygardensbeachresort.com","countryIso2":"LC","countryName":"Saint Lucia","hotelRating":"4","latitude":"14.0769","longitude":"-60.954","state_id":3766,"state_name":"Gros Islet Quarter","country_id":186},{"active":false,"Giataid":"291677","cityId":66420,"cityName":"Vieux Fort","hotelId":291677,"hotelName":"Kimatrai","address":"New Dock Road","phones":"","fax":"","email":"","url":"","countryIso2":"LC","countryName":"Saint Lucia","hotelRating":"1","latitude":"13.7387","longitude":"-60.9469","state_id":3763,"state_name":"Vieux Fort Quarter","country_id":186},{"active":false,"Giataid":"373453","cityId":null,"cityName":"St. Lucia","hotelId":373453,"hotelName":"Still Beach Resort","address":"","phones":"","fax":"","email":"","url":"","countryIso2":"LC","countryName":"Saint Lucia","hotelRating":"1","latitude":"13.9853","longitude":"-60.9819","state_id":null,"state_name":null,"country_id":null},{"active":false,"Giataid":"456585","cityId":null,"cityName":"Marigot Bay","hotelId":456585,"hotelName":"JJ's Paradise Hotel","address":"Marigot Bay,Saint Lucia","phones":"+17584514761","fax":"","email":"info@jjsparadise.com","url":"http://www.jjsparadise.com","countryIso2":"LC","countryName":"Saint Lucia","hotelRating":"3","latitude":"13.9651","longitude":"-61.0212","state_id":null,"state_name":null,"country_id":null},{"active":false,"Giataid":"458496","cityId":66184,"cityName":"Gros Islet","hotelId":458496,"hotelName":"Stephanie's Hotel","address":"","phones":"","fax":"","email":"","url":"","countryIso2":"LC","countryName":"Saint Lucia","hotelRating":"2","latitude":"14.0805","longitude":"-60.947","state_id":3766,"state_name":"Gros Islet Quarter","country_id":186},{"active":false,"Giataid":"489800","cityId":66184,"cityName":"Gros Islet","hotelId":489800,"hotelName":"Grand View Vacation Villas","address":"","phones":"","fax":"","email":"","url":"","countryIso2":"LC","countryName":"Saint Lucia","hotelRating":"1","latitude":"14.061","longitude":"-60.9681","state_id":3766,"state_name":"Gros Islet Quarter","country_id":186},{"active":false,"Giataid":"489829","cityId":66184,"cityName":"Gros Islet","hotelId":489829,"hotelName":"Villa Guayaba","address":"","phones":"","fax":"","email":"","url":"","countryIso2":"LC","countryName":"Saint Lucia","hotelRating":"1","latitude":"14.069","longitude":"-60.9567","state_id":3766,"state_name":"Gros Islet Quarter","country_id":186},{"active":false,"Giataid":"489901","cityId":66184,"cityName":"Gros Islet","hotelId":489901,"hotelName":"Villa Chloesa","address":"","phones":"","fax":"","email":"","url":"","countryIso2":"LC","countryName":"Saint Lucia","hotelRating":"1","latitude":"14.0893","longitude":"-60.9423","state_id":3766,"state_name":"Gros Islet Quarter","country_id":186},{"active":false,"Giataid":"498514","cityId":null,"cityName":"St. Lucia","hotelId":498514,"hotelName":"Mango Beach Resort","address":"Saint Lucia,Marigot Bay,Saint Lucia","phones":"","fax":"","email":"","url":"","countryIso2":"LC","countryName":"Saint Lucia","hotelRating":"1","latitude":"13.9649","longitude":"-61.0265","state_id":null,"state_name":null,"country_id":null},{"active":false,"Giataid":"498745","cityId":31016,"cityName":"Soufriere","hotelId":498745,"hotelName":"La Dauphine Estate","address":"","phones":"","fax":"","email":"","url":"","countryIso2":"LC","countryName":"Saint Lucia","hotelRating":"3","latitude":"13.8209","longitude":"-61.0444","state_id":4077,"state_name":"Saint Mark Parish","country_id":61},{"active":false,"Giataid":"499080","cityId":40597,"cityName":"Castries","hotelId":499080,"hotelName":"Harbour Vista Inn","address":"","phones":"","fax":"","email":"","url":"","countryIso2":"LC","countryName":"Saint Lucia","hotelRating":"2","latitude":"14.008","longitude":"-60.9967","state_id":4799,"state_name":"Occitanie","country_id":75},{"active":false,"Giataid":"499121","cityId":66184,"cityName":"Gros Islet","hotelId":499121,"hotelName":"Golden Arrow Inn","address":"","phones":"","fax":"","email":"","url":"","countryIso2":"LC","countryName":"Saint Lucia","hotelRating":"1","latitude":"14.0445","longitude":"-60.9703","state_id":3766,"state_name":"Gros Islet Quarter","country_id":186},{"active":false,"Giataid":"499875","cityId":66184,"cityName":"Gros Islet","hotelId":499875,"hotelName":"The Harbour","address":"Rodney Bay,Gros Islet,Saint Lucia","phones":"","fax":"","email":"","url":"","countryIso2":"LC","countryName":"Saint Lucia","hotelRating":"3","latitude":"14.0692","longitude":"-60.953","state_id":3766,"state_name":"Gros Islet Quarter","country_id":186},{"active":false,"Giataid":"499896","cityId":66184,"cityName":"Gros Islet","hotelId":499896,"hotelName":"Admiral View Luxury Villas","address":"","phones":"","fax":"","email":"","url":"","countryIso2":"LC","countryName":"Saint Lucia","hotelRating":"1","latitude":"14.0843","longitude":"-60.9524","state_id":3766,"state_name":"Gros Islet Quarter","country_id":186},{"active":false,"Giataid":"500031","cityId":40597,"cityName":"Castries","hotelId":500031,"hotelName":"Villa Cybelle","address":"","phones":"","fax":"","email":"","url":"","countryIso2":"LC","countryName":"Saint Lucia","hotelRating":"1","latitude":"14.0109","longitude":"-60.9988","state_id":4799,"state_name":"Occitanie","country_id":75},{"active":false,"Giataid":"500157","cityId":66184,"cityName":"Gros Islet","hotelId":500157,"hotelName":"Blue Skies","address":"","phones":"","fax":"","email":"","url":"","countryIso2":"LC","countryName":"Saint Lucia","hotelRating":"3","latitude":"14.0843","longitude":"-60.9524","state_id":3766,"state_name":"Gros Islet Quarter","country_id":186},{"active":false,"Giataid":"500192","cityId":66184,"cityName":"Gros Islet","hotelId":500192,"hotelName":"Villa Harmony","address":"","phones":"","fax":"","email":"","url":"","countryIso2":"LC","countryName":"Saint Lucia","hotelRating":"1","latitude":"14.0843","longitude":"-60.9524","state_id":3766,"state_name":"Gros Islet Quarter","country_id":186},{"active":false,"Giataid":"500259","cityId":66184,"cityName":"Gros Islet","hotelId":500259,"hotelName":"Viewtique","address":"","phones":"","fax":"","email":"","url":"","countryIso2":"LC","countryName":"Saint Lucia","hotelRating":"1","latitude":"14.0843","longitude":"-60.9524","state_id":3766,"state_name":"Gros Islet Quarter","country_id":186},{"active":false,"Giataid":"500414","cityId":66184,"cityName":"Gros Islet","hotelId":500414,"hotelName":"Manderley Villa","address":"","phones":"","fax":"","email":"","url":"","countryIso2":"LC","countryName":"Saint Lucia","hotelRating":"1","latitude":"14.0843","longitude":"-60.9524","state_id":3766,"state_name":"Gros Islet Quarter","country_id":186},{"active":false,"Giataid":"500529","cityId":40597,"cityName":"Castries","hotelId":500529,"hotelName":"Wild Serenity Villa","address":"","phones":"","fax":"","email":"","url":"","countryIso2":"LC","countryName":"Saint Lucia","hotelRating":"1","latitude":"14.0109","longitude":"-60.9988","state_id":4799,"state_name":"Occitanie","country_id":75},{"active":false,"Giataid":"500599","cityId":null,"cityName":"Marigot Bay","hotelId":500599,"hotelName":"FSJ House","address":"","phones":"","fax":"","email":"","url":"","countryIso2":"LC","countryName":"Saint Lucia","hotelRating":"1","latitude":"13.9649","longitude":"-61.0265","state_id":null,"state_name":null,"country_id":null},{"active":false,"Giataid":"500686","cityId":66420,"cityName":"Vieux Fort","hotelId":500686,"hotelName":"QR Quality Rooms Cedar Palm Villa","address":"","phones":"","fax":"","email":"","url":"","countryIso2":"LC","countryName":"Saint Lucia","hotelRating":"1","latitude":"13.7279","longitude":"-60.9532","state_id":3763,"state_name":"Vieux Fort Quarter","country_id":186},{"active":false,"Giataid":"500800","cityId":null,"cityName":"Cape Estate","hotelId":500800,"hotelName":"Anantha Asmani Villa","address":"","phones":"","fax":"","email":"","url":"","countryIso2":"LC","countryName":"Saint Lucia","hotelRating":"1","latitude":"14.0976","longitude":"-60.9478","state_id":null,"state_name":null,"country_id":null},{"active":false,"Giataid":"500883","cityId":null,"cityName":"Marigot Bay","hotelId":500883,"hotelName":"Villa Ashiana","address":"","phones":"","fax":"","email":"","url":"","countryIso2":"LC","countryName":"Saint Lucia","hotelRating":"1","latitude":"13.9649","longitude":"-61.0265","state_id":null,"state_name":null,"country_id":null},{"active":false,"Giataid":"501134","cityId":31016,"cityName":"Soufriere","hotelId":501134,"hotelName":"Uptown Guest House","address":"","phones":"","fax":"","email":"","url":"","countryIso2":"LC","countryName":"Saint Lucia","hotelRating":"3","latitude":"13.8504","longitude":"-61.0547","state_id":4077,"state_name":"Saint Mark Parish","country_id":61},{"active":false,"Giataid":"501160","cityId":66420,"cityName":"Vieux Fort","hotelId":501160,"hotelName":"Hewanorra Gardens","address":"","phones":"","fax":"","email":"","url":"","countryIso2":"LC","countryName":"Saint Lucia","hotelRating":"2","latitude":"13.7387","longitude":"-60.9469","state_id":3763,"state_name":"Vieux Fort Quarter","country_id":186},{"active":false,"Giataid":"501335","cityId":31016,"cityName":"Soufriere","hotelId":501335,"hotelName":"Caille Blanc Villa","address":"Anse Chastanet Rd","phones":"","fax":"","email":"","url":"","countryIso2":"LC","countryName":"Saint Lucia","hotelRating":"4","latitude":"13.8504","longitude":"-61.0547","state_id":4077,"state_name":"Saint Mark Parish","country_id":61},{"active":false,"Giataid":"501399","cityId":31016,"cityName":"Soufriere","hotelId":501399,"hotelName":"Alfred's Diamond Villa","address":"","phones":"","fax":"","email":"","url":"","countryIso2":"LC","countryName":"Saint Lucia","hotelRating":"2","latitude":"13.8504","longitude":"-61.0547","state_id":4077,"state_name":"Saint Mark Parish","country_id":61},{"active":false,"Giataid":"501537","cityId":31016,"cityName":"Soufriere","hotelId":501537,"hotelName":"Leisure Inn","address":"","phones":"","fax":"","email":"","url":"","countryIso2":"LC","countryName":"Saint Lucia","hotelRating":"2","latitude":"13.8504","longitude":"-61.0547","state_id":4077,"state_name":"Saint Mark Parish","country_id":61},{"active":false,"Giataid":"501648","cityId":66420,"cityName":"Vieux Fort","hotelId":501648,"hotelName":"Charlery's Inn","address":"","phones":"","fax":"","email":"","url":"","countryIso2":"LC","countryName":"Saint Lucia","hotelRating":"2","latitude":"13.7315","longitude":"-60.9525","state_id":3763,"state_name":"Vieux Fort Quarter","country_id":186},{"active":false,"Giataid":"505694","cityId":66184,"cityName":"Gros Islet","hotelId":505694,"hotelName":"Caribbean Breeze","address":"","phones":"","fax":"","email":"","url":"","countryIso2":"LC","countryName":"Saint Lucia","hotelRating":"1","latitude":"14.0843","longitude":"-60.9524","state_id":3766,"state_name":"Gros Islet Quarter","country_id":186},{"active":false,"Giataid":"506121","cityId":31016,"cityName":"Soufriere","hotelId":506121,"hotelName":"Villa Colombette","address":"","phones":"","fax":"","email":"","url":"","countryIso2":"LC","countryName":"Saint Lucia","hotelRating":"1","latitude":"13.8504","longitude":"-61.0547","state_id":4077,"state_name":"Saint Mark Parish","country_id":61},{"active":false,"Giataid":"506185","cityId":31016,"cityName":"Soufriere","hotelId":506185,"hotelName":"Villa Piton","address":"","phones":"","fax":"","email":"","url":"","countryIso2":"LC","countryName":"Saint Lucia","hotelRating":"1","latitude":"13.8504","longitude":"-61.0547","state_id":4077,"state_name":"Saint Mark Parish","country_id":61},{"active":false,"Giataid":"508783","cityId":66184,"cityName":"Gros Islet","hotelId":508783,"hotelName":"Indigo Pearl Properties","address":"","phones":"","fax":"","email":"","url":"","countryIso2":"LC","countryName":"Saint Lucia","hotelRating":"1","latitude":"14.0843","longitude":"-60.9524","state_id":3766,"state_name":"Gros Islet Quarter","country_id":186},{"active":false,"Giataid":"508979","cityId":null,"cityName":"Cape Estate","hotelId":508979,"hotelName":"South Sea House","address":"South Hills","phones":"","fax":"","email":"","url":"","countryIso2":"LC","countryName":"Saint Lucia","hotelRating":"3","latitude":"14.0898","longitude":"-60.9388","state_id":null,"state_name":null,"country_id":null},{"active":false,"Giataid":"514704","cityId":66184,"cityName":"Gros Islet","hotelId":514704,"hotelName":"The White House Inn by Sunlovers","address":"","phones":"","fax":"","email":"","url":"","countryIso2":"LC","countryName":"Saint Lucia","hotelRating":"1","latitude":"14.0843","longitude":"-60.9524","state_id":3766,"state_name":"Gros Islet Quarter","country_id":186},{"active":false,"Giataid":"516695","cityId":66223,"cityName":"La Pointe","hotelId":516695,"hotelName":"Tet Rouge Villas St. Lucia","address":"La Pointe,Soufriere Quarter,Choiseul,Saint Lucia","phones":"+17584875054","fax":"","email":"","url":"","countryIso2":"LC","countryName":"Saint Lucia","hotelRating":"1","latitude":"13.7943","longitude":"-61.0619","state_id":3760,"state_name":"Choiseul Quarter","country_id":186},{"active":false,"Giataid":"529083","cityId":null,"cityName":"Marigot Bay","hotelId":529083,"hotelName":"Blue Heaven","address":"","phones":"","fax":"","email":"","url":"","countryIso2":"LC","countryName":"Saint Lucia","hotelRating":"1","latitude":"13.9649","longitude":"-61.0265","state_id":null,"state_name":null,"country_id":null},{"active":false,"Giataid":"529276","cityId":null,"cityName":"Marigot Bay","hotelId":529276,"hotelName":"Cliff House","address":"Marigot Bay,Saint Lucia","phones":"+17584527921","fax":"+17584527921","email":"info@cliff-house.com","url":"http://www.cliff-house.com/","countryIso2":"LC","countryName":"Saint Lucia","hotelRating":"1","latitude":"13.9649","longitude":"-61.0265","state_id":null,"state_name":null,"country_id":null},{"active":false,"Giataid":"544269","cityId":66184,"cityName":"Gros Islet","hotelId":544269,"hotelName":"Cherry Blossom Villa","address":"","phones":"","fax":"","email":"","url":"","countryIso2":"LC","countryName":"Saint Lucia","hotelRating":"1","latitude":"14.0843","longitude":"-60.9524","state_id":3766,"state_name":"Gros Islet Quarter","country_id":186},{"active":false,"Giataid":"555488","cityId":null,"cityName":"St. Lucia","hotelId":555488,"hotelName":"Balenbouche Estate","address":"","phones":"","fax":"","email":"","url":"","countryIso2":"LC","countryName":"Saint Lucia","hotelRating":"3","latitude":"13.9853","longitude":"-60.9819","state_id":null,"state_name":null,"country_id":null},{"active":false,"Giataid":"560313","cityId":null,"cityName":"Cape Estate","hotelId":560313,"hotelName":"Hideaway at Royalton Saint Lucia","address":"Cap Estate,Gros Islet,Saint Lucia","phones":"+175818887740040","fax":"","email":"reservations2@vacationstoremiami.com","url":"http://www.hideawayroyaltonsaintlucia.com","countryIso2":"LC","countryName":"Saint Lucia","hotelRating":"5","latitude":"14.0973","longitude":"-60.9505","state_id":null,"state_name":null,"country_id":null},{"active":false,"Giataid":"592815","cityId":40597,"cityName":"Castries","hotelId":592815,"hotelName":"Poinsettia Villa Apartments","address":"","phones":"+17584560469","fax":"","email":"","url":"","countryIso2":"LC","countryName":"Saint Lucia","hotelRating":"3","latitude":"14.0172","longitude":"-60.9936","state_id":4799,"state_name":"Occitanie","country_id":75},{"active":false,"Giataid":"596965","cityId":31016,"cityName":"Soufriere","hotelId":596965,"hotelName":"Sea Piton View Apartment","address":"","phones":"","fax":"","email":"","url":"","countryIso2":"LC","countryName":"Saint Lucia","hotelRating":"1","latitude":"13.8504","longitude":"-61.0547","state_id":4077,"state_name":"Saint Mark Parish","country_id":61},{"active":false,"Giataid":"596968","cityId":40597,"cityName":"Castries","hotelId":596968,"hotelName":"Grandtosh Luxury Apartments","address":"","phones":"","fax":"","email":"","url":"","countryIso2":"LC","countryName":"Saint Lucia","hotelRating":"1","latitude":"14.0109","longitude":"-60.9988","state_id":4799,"state_name":"Occitanie","country_id":75},{"active":false,"Giataid":"596969","cityId":null,"cityName":"Cape Estate","hotelId":596969,"hotelName":"Les Chaudieres","address":"","phones":"","fax":"","email":"","url":"","countryIso2":"LC","countryName":"Saint Lucia","hotelRating":"1","latitude":"14.0976","longitude":"-60.9478","state_id":null,"state_name":null,"country_id":null},{"active":false,"Giataid":"597142","cityId":66184,"cityName":"Gros Islet","hotelId":597142,"hotelName":"Green & Tropical","address":"","phones":"","fax":"","email":"","url":"","countryIso2":"LC","countryName":"Saint Lucia","hotelRating":"1","latitude":"14.0843","longitude":"-60.9524","state_id":3766,"state_name":"Gros Islet Quarter","country_id":186},{"active":false,"Giataid":"612507","cityId":66184,"cityName":"Gros Islet","hotelId":612507,"hotelName":"14 Bay View","address":"","phones":"","fax":"","email":"","url":"","countryIso2":"LC","countryName":"Saint Lucia","hotelRating":"1","latitude":"14.0843","longitude":"-60.9524","state_id":3766,"state_name":"Gros Islet Quarter","country_id":186},{"active":false,"Giataid":"51487","cityId":65962,"cityName":"Anse Cochon","hotelId":643335,"hotelName":"Ti Kaye Village Resort & Spa","address":"Anse Cochon,Anse La Raye,Saint Lucia","phones":"+17584568101","fax":"+17584568105","email":"","url":"http://www.tikaye.com/","countryIso2":"LC","countryName":"Saint Lucia","hotelRating":"0","latitude":"13.9259","longitude":"-61.0573","state_id":3761,"state_name":"Canaries","country_id":186},{"active":false,"Giataid":"725732","cityId":null,"cityName":"Cape Estate","hotelId":725732,"hotelName":"Villa Hall","address":"Smuggler's Cove Drive,00124 Cap Estate,Saint Lucia","phones":"","fax":"","email":"","url":"","countryIso2":"LC","countryName":"Saint Lucia","hotelRating":"1","latitude":"14.0976","longitude":"-60.9478","state_id":null,"state_name":null,"country_id":null},{"active":false,"Giataid":"726833","cityId":66184,"cityName":"Gros Islet","hotelId":726833,"hotelName":"Flamboyant Villa","address":"Trouya,Gros Islet,Saint Lucia","phones":"+175812264006552","fax":"","email":"flamboyantvilla@outlook.com","url":"https://www.flamboyantvilla.com/","countryIso2":"LC","countryName":"Saint Lucia","hotelRating":"1","latitude":"14.0843","longitude":"-60.9524","state_id":3766,"state_name":"Gros Islet Quarter","country_id":186},{"active":false,"Giataid":"727367","cityId":66184,"cityName":"Gros Islet","hotelId":727367,"hotelName":"Quay Bay","address":"Rodney Bay,Gros Islet,Saint Lucia","phones":"","fax":"","email":"","url":"","countryIso2":"LC","countryName":"Saint Lucia","hotelRating":"1","latitude":"14.0843","longitude":"-60.9524","state_id":3766,"state_name":"Gros Islet Quarter","country_id":186},{"active":false,"Giataid":"728134","cityId":66184,"cityName":"Gros Islet","hotelId":728134,"hotelName":"Calabash Condos and Villas","address":"13 Bonaire Heights,Marisule,Gros Islet,Saint Lucia","phones":"","fax":"","email":"","url":"","countryIso2":"LC","countryName":"Saint Lucia","hotelRating":"1","latitude":"14.0843","longitude":"-60.9524","state_id":3766,"state_name":"Gros Islet Quarter","country_id":186},{"active":false,"Giataid":"737154","cityId":66184,"cityName":"Gros Islet","hotelId":737154,"hotelName":"Rodney Bay Suites","address":"Rodney Heights,Gros Islet,Saint Lucia","phones":"","fax":"","email":"","url":"","countryIso2":"LC","countryName":"Saint Lucia","hotelRating":"1","latitude":"14.0843","longitude":"-60.9524","state_id":3766,"state_name":"Gros Islet Quarter","country_id":186},{"active":false,"Giataid":"747620","cityId":66184,"cityName":"Gros Islet","hotelId":747620,"hotelName":"Top of the Hill n.6","address":"Haxted Road,Rodney Bay,Gros Islet,Saint Lucia","phones":"","fax":"","email":"","url":"","countryIso2":"LC","countryName":"Saint Lucia","hotelRating":"1","latitude":"14.0843","longitude":"-60.9524","state_id":3766,"state_name":"Gros Islet Quarter","country_id":186},{"active":false,"Giataid":"761960","cityId":66184,"cityName":"Gros Islet","hotelId":761960,"hotelName":"La Panache Holiday Apartments","address":"Cas en Bas Road,Gros Islet,Saint Lucia","phones":"","fax":"","email":"","url":"","countryIso2":"LC","countryName":"Saint Lucia","hotelRating":"1","latitude":"14.0819","longitude":"-60.9431","state_id":3766,"state_name":"Gros Islet Quarter","country_id":186},{"active":false,"Giataid":"496283","cityId":31016,"cityName":"Soufriere","hotelId":10050825,"hotelName":"River Side House","address":"Ravine Clare,Soufriere,Saint Lucia","phones":"","fax":"","email":"","url":"","countryIso2":"LC","countryName":"Saint Lucia","hotelRating":"3","latitude":"13.8563","longitude":"-61.0508","state_id":4077,"state_name":"Saint Mark Parish","country_id":61},{"active":false,"Giataid":"494260","cityId":40597,"cityName":"Castries","hotelId":10055736,"hotelName":"La Vista Guest Inn","address":"City Gate Vigie Roundabout","phones":"","fax":"","email":"","url":"","countryIso2":"LC","countryName":"Saint Lucia","hotelRating":"2","latitude":"14.0226","longitude":"-60.9836","state_id":4799,"state_name":"Occitanie","country_id":75},{"active":false,"Giataid":"588787","cityId":null,"cityName":"Marigot Bay","hotelId":10056485,"hotelName":"Nature's Paradise","address":"1 Marigot Heights,Marigot Bay,St. Lucia,Saint Lucia","phones":"","fax":"","email":"","url":"","countryIso2":"LC","countryName":"Saint Lucia","hotelRating":"3","latitude":"13.962","longitude":"-61.031","state_id":null,"state_name":null,"country_id":null},{"active":false,"Giataid":"495688","cityId":null,"cityName":"Cape Estate","hotelId":10056760,"hotelName":"Zara Villas","address":"Belle Vue","phones":"","fax":"","email":"","url":"","countryIso2":"LC","countryName":"Saint Lucia","hotelRating":"4","latitude":"14.0976","longitude":"-60.9478","state_id":null,"state_name":null,"country_id":null},{"active":false,"Giataid":"423485","cityId":null,"cityName":"St. Lucia","hotelId":10057199,"hotelName":"C'est La Vie","address":"Trouya Pointe,Saint Lucia","phones":"+17584520933","fax":"","email":"","url":"","countryIso2":"LC","countryName":"Saint Lucia","hotelRating":"4","latitude":"14.0669","longitude":"-60.951","state_id":null,"state_name":null,"country_id":null},{"active":false,"Giataid":"538973","cityId":40597,"cityName":"Castries","hotelId":10058208,"hotelName":"Aanola Villas","address":"12 Tapion Reef Road,Castries,Saint Lucia","phones":"+17584532223","fax":"","email":"","url":"","countryIso2":"LC","countryName":"Saint Lucia","hotelRating":"3","latitude":"14.0138","longitude":"-61.0065","state_id":4799,"state_name":"Occitanie","country_id":75},{"active":false,"Giataid":"489598","cityId":66420,"cityName":"Vieux Fort","hotelId":10058954,"hotelName":"Castles In Paradise","address":"Savannes Bay,PO Box 660,Vieux Fort,Saint Lucia","phones":"+17587167777","fax":"","email":"","url":"","countryIso2":"LC","countryName":"Saint Lucia","hotelRating":"3","latitude":"13.767","longitude":"-60.9316","state_id":3763,"state_name":"Vieux Fort Quarter","country_id":186},{"active":false,"Giataid":"494262","cityId":66184,"cityName":"Gros Islet","hotelId":10060402,"hotelName":"Summers Inn","address":"Beausejour,Gros Islet,Saint Lucia","phones":"","fax":"","email":"","url":"","countryIso2":"LC","countryName":"Saint Lucia","hotelRating":"2","latitude":"14.0715","longitude":"-60.9369","state_id":3766,"state_name":"Gros Islet Quarter","country_id":186},{"active":false,"Giataid":"494263","cityId":40597,"cityName":"Castries","hotelId":10060573,"hotelName":"Top Of The World - North","address":"Marisule,Castries,Saint Lucia","phones":"+17584548409","fax":"","email":"","url":"","countryIso2":"LC","countryName":"Saint Lucia","hotelRating":"3","latitude":"14.0329","longitude":"-60.9676","state_id":4799,"state_name":"Occitanie","country_id":75},{"active":false,"Giataid":"496281","cityId":null,"cityName":"Cape Estate","hotelId":10062179,"hotelName":"Belle Kaye","address":"Castries-Gros Islet Hwy,Gros Islet,Cap Estate,Saint Lucia","phones":"+17585185865","fax":"","email":"","url":"","countryIso2":"LC","countryName":"Saint Lucia","hotelRating":"2","latitude":"14.091","longitude":"-60.9487","state_id":null,"state_name":null,"country_id":null},{"active":false,"Giataid":"310852","cityId":66362,"cityName":"Rodney Bay","hotelId":10067632,"hotelName":"Four Springs Villa","address":"Rodney Bay,Rodney Heights,PO Box 645,Gros Islet,Castries,Saint Lucia","phones":"+17587584520028","fax":"","email":"","url":"","countryIso2":"LC","countryName":"Saint Lucia","hotelRating":"3","latitude":"14.0791","longitude":"-60.9508","state_id":3766,"state_name":"Gros Islet Quarter","country_id":186},{"active":false,"Giataid":"8295","cityId":null,"cityName":"St. Lucia","hotelId":10067640,"hotelName":"Auberge Seraphine","address":"Vielle Bay,Pointe Seraphine,PO Box 390,Castries,Saint Lucia","phones":"+17584532073","fax":"","email":"","url":"","countryIso2":"LC","countryName":"Saint Lucia","hotelRating":"3","latitude":"14.0169","longitude":"-60.9944","state_id":null,"state_name":null,"country_id":null},{"active":false,"Giataid":"548350","cityId":66268,"cityName":"Mon Repos","hotelId":10069088,"hotelName":"A Peace Of Paradise","address":"Mamiku Road,Mon Repos,Saint Lucia","phones":"+17584553337","fax":"","email":"","url":"","countryIso2":"LC","countryName":"Saint Lucia","hotelRating":"2","latitude":"13.8624","longitude":"-60.9019","state_id":3762,"state_name":"Micoud Quarter","country_id":186},{"active":false,"Giataid":"532920","cityId":66341,"cityName":"Praslin","hotelId":10069350,"hotelName":"Gekko Lodge","address":"Sesenne Descartes Drive,Praslin,Micoud,Saint Lucia","phones":"","fax":"","email":"","url":"","countryIso2":"LC","countryName":"Saint Lucia","hotelRating":"3","latitude":"13.8501","longitude":"-60.9083","state_id":3762,"state_name":"Micoud Quarter","country_id":186},{"active":false,"Giataid":"555398","cityId":31016,"cityName":"Soufriere","hotelId":10099414,"hotelName":"The Yellow Palm","address":"Soufriere,Saint Lucia,Saint Lucia","phones":"NULL","fax":"NULL","email":"NULL","url":"NULL","countryIso2":"LC","countryName":"Saint Lucia","hotelRating":"2","latitude":"13.854","longitude":"-61.0425","state_id":4077,"state_name":"Saint Mark Parish","country_id":61},{"active":false,"Giataid":"197223","cityId":null,"cityName":"Choc Bay","hotelId":10102014,"hotelName":"Villa Beach Cottages","address":"P.O. Box 129,Choc Bay,Castries,Windward Islands,Saint Lucia","phones":"+17584502884","fax":"NULL","email":"NULL","url":"NULL","countryIso2":"LC","countryName":"Saint Lucia","hotelRating":"3","latitude":"14.0341","longitude":"-60.9737","state_id":null,"state_name":null,"country_id":null},{"active":false,"Giataid":"509565","cityId":null,"cityName":"Marigot Bay","hotelId":10102466,"hotelName":"Villa Susanna","address":"Marigot Bay,St. Lucia,Castries,Saint Lucia","phones":"NULL","fax":"NULL","email":"NULL","url":"NULL","countryIso2":"LC","countryName":"Saint Lucia","hotelRating":"4","latitude":"13.9649","longitude":"-61.0265","state_id":null,"state_name":null,"country_id":null},{"active":false,"Giataid":"509734","cityId":31016,"cityName":"Soufriere","hotelId":10102729,"hotelName":"Piton Deck Villa","address":"Soufriere","phones":"NULL","fax":"NULL","email":"NULL","url":"NULL","countryIso2":"LC","countryName":"Saint Lucia","hotelRating":"3","latitude":"13.8668","longitude":"-61.0522","state_id":4077,"state_name":"Saint Mark Parish","country_id":61},{"active":false,"Giataid":"583465","cityId":31016,"cityName":"Soufriere","hotelId":10113419,"hotelName":"Boinin Heart Villa","address":"Fonde St. Jacques,Soufriere,Saint Lucia","phones":"NULL","fax":"NULL","email":"NULL","url":"NULL","countryIso2":"LC","countryName":"Saint Lucia","hotelRating":"2","latitude":"13.8322","longitude":"-61.0311","state_id":4077,"state_name":"Saint Mark Parish","country_id":61},{"active":false,"Giataid":"310852","cityId":66362,"cityName":"Rodney Bay","hotelId":10118949,"hotelName":"Four Springs Villa & Inn","address":"Rodney Bay,Rodney Heights,PO Box 645,Gros Islet,Castries,Saint Lucia","phones":"+17584520028","fax":"NULL","email":"NULL","url":"NULL","countryIso2":"LC","countryName":"Saint Lucia","hotelRating":"2","latitude":"14.0755","longitude":"-60.9479","state_id":3766,"state_name":"Gros Islet Quarter","country_id":186},{"active":false,"Giataid":"503552","cityId":31016,"cityName":"Soufriere","hotelId":10120489,"hotelName":"Grand View Villa","address":"Victoria,Choiseul,Soufriere,Saint Lucia","phones":"NULL","fax":"NULL","email":"NULL","url":"NULL","countryIso2":"LC","countryName":"Saint Lucia","hotelRating":"3","latitude":"13.8316","longitude":"-61.0509","state_id":4077,"state_name":"Saint Mark Parish","country_id":61},{"active":false,"Giataid":"508967","cityId":40597,"cityName":"Castries","hotelId":10120972,"hotelName":"Heritage House","address":"Clarke Avenue,St. Victor's View,Castries,Saint Lucia","phones":"NULL","fax":"NULL","email":"NULL","url":"NULL","countryIso2":"LC","countryName":"Saint Lucia","hotelRating":"3","latitude":"14.0194","longitude":"-60.9988","state_id":4799,"state_name":"Occitanie","country_id":75},{"active":false,"Giataid":"285894","cityId":null,"cityName":"Cape Estate","hotelId":20000893,"hotelName":"Tropical Breeze Guest House","address":"38 Marcie Street,Cap Estate L5R 3Z5,Saint Lucia","phones":"+17584500589","fax":"","email":"tropical_breeze_98@yahoo.com","url":"http://www.tropicalbreezeresorts.com","countryIso2":"LC","countryName":"Saint Lucia","hotelRating":"0","latitude":"14.0816","longitude":"-60.9484","state_id":null,"state_name":null,"country_id":null},{"active":false,"Giataid":"529072","cityId":null,"cityName":"Cape Estate","hotelId":20001063,"hotelName":"Villa Atlantis","address":"Golf Ridge,Cap Estate,Saint Lucia","phones":"","fax":"","email":"","url":"","countryIso2":"LC","countryName":"Saint Lucia","hotelRating":"0","latitude":"14.0933","longitude":"-60.9416","state_id":null,"state_name":null,"country_id":null},{"active":false,"Giataid":"539615","cityId":66362,"cityName":"Rodney Bay","hotelId":20001350,"hotelName":"Papillon St Lucia By Rex Resorts","address":"Reduit Beach Ave,Reduit Beach,Rodney Bay,Saint Lucia","phones":"+17584528331","fax":"","email":"rexresortswebsite@gmail.com","url":"http://rexresorts.com/st-lucia/papillon-st-lucia","countryIso2":"LC","countryName":"Saint Lucia","hotelRating":"4","latitude":"14.0716","longitude":"-60.9563","state_id":3766,"state_name":"Gros Islet Quarter","country_id":186},{"active":false,"Giataid":"499566","cityId":66184,"cityName":"Gros Islet","hotelId":20001514,"hotelName":"La Terrasse Inn","address":"Seagrape Ave,Rodney Bay,P.O. Box RB2657,Gros Islet,Saint Lucia","phones":"+17585720389","fax":"","email":"info@laterrassestlucia.com","url":"http://www.laterrassestlucia.com/","countryIso2":"LC","countryName":"Saint Lucia","hotelRating":"3","latitude":"14.071","longitude":"-60.9544","state_id":3766,"state_name":"Gros Islet Quarter","country_id":186},{"active":false,"Giataid":"643330","cityId":66184,"cityName":"Gros Islet","hotelId":20001714,"hotelName":"Italian Guesthouse","address":"Haxted Road,00124 Gros Islet,Saint Lucia","phones":"","fax":"","email":"","url":"","countryIso2":"LC","countryName":"Saint Lucia","hotelRating":"0","latitude":"14.0831","longitude":"-60.9417","state_id":3766,"state_name":"Gros Islet Quarter","country_id":186},{"active":false,"Giataid":"604557","cityId":66184,"cityName":"Gros Islet","hotelId":20001900,"hotelName":"Heritage House - Rodney Bay","address":"Cashew Drive,Rodney Bay,Gros Islet,Saint Lucia","phones":"","fax":"","email":"","url":"","countryIso2":"LC","countryName":"Saint Lucia","hotelRating":"3","latitude":"14.0745","longitude":"-60.9526","state_id":3766,"state_name":"Gros Islet Quarter","country_id":186},{"active":false,"Giataid":"528598","cityId":66184,"cityName":"Gros Islet","hotelId":20002078,"hotelName":"Bayview","address":"The Harbou   Rodney Bay,Gros Islet,Saint Lucia","phones":"","fax":"","email":"","url":"","countryIso2":"LC","countryName":"Saint Lucia","hotelRating":"3","latitude":"14.0843","longitude":"-60.9524","state_id":3766,"state_name":"Gros Islet Quarter","country_id":186},{"active":false,"Giataid":"623671","cityId":40597,"cityName":"Castries","hotelId":20002263,"hotelName":"Marigot Palms Luxury Caribbean Guesthouse and Apartment Suites","address":"Castries,Marigot Bay,St. Lucia,Saint Lucia","phones":"+17582873716","fax":"","email":"info@marigotpalms.com","url":"http://www.marigotpalms.com/public/","countryIso2":"LC","countryName":"Saint Lucia","hotelRating":"0","latitude":"13.9638","longitude":"-61.0262","state_id":4799,"state_name":"Occitanie","country_id":75},{"active":false,"Giataid":"713389","cityId":66184,"cityName":"Gros Islet","hotelId":20002473,"hotelName":"Smugglers View","address":"Cap Estate,Gros Islet,Saint Lucia","phones":"","fax":"","email":"","url":"","countryIso2":"LC","countryName":"Saint Lucia","hotelRating":"0","latitude":"14.0843","longitude":"-60.9524","state_id":3766,"state_name":"Gros Islet Quarter","country_id":186},{"active":false,"Giataid":"159377","cityId":66264,"cityName":"Micoud","hotelId":20002662,"hotelName":"Zamaca","address":"15 Fond Bay Drive,Micoud,West Indies,Saint Lucia","phones":"+17584541309","fax":"","email":"za_ma_ca@hotmail.com","url":"http://www.zamacastlucia.com/","countryIso2":"LC","countryName":"Saint Lucia","hotelRating":"0","latitude":"13.8212","longitude":"-60.9007","state_id":3762,"state_name":"Micoud Quarter","country_id":186},{"active":false,"Giataid":"202847","cityId":66233,"cityName":"Laborie","hotelId":20003130,"hotelName":"Mirage Beach Hotel","address":"Laborie,Saint Lucia,Saint Lucia","phones":"+17584559237","fax":"","email":"info@miragestlucia.com","url":"http://www.miragestlucia.com/","countryIso2":"LC","countryName":"Saint Lucia","hotelRating":"0","latitude":"13.8455","longitude":"-60.9954","state_id":3759,"state_name":"Laborie Quarter","country_id":186},{"active":false,"Giataid":"316910","cityId":31016,"cityName":"Soufriere","hotelId":20003986,"hotelName":"Villa St Remy","address":"Etangs,Soufriere,Saint Lucia","phones":"+17587151266","fax":"","email":"info@villstremy.com","url":"http://www.villastremy.com/","countryIso2":"LC","countryName":"Saint Lucia","hotelRating":"0","latitude":"13.8504","longitude":"-61.0547","state_id":4077,"state_name":"Saint Mark Parish","country_id":61},{"active":false,"Giataid":"504072","cityId":31016,"cityName":"Soufriere","hotelId":20004130,"hotelName":"Villa Marie - Adults Only","address":"Colombette,Soufriere,Saint Lucia","phones":"","fax":"","email":"","url":"","countryIso2":"LC","countryName":"Saint Lucia","hotelRating":"4","latitude":"13.8651","longitude":"-61.0724","state_id":4077,"state_name":"Saint Mark Parish","country_id":61},{"active":false,"Giataid":"725702","cityId":null,"cityName":"Marigot Bay","hotelId":20004325,"hotelName":"Treetops Apartments","address":"Paradise Lane,Marigot Bay,Saint Lucia","phones":"","fax":"","email":"","url":"","countryIso2":"LC","countryName":"Saint Lucia","hotelRating":"0","latitude":"13.9644","longitude":"-61.0205","state_id":null,"state_name":null,"country_id":null},{"active":false,"Giataid":"724157","cityId":31016,"cityName":"Soufriere","hotelId":20004500,"hotelName":"Calabash Mountain Villa","address":"Esperance Road,Soufriere,Saint Lucia","phones":"+17584613971","fax":"","email":"calabash.villa@gmail.com","url":"http://www.calabashvilla.com","countryIso2":"LC","countryName":"Saint Lucia","hotelRating":"0","latitude":"13.8398","longitude":"-61.0328","state_id":4077,"state_name":"Saint Mark Parish","country_id":61},{"active":false,"Giataid":"693479","cityId":31016,"cityName":"Soufriere","hotelId":20004666,"hotelName":"Soufriere Estate Holiday Residence","address":"Sir Arthur Lewis Street,Soufriere,Saint Lucia","phones":"","fax":"","email":"","url":"","countryIso2":"LC","countryName":"Saint Lucia","hotelRating":"0","latitude":"13.8539","longitude":"-61.0586","state_id":4077,"state_name":"Saint Mark Parish","country_id":61},{"active":false,"Giataid":"726307","cityId":31016,"cityName":"Soufriere","hotelId":20004841,"hotelName":"Samfi Gardens","address":"Columbette Road,Soufriere,St. Lucia,Saint Lucia","phones":"","fax":"","email":"","url":"","countryIso2":"LC","countryName":"Saint Lucia","hotelRating":"0","latitude":"13.8504","longitude":"-61.0547","state_id":4077,"state_name":"Saint Mark Parish","country_id":61},{"active":false,"Giataid":"724445","cityId":null,"cityName":"St. Lucia","hotelId":20005142,"hotelName":"Heavenly Suites","address":"Mount Castagniere Gros Islet,La Feuillet,Saint Lucia,Saint Lucia","phones":"+17582851139","fax":"","email":"lawrence.nervais@gmail.com","url":"http://www.heavenlystlucia.com/","countryIso2":"LC","countryName":"Saint Lucia","hotelRating":"0","latitude":"13.9853","longitude":"-60.9819","state_id":null,"state_name":null,"country_id":null},{"active":false,"Giataid":"528657","cityId":66362,"cityName":"Rodney Bay","hotelId":20005337,"hotelName":"Heliconia House","address":"Boguis,Babonneau,Saint Lucia","phones":"","fax":"","email":"","url":"","countryIso2":"LC","countryName":"Saint Lucia","hotelRating":"0","latitude":"14.0754","longitude":"-60.9514","state_id":3766,"state_name":"Gros Islet Quarter","country_id":186},{"active":false,"Giataid":"376272","cityId":null,"cityName":"St. Lucia","hotelId":20005646,"hotelName":"Beachcross Villa Apartments","address":"Reduit Beach Avenue,P.O.Box GM 508,Castries,St. Lucia,West Indies,Saint Lucia","phones":"+17584528553","fax":"+17584528553","email":"reservations@beachcrossvillaapartments.com","url":"http://www.beachcrossvillas.com","countryIso2":"LC","countryName":"Saint Lucia","hotelRating":"2","latitude":"14.0755","longitude":"-60.9538","state_id":null,"state_name":null,"country_id":null},{"active":false,"Giataid":"529060","cityId":null,"cityName":"Marigot Bay","hotelId":20005850,"hotelName":"Villa Pomme d'Amour","address":"Marigot,Marigot Bay,Saint Lucia","phones":"+17584515189","fax":"","email":"info@villapommedamour.com","url":"http://villapommedamour.com/","countryIso2":"LC","countryName":"Saint Lucia","hotelRating":"0","latitude":"13.9649","longitude":"-61.0265","state_id":null,"state_name":null,"country_id":null},{"active":false,"Giataid":"723856","cityId":31016,"cityName":"Soufriere","hotelId":20006041,"hotelName":"Apartment Soleil","address":"Hill Top,Soufriere,Saint Lucia","phones":"+17585193778","fax":"","email":"downtownsoufriere@gmail.com","url":"http://www.apartmentsoleilstlucia.com","countryIso2":"LC","countryName":"Saint Lucia","hotelRating":"0","latitude":"13.8594","longitude":"-61.0587","state_id":4077,"state_name":"Saint Mark Parish","country_id":61},{"active":false,"Giataid":"724111","cityId":66420,"cityName":"Vieux Fort","hotelId":20006217,"hotelName":"Aupic Paradise","address":"Aupicon,PO Box 513,Vieux Fort,Saint Lucia","phones":"+17584545857","fax":"+17584545853","email":"info@VisitAupicParadise.com","url":"http://www.visitaupicparadise.com","countryIso2":"LC","countryName":"Saint Lucia","hotelRating":"0","latitude":"13.7636","longitude":"-60.9325","state_id":3763,"state_name":"Vieux Fort Quarter","country_id":186},{"active":false,"Giataid":"681371","cityId":66420,"cityName":"Vieux Fort","hotelId":20006390,"hotelName":"Serenity at Coconut Bay","address":"PO Box 246,Eau Piquant,Saint Lucia,Saint Lucia","phones":"+17584596064","fax":"","email":"Serenity@cbayna.com","url":"https://serenityatcoconutbay.com/","countryIso2":"LC","countryName":"Saint Lucia","hotelRating":"0","latitude":"13.7423","longitude":"-60.9404","state_id":3763,"state_name":"Vieux Fort Quarter","country_id":186},{"active":false,"Giataid":"604554","cityId":66184,"cityName":"Gros Islet","hotelId":20006564,"hotelName":"Celestial Vacation Home","address":"Reduit Park,Rodney Bay,Gros Islet,Saint Lucia","phones":"","fax":"","email":"","url":"","countryIso2":"LC","countryName":"Saint Lucia","hotelRating":"0","latitude":"14.0843","longitude":"-60.9524","state_id":3766,"state_name":"Gros Islet Quarter","country_id":186},{"active":false,"Giataid":"9697","cityId":null,"cityName":"Cape Estate","hotelId":20006753,"hotelName":"Villa Capri","address":"12 Cap Drive,Cap Estate,Gros Islet,Saint Lucia","phones":"","fax":"","email":"","url":"","countryIso2":"LC","countryName":"Saint Lucia","hotelRating":"0","latitude":"14.071","longitude":"-60.9506","state_id":null,"state_name":null,"country_id":null},{"active":false,"Giataid":"9697","cityId":null,"cityName":"Cape Estate","hotelId":20006753,"hotelName":"Villa Capri","address":"12 Cap Drive,Cap Estate,Gros Islet,Saint Lucia","phones":"","fax":"","email":"","url":"","countryIso2":"LC","countryName":"Saint Lucia","hotelRating":"0","latitude":"14.071","longitude":"-60.9506","state_id":null,"state_name":null,"country_id":null},{"active":false,"Giataid":"724206","cityId":66184,"cityName":"Gros Islet","hotelId":20006920,"hotelName":"Villa Canary","address":"Cap Estate,Gros Islet,Saint Lucia","phones":"","fax":"","email":"","url":"","countryIso2":"LC","countryName":"Saint Lucia","hotelRating":"0","latitude":"14.0843","longitude":"-60.9524","state_id":3766,"state_name":"Gros Islet Quarter","country_id":186},{"active":false,"Giataid":"285893","cityId":null,"cityName":"Cape Estate","hotelId":20007116,"hotelName":"Hotel Chez Marie Alish","address":"Massade,P.O. Box RB 2540,Gros Islet,Saint Lucia","phones":"+17584500482","fax":"+17584508279","email":"chezmariealish@hotmail.com","url":"http://chezmariealish.tripod.com","countryIso2":"LC","countryName":"Saint Lucia","hotelRating":"3","latitude":"14.0812","longitude":"-60.9478","state_id":null,"state_name":null,"country_id":null},{"active":false,"Giataid":"409136","cityId":66362,"cityName":"Rodney Bay","hotelId":20007294,"hotelName":"Tauchbasis - Iyanola Dive Ventures","address":"P.O. Box 2641,Rodney Bay,Gros islet,Saint Lucia","phones":"+17585845642","fax":"","email":"scuba@iyanoladiveventures.com","url":"http://www.iyanoladiveventures.com","countryIso2":"LC","countryName":"Saint Lucia","hotelRating":"0","latitude":"14.0803","longitude":"-60.9535","state_id":3766,"state_name":"Gros Islet Quarter","country_id":186},{"active":false,"Giataid":"724790","cityId":null,"cityName":"Marigot Bay","hotelId":20007447,"hotelName":"Tropical Paradise View","address":"Au Tabor,Anse La Raye,LC 08101 Marigot Bay,Saint Lucia","phones":"","fax":"","email":"","url":"","countryIso2":"LC","countryName":"Saint Lucia","hotelRating":"0","latitude":"13.9649","longitude":"-61.0265","state_id":null,"state_name":null,"country_id":null},{"active":false,"Giataid":"528367","cityId":40597,"cityName":"Castries","hotelId":20007591,"hotelName":"Bayside Villa St. Lucia","address":"La Toc Road,P.O. Box 790,Castries,Saint Lucia Caribbean,Saint Lucia","phones":"+17584846480","fax":"+17584531498","email":"baysidevillastlucia@gmail.com","url":"http://www.baysidevillastlucia.com/","countryIso2":"LC","countryName":"Saint Lucia","hotelRating":"3","latitude":"14.0098","longitude":"-61.0017","state_id":4799,"state_name":"Occitanie","country_id":75},{"active":false,"Giataid":"626546","cityId":40597,"cityName":"Castries","hotelId":20007756,"hotelName":"Bel Jou Hotel","address":"La Pensee Road,PO Box 296,Castries,Saint Lucia","phones":"+17584561800","fax":"","email":"","url":"","countryIso2":"LC","countryName":"Saint Lucia","hotelRating":"3","latitude":"14.0147","longitude":"-60.9816","state_id":4799,"state_name":"Occitanie","country_id":75},{"active":false,"Giataid":"723979","cityId":66184,"cityName":"Gros Islet","hotelId":20007891,"hotelName":"Xhale Luxury Villa","address":"Cap Estate,Gros Islet,Saint Lucia","phones":"+17587289199","fax":"","email":"xhaleluxuryvilla@gmail.com","url":"https://www.xhaleluxuryvilla.com","countryIso2":"LC","countryName":"Saint Lucia","hotelRating":"0","latitude":"14.0843","longitude":"-60.9524","state_id":3766,"state_name":"Gros Islet Quarter","country_id":186},{"active":false,"Giataid":"604556","cityId":66420,"cityName":"Vieux Fort","hotelId":20008076,"hotelName":"Fortville Inn","address":"Fortville,Opposite the old Skyway Inn,Vieux Fort,Saint Lucia","phones":"","fax":"","email":"","url":"","countryIso2":"LC","countryName":"Saint Lucia","hotelRating":"0","latitude":"13.7207","longitude":"-60.9503","state_id":3763,"state_name":"Vieux Fort Quarter","country_id":186},{"active":false,"Giataid":"513159","cityId":66184,"cityName":"Gros Islet","hotelId":20008255,"hotelName":"Cleopatra Villas - Coast Luxury Townhouses","address":"Coast Luxury Townhouses,Rodney Bay,Gros Islet,Saint Lucia","phones":"+17584580703","fax":"","email":"info@villasinstlucia.com","url":"http://villasinstlucia.com/listings/coast-luxury-townhouses-6-1-bed/","countryIso2":"LC","countryName":"Saint Lucia","hotelRating":"3","latitude":"14.0688","longitude":"-60.9506","state_id":3766,"state_name":"Gros Islet Quarter","country_id":186},{"active":false,"Giataid":"604558","cityId":66420,"cityName":"Vieux Fort","hotelId":20008354,"hotelName":"Miss J Bed and Breakfast","address":"Morne Beausejour,Vieux Fort,Saint Lucia","phones":"","fax":"","email":"","url":"","countryIso2":"LC","countryName":"Saint Lucia","hotelRating":"0","latitude":"13.7387","longitude":"-60.9469","state_id":3763,"state_name":"Vieux Fort Quarter","country_id":186},{"active":false,"Giataid":"643331","cityId":66184,"cityName":"Gros Islet","hotelId":20008517,"hotelName":"Gateway Villas Gatepark","address":"Cap Estate,Rodney Bay,Gros Islet,Saint Lucia","phones":"","fax":"","email":"","url":"","countryIso2":"LC","countryName":"Saint Lucia","hotelRating":"0","latitude":"14.0844","longitude":"-60.9453","state_id":3766,"state_name":"Gros Islet Quarter","country_id":186},{"active":false,"Giataid":"721677","cityId":66184,"cityName":"Gros Islet","hotelId":20008662,"hotelName":"Hotel Baywalk Penthouses","address":"Rodney Bay,Gros Islet,Saint Lucia","phones":"","fax":"","email":"","url":"","countryIso2":"LC","countryName":"Saint Lucia","hotelRating":"0","latitude":"14.0843","longitude":"-60.9524","state_id":3766,"state_name":"Gros Islet Quarter","country_id":186},{"active":false,"Giataid":"869553","cityId":66184,"cityName":"Gros Islet","hotelId":20349530,"hotelName":"Chateau Caraibes","address":"Cas En Bas Road,Gros Islet,Saint Lucia","phones":"+17584517443","fax":"","email":"angelsstlucia@gmail.com","url":"http://www.chateaucaraibes.com","countryIso2":"LC","countryName":"Saint Lucia","hotelRating":"0","latitude":"14.0905","longitude":"-60.9289","state_id":3766,"state_name":"Gros Islet Quarter","country_id":186},{"active":false,"Giataid":"940491","cityId":40597,"cityName":"Castries","hotelId":20349531,"hotelName":"Mount Royal Luxury Condos","address":"Belle Vue Gros Islet,Castries,Saint Lucia","phones":"","fax":"","email":"","url":"","countryIso2":"LC","countryName":"Saint Lucia","hotelRating":"0","latitude":"14.0152","longitude":"-60.9945","state_id":4799,"state_name":"Occitanie","country_id":75},{"active":false,"Giataid":"738324","cityId":66362,"cityName":"Rodney Bay","hotelId":20349532,"hotelName":"Harbor Club St. Lucia, Curio Collection by Hilton","address":"Rodney Bay,Gros Islet,Saint Lucia","phones":"+17587312900","fax":"","email":"hr@theharborclub.com","url":"http://curiocollection3.hilton.com/en/hotels/saint-lucia/harbor-club-st-lucia-curio-collection-by-hilton-SLUHCQQ/index.html","countryIso2":"LC","countryName":"Saint Lucia","hotelRating":"5","latitude":"14.073","longitude":"-60.9477","state_id":3766,"state_name":"Gros Islet Quarter","country_id":186},{"active":false,"Giataid":"796878","cityId":31016,"cityName":"Soufriere","hotelId":20349533,"hotelName":"Villa Des Pitons","address":"Lower La Haut Road,Soufri?re,Saint Lucia","phones":"+17584597797","fax":"","email":"gustave.michael@gmail.com","url":"http://villadespitons.com/","countryIso2":"LC","countryName":"Saint Lucia","hotelRating":"0","latitude":"13.8504","longitude":"-61.0547","state_id":4077,"state_name":"Saint Mark Parish","country_id":61},{"active":false,"Giataid":"936023","cityId":40597,"cityName":"Castries","hotelId":20349534,"hotelName":"Sunwest Tropical Villas","address":"Marina View,Castries,Saint Lucia","phones":"+17585204732","fax":"","email":"sunwest@candw.lc","url":"http://www.sunwestvilla.com","countryIso2":"LC","countryName":"Saint Lucia","hotelRating":"0","latitude":"14.0152","longitude":"-60.9945","state_id":4799,"state_name":"Occitanie","country_id":75},{"active":false,"Giataid":"779257","cityId":31016,"cityName":"Soufriere","hotelId":20349535,"hotelName":"Bananaquit House","address":"Anse Chastenet Beach,Soufriere,Saint Lucia,Saint Lucia","phones":"","fax":"","email":"","url":"http://www.stluciahouse.com","countryIso2":"LC","countryName":"Saint Lucia","hotelRating":"0","latitude":"13.8504","longitude":"-61.0547","state_id":4077,"state_name":"Saint Mark Parish","country_id":61},{"active":false,"Giataid":"871086","cityId":40597,"cityName":"Castries","hotelId":20349536,"hotelName":"La Clery B&B Apartments","address":"John Street,Castries,Saint Lucia","phones":"","fax":"","email":"","url":"","countryIso2":"LC","countryName":"Saint Lucia","hotelRating":"0","latitude":"14.0152","longitude":"-60.9945","state_id":4799,"state_name":"Occitanie","country_id":75},{"active":false,"Giataid":"899087","cityId":null,"cityName":"Marigot Bay","hotelId":20349537,"hotelName":"Villa Isis","address":"Seaview Avenue 183-33,Marigot Bay,Saint Lucia","phones":"","fax":"","email":"","url":"","countryIso2":"LC","countryName":"Saint Lucia","hotelRating":"0","latitude":"13.9649","longitude":"-61.0265","state_id":null,"state_name":null,"country_id":null},{"active":false,"Giataid":"870702","cityId":null,"cityName":"St. Lucia","hotelId":20349538,"hotelName":"Island Mix Room","address":"Rodney Bay,Saint Lucia,Saint Lucia","phones":"","fax":"","email":"","url":"","countryIso2":"LC","countryName":"Saint Lucia","hotelRating":"0","latitude":"13.9853","longitude":"-60.9819","state_id":null,"state_name":null,"country_id":null},{"active":false,"Giataid":"919707","cityId":66184,"cityName":"Gros Islet","hotelId":20349539,"hotelName":"La Porsuette Inn","address":"Corinth,Gros Islet,Saint Lucia","phones":"","fax":"","email":"","url":"","countryIso2":"LC","countryName":"Saint Lucia","hotelRating":"0","latitude":"14.0843","longitude":"-60.9524","state_id":3766,"state_name":"Gros Islet Quarter","country_id":186},{"active":false,"Giataid":"919702","cityId":40597,"cityName":"Castries","hotelId":20349540,"hotelName":"Sunrise View Saint Lucia","address":"16 Tapion,Castries,Saint Lucia","phones":"+17585185000","fax":"","email":"Sunriseviewstlucia@hotmail.com","url":"http://www.sunriseviewstlucia.com","countryIso2":"LC","countryName":"Saint Lucia","hotelRating":"0","latitude":"14.0139","longitude":"-61.0066","state_id":4799,"state_name":"Occitanie","country_id":75},{"active":false,"Giataid":"868782","cityId":66264,"cityName":"Micoud","hotelId":20349541,"hotelName":"Toutwelle Lodge B&B","address":"Mon Repos Mi,La Pointe Road,Micoud,Saint Lucia","phones":"","fax":"","email":"","url":"","countryIso2":"LC","countryName":"Saint Lucia","hotelRating":"0","latitude":"13.8026","longitude":"-60.9014","state_id":3762,"state_name":"Micoud Quarter","country_id":186},{"active":false,"Giataid":"878564","cityId":66420,"cityName":"Vieux Fort","hotelId":20349542,"hotelName":"Pomme Gardens","address":"Pomme Augier,Vieux Fort,Saint Lucia","phones":"+17587227218","fax":"","email":"info@pommegardens.com","url":"http://pommegardens.com","countryIso2":"LC","countryName":"Saint Lucia","hotelRating":"0","latitude":"13.7387","longitude":"-60.9469","state_id":3763,"state_name":"Vieux Fort Quarter","country_id":186},{"active":false,"Giataid":"604559","cityId":66341,"cityName":"Praslin","hotelId":20349543,"hotelName":"A Paradise View","address":"Mon Repos Post Office,Mamiku Road,Micoud,Praslin,Saint Lucia","phones":"+17585183512","fax":"","email":"aparadiseview@yahoo.com","url":"http://aparadiseview.wixsite.com/","countryIso2":"LC","countryName":"Saint Lucia","hotelRating":"2","latitude":"13.8562","longitude":"-60.9051","state_id":3762,"state_name":"Micoud Quarter","country_id":186},{"active":false,"Giataid":"757536","cityId":31016,"cityName":"Soufriere","hotelId":20349544,"hotelName":"Suenos","address":"New Development Soufriere,Soufri?re,Saint Lucia","phones":"","fax":"","email":"","url":"","countryIso2":"LC","countryName":"Saint Lucia","hotelRating":"0","latitude":"13.8504","longitude":"-61.0547","state_id":4077,"state_name":"Saint Mark Parish","country_id":61},{"active":false,"Giataid":"905671","cityId":null,"cityName":"Cape Estate","hotelId":20349545,"hotelName":"Tranquil Sunset","address":"6 Golf Park Road,Cap Estate,Saint Lucia","phones":"","fax":"","email":"","url":"","countryIso2":"LC","countryName":"Saint Lucia","hotelRating":"0","latitude":"14.093","longitude":"-60.9446","state_id":null,"state_name":null,"country_id":null},{"active":false,"Giataid":"919697","cityId":66184,"cityName":"Gros Islet","hotelId":20349546,"hotelName":"Win's Bay Side Villas","address":"Massade,Gros Islet,Saint Lucia","phones":"","fax":"","email":"","url":"","countryIso2":"LC","countryName":"Saint Lucia","hotelRating":"0","latitude":"14.0789","longitude":"-60.949","state_id":3766,"state_name":"Gros Islet Quarter","country_id":186},{"active":false,"Giataid":"940483","cityId":31016,"cityName":"Soufriere","hotelId":20349547,"hotelName":"Petit Peak","address":"Bay Street,Soufriere,Saint Lucia","phones":"","fax":"","email":"","url":"","countryIso2":"LC","countryName":"Saint Lucia","hotelRating":"0","latitude":"13.8504","longitude":"-61.0547","state_id":4077,"state_name":"Saint Mark Parish","country_id":61},{"active":false,"Giataid":"755662","cityId":null,"cityName":"Marigot Bay","hotelId":20349548,"hotelName":"The Villa On The Bay","address":"123 Seaview Avenue,Marigot Bay,St. Lucia,Saint Lucia","phones":"","fax":"","email":"","url":"","countryIso2":"LC","countryName":"Saint Lucia","hotelRating":"0","latitude":"13.9649","longitude":"-61.0265","state_id":null,"state_name":null,"country_id":null},{"active":false,"Giataid":"870118","cityId":40597,"cityName":"Castries","hotelId":20349549,"hotelName":"Serenite Vigie","address":"Vigie Drive,Vigie,Castries,Saint Lucia","phones":"+17584530341","fax":"+17584530341","email":"","url":"http://www.serenitevigie.com","countryIso2":"LC","countryName":"Saint Lucia","hotelRating":"0","latitude":"14.0234","longitude":"-61.0042","state_id":4799,"state_name":"Occitanie","country_id":75},{"active":false,"Giataid":"905673","cityId":66233,"cityName":"Laborie","hotelId":20349550,"hotelName":"Lï¿½Escape A Boutique Resort","address":"Balembouche Estate,Laborie,Saint Lucia","phones":"","fax":"","email":"","url":"","countryIso2":"LC","countryName":"Saint Lucia","hotelRating":"1","latitude":"13.8035","longitude":"-61.0119","state_id":3759,"state_name":"Laborie Quarter","country_id":186},{"active":false,"Giataid":"868799","cityId":null,"cityName":"St. Lucia","hotelId":20349551,"hotelName":"Bay Court Inn","address":"Rodney Bay,Baywalk Mall Avenue,St. Lucia,Saint Lucia","phones":"+17582854245","fax":"","email":"reservations@baycourtinn.com","url":"http://www.baycourtinn.com/","countryIso2":"LC","countryName":"Saint Lucia","hotelRating":"0","latitude":"13.9853","longitude":"-60.9819","state_id":null,"state_name":null,"country_id":null},{"active":false,"Giataid":"726434","cityId":66264,"cityName":"Micoud","hotelId":20349552,"hotelName":"Villa Madeleine","address":"Canelles,Micoud,Saint Lucia","phones":"","fax":"","email":"","url":"","countryIso2":"LC","countryName":"Saint Lucia","hotelRating":"0","latitude":"13.8026","longitude":"-60.9014","state_id":3762,"state_name":"Micoud Quarter","country_id":186},{"active":false,"Giataid":"958333","cityId":31016,"cityName":"Soufriere","hotelId":20412734,"hotelName":"Amazon Villas","address":"Fond St Jacques,Soufriere 1758,Saint Lucia","phones":"","fax":"","email":"","url":"","countryIso2":"LC","countryName":"Saint Lucia","hotelRating":"1","latitude":"13.8504","longitude":"-61.0547","state_id":4077,"state_name":"Saint Mark Parish","country_id":61},{"active":false,"Giataid":"956900","cityId":40597,"cityName":"Castries","hotelId":20412735,"hotelName":"Dï¿½ office Inn","address":"Mary Ann Street,Cap Park Hill,Cap Estate,Castries,Saint Lucia","phones":"","fax":"","email":"","url":"","countryIso2":"LC","countryName":"Saint Lucia","hotelRating":"1","latitude":"14.0152","longitude":"-60.9945","state_id":4799,"state_name":"Occitanie","country_id":75},{"active":false,"Giataid":"956912","cityId":null,"cityName":"Marigot Bay","hotelId":20412736,"hotelName":"Mango Mansion Marigot Bay","address":"Marigot Bay,Saint Lucia,Saint Lucia","phones":"","fax":"","email":"","url":"","countryIso2":"LC","countryName":"Saint Lucia","hotelRating":"1","latitude":"13.9649","longitude":"-61.0265","state_id":null,"state_name":null,"country_id":null},{"active":false,"Giataid":"956938","cityId":null,"cityName":"Choc Bay","hotelId":20412737,"hotelName":"Pastoral Retreat & Conference Centre Marisule","address":"Marisule Gros Islet,PO Box  GM 592,Choc,Saint Lucia","phones":"","fax":"","email":"","url":"","countryIso2":"LC","countryName":"Saint Lucia","hotelRating":"1","latitude":"14.0337","longitude":"-60.9702","state_id":null,"state_name":null,"country_id":null},{"active":false,"Giataid":"1003107","cityId":66420,"cityName":"Vieux Fort","hotelId":20436587,"hotelName":"Lillyrose Motel","address":"Morne Bessajour,Vieux Fort,Saint Lucia","phones":"","fax":"","email":"","url":"","countryIso2":"LC","countryName":"Saint Lucia","hotelRating":"1","latitude":"13.7387","longitude":"-60.9469","state_id":3763,"state_name":"Vieux Fort Quarter","country_id":186}]