[{"active":false,"Giataid":"4997","cityId":null,"cityName":"Abu Dhabi","hotelId":4997,"hotelName":"Radisson Blu Hotel & Resort Abu Dhabi Corniche","address":"Corniche Road West,Al Khubeirah,Abu Dhabi,United Arab Emirates","phones":"+97126811900","fax":"+97126811696","email":"abudhabi.info@hilton.com","url":"http://www1.hilton.com/en_US/hi/hotel/AUHHITW-Hilton-Abu-Dhabi-hotel/index.do","countryIso2":"AE","countryName":"United Arab Emirates","hotelRating":"5","latitude":"24.4634","longitude":"54.3263","state_id":null,"state_name":null,"country_id":null},{"active":false,"Giataid":"4998","cityId":null,"cityName":"Abu Dhabi","hotelId":4998,"hotelName":"Beach Rotana","address":"10th Street,P.O. Box 45200,Al Zahiyah Area,Abu Dhabi,United Arab Emirates","phones":"+97126979000","fax":"+97126442111","email":"","url":"http://www.rotana.com/property-4.htm","countryIso2":"AE","countryName":"United Arab Emirates","hotelRating":"5","latitude":"24.4943","longitude":"54.3842","state_id":null,"state_name":null,"country_id":null},{"active":false,"Giataid":"7220","cityId":null,"cityName":"Ras al Khaimah","hotelId":7220,"hotelName":"Hilton Al Hamra Beach & Golf Resort","address":"Vienna Street,Al Jazirah Al Hamra,P.O. Box 1468,Ras Al Khaimah,United Arab Emirates","phones":"+97172446666","fax":"+97172446677","email":"reservations.hamra@hilton.com","url":"http://www.alhamrafort.com","countryIso2":"AE","countryName":"United Arab Emirates","hotelRating":"5","latitude":"25.6903","longitude":"55.7759","state_id":null,"state_name":null,"country_id":null},{"active":false,"Giataid":"7221","cityId":null,"cityName":"Dubai Desert Conservation Reserve","hotelId":7221,"hotelName":"Al Maha a Luxury Collection Desert Resort & Spa","address":"Al Ain Road,Dubai Desert Conservation Reserve,P.O. Box 118887,Dubai,United Arab Emirates","phones":"+97148329900","fax":"+97148329211","email":"reservation.almaha@luxurycollection.com","url":"http://www.al-maha.com","countryIso2":"AE","countryName":"United Arab Emirates","hotelRating":"5","latitude":"24.8219","longitude":"55.6614","state_id":null,"state_name":null,"country_id":null},{"active":false,"Giataid":"8618","cityId":null,"cityName":"Abu Dhabi","hotelId":8618,"hotelName":"Hilton Baynunah","address":"P. O. Box 30877,Abu Dhabi,United Arab Emirates","phones":"+97126327777","fax":"","email":"","url":"http://www.hilton.de/baynunah","countryIso2":"AE","countryName":"United Arab Emirates","hotelRating":"5","latitude":"24.4822","longitude":"54.35","state_id":null,"state_name":null,"country_id":null},{"active":false,"Giataid":"12871","cityId":null,"cityName":"Abu Dhabi","hotelId":12871,"hotelName":"Forte Grand","address":"NULL","phones":"","fax":"","email":"","url":"","countryIso2":"AE","countryName":"United Arab Emirates","hotelRating":"1","latitude":"24.2992","longitude":"54.6973","state_id":null,"state_name":null,"country_id":null},{"active":false,"Giataid":"13978","cityId":null,"cityName":"Al Ain","hotelId":13978,"hotelName":"Hilton Al Ain","address":"Al Sarooj District,Al Ain 00001,United Arab Emirates","phones":"+97137686666","fax":"+97137686888","email":"alain@hilton.com","url":"http://www1.hilton.com/en_US/hi/hotel/AANHITW/index.do","countryIso2":"AE","countryName":"United Arab Emirates","hotelRating":"4","latitude":"24.2072","longitude":"55.7853","state_id":null,"state_name":null,"country_id":null},{"active":false,"Giataid":"13987","cityId":null,"cityName":"Abu Dhabi","hotelId":13987,"hotelName":"Hilton Corniche Hotel Apartments","address":"P.O.Box 6677,Old Corniche Road,Abu Dhabi,United Arab Emirates","phones":"+97126276000","fax":"+97126270099","email":"corniche@hilton.com","url":"http://www1.hilton.com/en_US/hi/hotel/AUHCOTW-Hilton-Corniche-Hotel-Apartments/index.do","countryIso2":"AE","countryName":"United Arab Emirates","hotelRating":"4","latitude":"24.4944","longitude":"54.3615","state_id":null,"state_name":null,"country_id":null},{"active":false,"Giataid":"13994","cityId":null,"cityName":"Fujairah","hotelId":13994,"hotelName":"Hilton Fujairah Resort","address":"Corniche Street,E99,Al Ghorfa,P.O. Box 231,Fujairah,United Arab Emirates","phones":"+97192222411","fax":"","email":"","url":"http://www.hilton.co.uk/fujairah","countryIso2":"AE","countryName":"United Arab Emirates","hotelRating":"5","latitude":"25.1361","longitude":"56.3552","state_id":null,"state_name":null,"country_id":null},{"active":false,"Giataid":"14864","cityId":null,"cityName":"Abu Dhabi","hotelId":14864,"hotelName":"Intercontinental Abu Dhabi","address":"King Abdullah bin Abdul Aziz Al Saud Street,PO Box 4171,Abu Dhabi,United Arab Emirates","phones":"+97126666888","fax":"+97126669153","email":"abudhabi@icauh.ae","url":"http://www.ichotelsgroup.com/intercontinental/en/gb/locations/abudhabi","countryIso2":"AE","countryName":"United Arab Emirates","hotelRating":"5","latitude":"24.4569","longitude":"54.3291","state_id":null,"state_name":null,"country_id":null},{"active":false,"Giataid":"14865","cityId":null,"cityName":"Al Ain","hotelId":14865,"hotelName":"Danat Al Ain Resort","address":"P.O. Box 16031,Al Ain,United Arab Emirates","phones":"+97137046000","fax":"","email":"info.alain@danathotels.com","url":"http://www.danathotels.com/Hotels-Resorts/Danat-Al-Ain-Resort","countryIso2":"AE","countryName":"United Arab Emirates","hotelRating":"5","latitude":"24.2079","longitude":"55.8045","state_id":null,"state_name":null,"country_id":null},{"active":false,"Giataid":"15052","cityId":null,"cityName":"Ghantoot","hotelId":15052,"hotelName":"Golden Tulip Al Jazira Hotel & Resort","address":"Ghantoot Exit 399,P.O. Box 26268,Ghantoot,Dubai,United Arab Emirates","phones":"+97125629100","fax":"+97125629035","email":"reservations@goldentulipaljazira.com","url":"http://www.goldentulipaljazira.com","countryIso2":"AE","countryName":"United Arab Emirates","hotelRating":"4","latitude":"24.8577","longitude":"54.8964","state_id":null,"state_name":null,"country_id":null},{"active":false,"Giataid":"16089","cityId":null,"cityName":"Abu Dhabi","hotelId":16089,"hotelName":"Le Meridien Abu Dhabi","address":"Tourist Club Area,46066 Abu Dhabi,United Arab Emirates","phones":"+97126446666","fax":"+97126440348","email":"lemeridien.abudhabi@lemeridien.com","url":"http://www.starwoodhotels.com/lemeridien/property/overview/index.html?propertyID=1899","countryIso2":"AE","countryName":"United Arab Emirates","hotelRating":"4","latitude":"24.4986","longitude":"54.3809","state_id":null,"state_name":null,"country_id":null},{"active":false,"Giataid":"17486","cityId":null,"cityName":"Abu Dhabi","hotelId":17486,"hotelName":"Al Diar Mina ","address":"Mina Road,PO Box 44421,Abu Dhabi,United Arab Emirates","phones":"+97126781000","fax":"+97126791000","email":"minahotel@regency-mina.ae","url":"http://www.aldiarhotels.com/site/main/mina.php","countryIso2":"AE","countryName":"United Arab Emirates","hotelRating":"3","latitude":"24.5002","longitude":"54.3712","state_id":null,"state_name":null,"country_id":null},{"active":false,"Giataid":"20014","cityId":null,"cityName":"Abu Dhabi","hotelId":20014,"hotelName":"Hawthorn Suites by Wyndham Abu Dhabi City Center","address":"Salam Street,P.O 44916,Abu Dhabi,United Arab Emirates","phones":"+97126765000","fax":"+97126777446","email":"reservation@regency-mina.ae","url":"http://www.aldiarhotels.com/aldiarregencyhotel","countryIso2":"AE","countryName":"United Arab Emirates","hotelRating":"4","latitude":"24.5001","longitude":"54.3705","state_id":null,"state_name":null,"country_id":null},{"active":false,"Giataid":"21503","cityId":null,"cityName":"Abu Dhabi","hotelId":21503,"hotelName":"Sheraton Abu Dhabi Hotel & Resort","address":"Corniche Road,P.O. Box: 640,Abu Dhabi,United Arab Emirates","phones":"+97126773333","fax":"+97126725149","email":"sheraton.abudhabi@sheraton.com","url":"http://www.sheraton.com","countryIso2":"AE","countryName":"United Arab Emirates","hotelRating":"5","latitude":"24.5003","longitude":"54.3686","state_id":null,"state_name":null,"country_id":null},{"active":false,"Giataid":"22883","cityId":null,"cityName":"Khorfakkan","hotelId":22883,"hotelName":"Oceanic Khorfakkan Resort & Spa","address":"Al Mudifi Street,Opposite Al Matlaa Park,P.O. Box 10444,Khorfakkan,Sharjah,United Arab Emirates","phones":"+97192385111","fax":"+97192387716","email":"info@oceanichotel.com","url":"http://www.oceanichotel.com","countryIso2":"AE","countryName":"United Arab Emirates","hotelRating":"4","latitude":"25.3713","longitude":"56.3489","state_id":null,"state_name":null,"country_id":null},{"active":false,"Giataid":"25939","cityId":null,"cityName":"Al Hamra Village","hotelId":25939,"hotelName":"smartline Bin Majid Beach Resort","address":"Al Jazeera,Al Hamra,United Arab Emirates","phones":"+97172446644","fax":"+97172446633","email":"resort@binmajid.com","url":"http://resort.binmajid.com/en/","countryIso2":"AE","countryName":"United Arab Emirates","hotelRating":"4","latitude":"25.6681","longitude":"55.7595","state_id":null,"state_name":null,"country_id":null},{"active":false,"Giataid":"27429","cityId":null,"cityName":"Fujairah","hotelId":27429,"hotelName":"Al Diar Siji","address":"P.O. Box 1199,Hamad Bin Abdulla Al Sharqi Street,Fujairah,United Arab Emirates","phones":"+97192232000","fax":"+97192232111","email":"reservations@aldiarsijihotel.com","url":"http://www.aldiarsijihotel.com/","countryIso2":"AE","countryName":"United Arab Emirates","hotelRating":"5","latitude":"25.1217","longitude":"56.3327","state_id":null,"state_name":null,"country_id":null},{"active":false,"Giataid":"27827","cityId":null,"cityName":"Ras al Khaimah","hotelId":27827,"hotelName":"Hilton Garden Inn Ras Al Khaimah","address":"Bin Daher Street,P.O. Box 11133,Ras Al Khaimah,United Arab Emirates","phones":"+97172288888","fax":"","email":"","url":"http://www.trivago.de/ras-al-khaimah-city-553/hotel/hilton-ras-al-khaimah-8962","countryIso2":"AE","countryName":"United Arab Emirates","hotelRating":"5","latitude":"25.7939","longitude":"55.9673","state_id":null,"state_name":null,"country_id":null},{"active":false,"Giataid":"32014","cityId":null,"cityName":"Al Agah","hotelId":32014,"hotelName":"Le Meridien Al Aqah Beach Resort","address":"PO Box 3070,Dibba Road,Fujairah,United Arab Emirates","phones":"+97192449000","fax":"+97192449001","email":"reservation.lmaa@lemeridien.com","url":"http://www.starwoodhotels.com/lemeridien","countryIso2":"AE","countryName":"United Arab Emirates","hotelRating":"5","latitude":"25.5067","longitude":"56.3633","state_id":null,"state_name":null,"country_id":null},{"active":false,"Giataid":"41785","cityId":null,"cityName":"Al Ain","hotelId":41785,"hotelName":"Mercure Grand Jebel Hafeet Al Ain Hotel","address":"Jebel Hafeet,PO Box 24476,Al Ain,United Arab Emirates","phones":"+97137838888","fax":"+97137839000","email":"H3573@accor.com","url":"http://www.mercure.com/de/hotel-3573-mercure-grand-jebel-hafeet-al-ain/index.shtml","countryIso2":"AE","countryName":"United Arab Emirates","hotelRating":"4","latitude":"24.0778","longitude":"55.7683","state_id":null,"state_name":null,"country_id":null},{"active":false,"Giataid":"42262","cityId":null,"cityName":"Ras al Khaimah","hotelId":42262,"hotelName":"Bin Majid Beach Hotel","address":"King Faisal Street,PO Box 1946,Ras Al Khaimah,United Arab Emirates","phones":"+97172352233","fax":"+97172353225","email":"hotel@binmajid.com","url":"http://hotel.binmajid.com/de/","countryIso2":"AE","countryName":"United Arab Emirates","hotelRating":"4","latitude":"25.7558","longitude":"55.9087","state_id":null,"state_name":null,"country_id":null},{"active":false,"Giataid":"46564","cityId":null,"cityName":"Abu Dhabi","hotelId":46564,"hotelName":"Crowne Plaza Abu Dhabi","address":"Sheikh Hamdan Street,P.O.Box: 3541,Abu Dhabi,United Arab Emirates","phones":"+97126166166","fax":"+97126217444","email":"reservation@cpabudhabi.ae","url":"http://www.ichotelsgruop.com","countryIso2":"AE","countryName":"United Arab Emirates","hotelRating":"5","latitude":"24.4909","longitude":"54.3656","state_id":null,"state_name":null,"country_id":null},{"active":false,"Giataid":"46577","cityId":null,"cityName":"Abu Dhabi","hotelId":46577,"hotelName":"Le Royal Meridien Abu Dhabi","address":"Sheikh Khalifa Street,P.O. Box 45505,Abu Dhabi,United Arab Emirates","phones":"+97126742020","fax":"+97126950434","email":"info.lrmad@lemeridien.com","url":"http://www.starwoodhotels.com/lemeridien/property/overview/index.html?propertyID=1900","countryIso2":"AE","countryName":"United Arab Emirates","hotelRating":"5","latitude":"24.4959","longitude":"54.3666","state_id":null,"state_name":null,"country_id":null},{"active":false,"Giataid":"51411","cityId":null,"cityName":"Abu Dhabi","hotelId":51411,"hotelName":"Emirates Palace Abu Dhabi","address":"West Corniche Road,P.O. Box 39999,Abu Dhabi,United Arab Emirates","phones":"+97126909000","fax":"+97126909999","email":"reservations@emiratespalace.ae","url":"http://www.emiratespalace.com","countryIso2":"AE","countryName":"United Arab Emirates","hotelRating":"5","latitude":"24.4613","longitude":"54.3175","state_id":null,"state_name":null,"country_id":null},{"active":false,"Giataid":"76159","cityId":null,"cityName":"Al Agah","hotelId":76159,"hotelName":"Fujairah Rotana Resort & Spa","address":"Dibba Road,Al Aqah Beach,P.O. Box 1856,Al Aqah,Fujairah,United Arab Emirates","phones":"+97192449888","fax":"+97192449800","email":"","url":"http://www.rotana.com","countryIso2":"AE","countryName":"United Arab Emirates","hotelRating":"5","latitude":"25.5084","longitude":"56.3639","state_id":null,"state_name":null,"country_id":null},{"active":false,"Giataid":"76235","cityId":null,"cityName":"Ras al Khaimah","hotelId":76235,"hotelName":"Julphar","address":"Al Jazah Street,Nakheel Area,Opposite Al Mamoura Police Station,Ras Al Khaimah,United Arab Emirates","phones":"+97172288884","fax":"+97172281819","email":"inquiry@julphar-hotel.ae","url":"http://www.julphar-hotel.ae/","countryIso2":"AE","countryName":"United Arab Emirates","hotelRating":"4","latitude":"25.7962","longitude":"55.9632","state_id":null,"state_name":null,"country_id":null},{"active":false,"Giataid":"129218","cityId":null,"cityName":"Al Ain","hotelId":129218,"hotelName":"City Seasons Al Ain","address":"Sheikh Khalifa Bin Zayed Street,P.O. Box 14929,Al Ain,Abu Dhabi,United Arab Emirates","phones":"+97137550220","fax":"+97137557773","email":"info@cityseasonalain.com","url":"http://www.cityseasonsgroup.com/about_hotel.php?id=6","countryIso2":"AE","countryName":"United Arab Emirates","hotelRating":"4","latitude":"24.2238","longitude":"55.7281","state_id":null,"state_name":null,"country_id":null},{"active":false,"Giataid":"137503","cityId":null,"cityName":"Ras al Khaimah","hotelId":137503,"hotelName":"City Hotel","address":"Al Muntaser Street,P.O. Box 13388,Ras Al Khaimah,United Arab Emirates","phones":"+97172274000","fax":"+97172274000","email":"sales@cityhotel.ae","url":"http://www.cityhotelrak.com","countryIso2":"AE","countryName":"United Arab Emirates","hotelRating":"3","latitude":"25.7817","longitude":"55.9674","state_id":null,"state_name":null,"country_id":null},{"active":false,"Giataid":"137740","cityId":null,"cityName":"Ras al Khaimah","hotelId":137740,"hotelName":"Ras Al Khaimah Hotel","address":"Khozam Street,P.O. Box 56,Ras Al Khaimah,United Arab Emirates","phones":"+97172362999","fax":"+97172362990","email":"reservations@rakhotel.net","url":"http://www.rakhotel.net","countryIso2":"AE","countryName":"United Arab Emirates","hotelRating":"4","latitude":"25.7691","longitude":"55.9386","state_id":null,"state_name":null,"country_id":null},{"active":false,"Giataid":"138442","cityId":null,"cityName":"Fujairah","hotelId":138442,"hotelName":"Clifton International Hotel","address":"Sheikh Hamad Bin Abdullah Street,PO Box 4388,Fujairah,United Arab Emirates","phones":"+97192244788","fax":"+97192244799","email":"info@coral-suites.com","url":"http://www.coral-international.com/Fujairah/index.asp","countryIso2":"AE","countryName":"United Arab Emirates","hotelRating":"4","latitude":"25.1227","longitude":"56.326","state_id":null,"state_name":null,"country_id":null},{"active":false,"Giataid":"138509","cityId":null,"cityName":"Abu Dhabi","hotelId":138509,"hotelName":"Kingsgate Hotel Abu Dhabi","address":"P.O. Box 48573,Al Zahiyah Area,Abu Dhabi,United Arab Emirates","phones":"+97124995000","fax":"+97126430071","email":"sales@kg-abudhabi.ae","url":"http://www.millenniumhotels.ae/kingsgateabudhabi/","countryIso2":"AE","countryName":"United Arab Emirates","hotelRating":"3","latitude":"24.4916","longitude":"54.3798","state_id":null,"state_name":null,"country_id":null},{"active":false,"Giataid":"144433","cityId":null,"cityName":"Abu Dhabi","hotelId":144433,"hotelName":"Tulip Inn Al Rahba","address":"Al Rahba,P.O. Box 77431,Abu Dhabi,United Arab Emirates","phones":"+97125638557","fax":"","email":"","url":"","countryIso2":"AE","countryName":"United Arab Emirates","hotelRating":"2","latitude":"24.6171","longitude":"54.7209","state_id":null,"state_name":null,"country_id":null},{"active":false,"Giataid":"144434","cityId":null,"cityName":"Abu Dhabi","hotelId":144434,"hotelName":"One to One - The Village","address":"Al Salam Street,P.O.Box: 128967,Abu Dhabi,United Arab Emirates","phones":"+97124952000","fax":"+97124952001","email":"info.thevillage@onetoonehotels.com","url":"http://www.onetoonehotels.com/index/the-village/","countryIso2":"AE","countryName":"United Arab Emirates","hotelRating":"4","latitude":"24.4754","longitude":"54.3882","state_id":null,"state_name":null,"country_id":null},{"active":false,"Giataid":"144435","cityId":null,"cityName":"Abu Dhabi","hotelId":144435,"hotelName":"Chi Abu Dhabi","address":"","phones":"","fax":"","email":"","url":"","countryIso2":"AE","countryName":"United Arab Emirates","hotelRating":"1","latitude":"24.4716","longitude":"54.4048","state_id":null,"state_name":null,"country_id":null},{"active":false,"Giataid":"144437","cityId":null,"cityName":"Abu Dhabi","hotelId":144437,"hotelName":"The Eclipse Boutique Suites","address":"Liwa Street,PO Box 113499,Abu Dhabi,United Arab Emirates","phones":"+97126268800","fax":"+97126264161","email":"reservations@eclipsesuites.com","url":"http://www.eclipsesuites.com","countryIso2":"AE","countryName":"United Arab Emirates","hotelRating":"4","latitude":"24.4902","longitude":"54.3575","state_id":null,"state_name":null,"country_id":null},{"active":false,"Giataid":"144438","cityId":null,"cityName":"Abu Dhabi","hotelId":144438,"hotelName":"Ramee Hotel Apartments Abu Dhabi","address":"Abu Dhabi 51153,United Arab Emirates","phones":"+97126422696","fax":"","email":"","url":"","countryIso2":"AE","countryName":"United Arab Emirates","hotelRating":"3","latitude":"24.4757","longitude":"54.3741","state_id":null,"state_name":null,"country_id":null},{"active":false,"Giataid":"144439","cityId":null,"cityName":"Abu Dhabi","hotelId":144439,"hotelName":"Al Nakheel Hotel Apartments","address":"P.O. Box 30831,Abu Dhabi,United Arab Emirates","phones":"+97123044555","fax":"","email":"","url":"","countryIso2":"AE","countryName":"United Arab Emirates","hotelRating":"3","latitude":"24.4547","longitude":"54.3936","state_id":null,"state_name":null,"country_id":null},{"active":false,"Giataid":"144440","cityId":null,"cityName":"Abu Dhabi","hotelId":144440,"hotelName":"Cassells Hotel Apartments","address":"Zayed 1st Street (Electra Road),Al Markaziyah,P.O.Box 59949,Abu Dhabi,United Arab Emirates","phones":"+97126107777","fax":"+97126107788","email":"Cassells@cassellshotelapartments.ae","url":"http://www.cassellshotelapartments.ae","countryIso2":"AE","countryName":"United Arab Emirates","hotelRating":"3","latitude":"24.49","longitude":"54.3686","state_id":null,"state_name":null,"country_id":null},{"active":false,"Giataid":"144462","cityId":null,"cityName":"Fujairah","hotelId":144462,"hotelName":"Emirates Springs Hotel Apartments","address":"Hamad Bin Abdullah Street,P.O. Box 818,Fujairah,United Arab Emirates","phones":"+97192232922","fax":"+97192232922","email":"esrfuj@eim.ae","url":"http://www.esr.ae","countryIso2":"AE","countryName":"United Arab Emirates","hotelRating":"3","latitude":"25.1216","longitude":"56.3436","state_id":null,"state_name":null,"country_id":null},{"active":false,"Giataid":"182761","cityId":null,"cityName":"Abu Dhabi","hotelId":182761,"hotelName":"Yas Island Rotana","address":"Golf Plaza,P.O. Box 131755,Abu Dhabi,Yas Island,United Arab Emirates","phones":"+97126564000","fax":"+97126561414","email":"","url":"http://www.rotana.com/rotanahotelandresorts/unitedarabemirates/abudhabi/yasislandrotana","countryIso2":"AE","countryName":"United Arab Emirates","hotelRating":"4","latitude":"24.4666","longitude":"54.5994","state_id":null,"state_name":null,"country_id":null},{"active":false,"Giataid":"183128","cityId":null,"cityName":"Abu Dhabi","hotelId":183128,"hotelName":"Aloft Abu Dhabi","address":"Khaleej Al Arabi Street,Abu Dhabi National Exhibition Centre,Abu Dhabi,United Arab Emirates","phones":"+97126545000","fax":"+97124499703","email":"rene.camilleri@starwoodhotels.com","url":"http://www.aloftabudhabi.com/","countryIso2":"AE","countryName":"United Arab Emirates","hotelRating":"4","latitude":"24.4202","longitude":"54.4392","state_id":null,"state_name":null,"country_id":null},{"active":false,"Giataid":"187327","cityId":null,"cityName":"Abu Dhabi","hotelId":187327,"hotelName":"Howard Johnson Hotel Abu Dhabi","address":"Shk. Khalifa Street,Abu Dhabi 73095,United Arab Emirates","phones":"+97126710000","fax":"","email":"","url":"","countryIso2":"AE","countryName":"United Arab Emirates","hotelRating":"3","latitude":"24.4954","longitude":"54.3668","state_id":null,"state_name":null,"country_id":null},{"active":false,"Giataid":"188841","cityId":null,"cityName":"Ras al Khaimah","hotelId":188841,"hotelName":"The Ritz-Carlton Ras Al Khaimah, Al Wadi Desert","address":"P.O. Box 35288,Al Mazraa,Ras Al Khaimah,United Arab Emirates","phones":"+97172067777","fax":"+97172435000","email":"reservations-alwadi@banyantree.com","url":"http://www.banyantree.com/el_wadi/overview","countryIso2":"AE","countryName":"United Arab Emirates","hotelRating":"5","latitude":"25.5847","longitude":"55.8349","state_id":null,"state_name":null,"country_id":null},{"active":false,"Giataid":"188842","cityId":null,"cityName":"Abu Dhabi","hotelId":188842,"hotelName":"Centro Yas Island","address":"Golf Plaza,Yas Island,P.O. Box 131755,Abu Dhabi,United Arab Emirates","phones":"+97126564444","fax":"+97125651415","email":"","url":"http://www.rotana.com/centrohotels/unitedarabemirates/abudhabi/centroyasisland","countryIso2":"AE","countryName":"United Arab Emirates","hotelRating":"3","latitude":"24.4653","longitude":"54.599","state_id":null,"state_name":null,"country_id":null},{"active":false,"Giataid":"188843","cityId":null,"cityName":"Abu Dhabi","hotelId":188843,"hotelName":"Yas Hotel Abu Dhabi","address":"PO Box 131808,Yas Island,Abu Dhabi,United Arab Emirates","phones":"+97126560000","fax":"+97126560001","email":"","url":"http://www.viceroyhotelsandresorts.com/abudhabi/","countryIso2":"AE","countryName":"United Arab Emirates","hotelRating":"5","latitude":"24.4673","longitude":"54.6047","state_id":null,"state_name":null,"country_id":null},{"active":false,"Giataid":"195947","cityId":null,"cityName":"Abu Dhabi","hotelId":195947,"hotelName":"Fairmont Bab Al Bahr","address":"Khor Al Maqta,P.O. Box 114304,Abu Dhabi,United Arab Emirates","phones":"+97126543333","fax":"+97126543322","email":"babalbahr@fairmont.com","url":"http://www.fairmont.de/babalbahr/","countryIso2":"AE","countryName":"United Arab Emirates","hotelRating":"5","latitude":"24.4146","longitude":"54.4906","state_id":null,"state_name":null,"country_id":null},{"active":false,"Giataid":"201779","cityId":null,"cityName":"Abu Dhabi","hotelId":201779,"hotelName":"Radisson Blu Hotel Abu Dhabi Yas Island","address":"Golf Plaza,Yas Island,P.O. Box 93725,Abu Dhabi,United Arab Emirates","phones":"+97126562000","fax":"+97126562001","email":"info.abudhabi@radissonblu.com","url":"http://www.radissonblu.com/hotel-abudhabi?facilitator=BIGMOUTHMEDIAREZIDOR&amp;csref=g_de_sk_brand_3_auhzy","countryIso2":"AE","countryName":"United Arab Emirates","hotelRating":"4","latitude":"24.467","longitude":"54.598","state_id":null,"state_name":null,"country_id":null},{"active":false,"Giataid":"202864","cityId":null,"cityName":"Madinat Zayed","hotelId":202864,"hotelName":"Tilal Liwa Hotel","address":"P.O. Box 112723,Madinat Zayed,Al Gharbia,Abu Dhabi,United Arab Emirates","phones":"+97128946111","fax":"","email":"info.tilal@danathotels.com","url":"http://www.danathotels.com/Hotels-Resorts/Tilal-Liwa-Hotel","countryIso2":"AE","countryName":"United Arab Emirates","hotelRating":"4","latitude":"23.534","longitude":"53.8008","state_id":null,"state_name":null,"country_id":null},{"active":false,"Giataid":"202928","cityId":null,"cityName":"Ras al Khaimah","hotelId":202928,"hotelName":"Acacia By Bin Majid Hotels & Resorts","address":"Al Jazeerah,Al Hamra,Ras Al Khaimah,United Arab Emirates","phones":"+97172434421","fax":"+97172434429","email":"hany.moursy@hamrahotels.com","url":"http://www.acaciahotelrak.com/","countryIso2":"AE","countryName":"United Arab Emirates","hotelRating":"4","latitude":"25.6754","longitude":"55.7886","state_id":null,"state_name":null,"country_id":null},{"active":false,"Giataid":"204062","cityId":null,"cityName":"Abu Dhabi","hotelId":204062,"hotelName":"Al Diar Dana","address":"Al Zahiyah Street,P.O. Box 47300,Tourist Club,Abu Dhabi,United Arab Emirates","phones":"+97126456000","fax":"+97126458650","email":"alaa@dana-htl.ae","url":"http://www.aldiarhotels.com/aldiardanahotel","countryIso2":"AE","countryName":"United Arab Emirates","hotelRating":"2","latitude":"24.4965","longitude":"54.3796","state_id":null,"state_name":null,"country_id":null},{"active":false,"Giataid":"204072","cityId":null,"cityName":"Abu Dhabi","hotelId":204072,"hotelName":"Al Manzel Hotel Apartements","address":"Zayed the 1st Street,P.O. Box 129666,Abu Dhabi Tourist Club Area,Abu Dhabi,United Arab Emirates","phones":"+97126448000","fax":"+97126444422","email":"info@almanzel-hotelapartments.ae","url":"http://www.almanzel-hotelapartments.ae","countryIso2":"AE","countryName":"United Arab Emirates","hotelRating":"4","latitude":"24.4959","longitude":"54.379","state_id":null,"state_name":null,"country_id":null},{"active":false,"Giataid":"205297","cityId":null,"cityName":"Abu Dhabi","hotelId":205297,"hotelName":"Asfar Apartment","address":"Salam Street,Opposite Of Abu Dhabi Municipality,Hsbc Bank Building,Abu Dhabi 70057,United Arab Emirates","phones":"","fax":"","email":"","url":"","countryIso2":"AE","countryName":"United Arab Emirates","hotelRating":"3","latitude":"24.4876","longitude":"54.3806","state_id":null,"state_name":null,"country_id":null},{"active":false,"Giataid":"207860","cityId":null,"cityName":"Abu Dhabi","hotelId":207860,"hotelName":"Cristal Hotel Abu Dhabi","address":"P.O. Box 72898,Abu Dhabi,United Arab Emirates","phones":"+97126520000","fax":"+97126520001","email":"","url":"http://www.cristalhospitality.com/cristalhotels/unitedarabemirates/abudhabi/cristalhotel","countryIso2":"AE","countryName":"United Arab Emirates","hotelRating":"4","latitude":"24.4848","longitude":"54.3634","state_id":null,"state_name":null,"country_id":null},{"active":false,"Giataid":"207900","cityId":null,"cityName":"Abu Dhabi","hotelId":207900,"hotelName":"Crowne Plaza Abu Dhabi - Yas Island","address":"Yas Island,Golf Plaza,P.O.Box: 41880,Abu Dhabi 41880,United Arab Emirates","phones":"+97126563000","fax":"+97126563001","email":"","url":"http://www.ichotelsgroup.com/h/d/cp/1/en/hotel/auhyi","countryIso2":"AE","countryName":"United Arab Emirates","hotelRating":"4","latitude":"24.4662","longitude":"54.5975","state_id":null,"state_name":null,"country_id":null},{"active":false,"Giataid":"208313","cityId":null,"cityName":"Jebel Dhanna","hotelId":208313,"hotelName":"Dhafra Beach Hotel","address":"P.O. Box 11828,Abu Dhabi,Jebel Dhanna,United Arab Emirates","phones":"+97128012000","fax":"","email":"","url":"","countryIso2":"AE","countryName":"United Arab Emirates","hotelRating":"3","latitude":"24.1631","longitude":"52.646","state_id":null,"state_name":null,"country_id":null},{"active":false,"Giataid":"208964","cityId":null,"cityName":"Abu Dhabi","hotelId":208964,"hotelName":"Euro Hotel Apartments","address":"Muroor Street,P.O. Box 51153,Al Dhafrah,Abu Dhabi 16134,United Arab Emirates","phones":"","fax":"","email":"","url":"","countryIso2":"AE","countryName":"United Arab Emirates","hotelRating":"3","latitude":"24.4565","longitude":"54.3918","state_id":null,"state_name":null,"country_id":null},{"active":false,"Giataid":"210187","cityId":null,"cityName":"Abu Dhabi","hotelId":210187,"hotelName":"Hala Arjaan By Rotana","address":"Hamdan Street,Al Zahiyah Area,P.O. Box 53066,Abu Dhabi,United Arab Emirates","phones":"+97124180000","fax":"+97124180001","email":"","url":"http://www.rotana.com/halaarjaanbyrotana","countryIso2":"AE","countryName":"United Arab Emirates","hotelRating":"4","latitude":"24.5013","longitude":"54.3781","state_id":null,"state_name":null,"country_id":null},{"active":false,"Giataid":"210542","cityId":null,"cityName":"Abu Dhabi","hotelId":210542,"hotelName":"Holiday Inn Abu Dhabi","address":"31st street, between Muroor & Airport,P.O. Box 46668,Abu Dhabi,United Arab Emirates","phones":"+97126574888","fax":"+97126574999","email":"reservations@hiauh.com","url":"http://www.holidayinn.com/hotels/us/ebu-dhabi/auhar/hoteldetail","countryIso2":"AE","countryName":"United Arab Emirates","hotelRating":"4","latitude":"24.4287","longitude":"54.4371","state_id":null,"state_name":null,"country_id":null},{"active":false,"Giataid":"212761","cityId":null,"cityName":"Abu Dhabi","hotelId":212761,"hotelName":"L'arabia Hotel Apartments","address":"Mohammed Bin Zayed,Next To Mazyad Mall,Abu Dhabi,United Arab Emirates","phones":"+97125532532","fax":"","email":"","url":"","countryIso2":"AE","countryName":"United Arab Emirates","hotelRating":"4","latitude":"24.3731","longitude":"54.5371","state_id":null,"state_name":null,"country_id":null},{"active":false,"Giataid":"214351","cityId":null,"cityName":"Abu Dhabi","hotelId":214351,"hotelName":"Murjan Asfar Hotel Apartments","address":"Sheikh Saeed Bin Maktoum Street (Old Airport Road),Near Abu Dhabi Education Council,Al Mussalla,Abu Dhabi PO Box 3535,United Arab Emirates,United Arab Emirates","phones":"+97126433330","fax":"","email":"","url":"","countryIso2":"AE","countryName":"United Arab Emirates","hotelRating":"3","latitude":"24.4593","longitude":"54.3802","state_id":null,"state_name":null,"country_id":null},{"active":false,"Giataid":"214375","cityId":null,"cityName":"Ras al Khaimah","hotelId":214375,"hotelName":"My Persian Dream","address":"","phones":"","fax":"","email":"","url":"","countryIso2":"AE","countryName":"United Arab Emirates","hotelRating":"1","latitude":"25.736","longitude":"55.891","state_id":null,"state_name":null,"country_id":null},{"active":false,"Giataid":"215056","cityId":null,"cityName":"Abu Dhabi","hotelId":215056,"hotelName":"Park Inn by Radisson Abu Dhabi, Yas Island","address":"Yas Leisure Drive,Yas Plaza,Golf Plaza,Yas Island,P.O. Box 93725,Abu Dhabi,United Arab Emirates","phones":"+97126562222","fax":"+97126562223","email":"info.abudhabi@rezidorparkinn.com","url":"http://www.parkinn.com/hotel-abudhabi","countryIso2":"AE","countryName":"United Arab Emirates","hotelRating":"3","latitude":"24.468","longitude":"54.5983","state_id":null,"state_name":null,"country_id":null},{"active":false,"Giataid":"216585","cityId":null,"cityName":"Abu Dhabi","hotelId":216585,"hotelName":"Ramee Garden Hotel Apartments","address":"New Airport Road,Passport Road Junction,Opposite Kalyan Silks,Opposite National Bank OF Abu Dhabi,Abu Dhabi,United Arab Emirates","phones":"+97126428333","fax":"","email":"","url":"","countryIso2":"AE","countryName":"United Arab Emirates","hotelRating":"3","latitude":"24.4758","longitude":"54.3666","state_id":null,"state_name":null,"country_id":null},{"active":false,"Giataid":"218051","cityId":null,"cityName":"Fujairah","hotelId":218051,"hotelName":"Siji Hotel Apartments","address":"Al Nakheel Street,P.O. Box 1199,Fujairah,United Arab Emirates","phones":"+97192232222","fax":"","email":"","url":"","countryIso2":"AE","countryName":"United Arab Emirates","hotelRating":"4","latitude":"25.1352","longitude":"56.3533","state_id":null,"state_name":null,"country_id":null},{"active":false,"Giataid":"218393","cityId":null,"cityName":"Abu Dhabi","hotelId":218393,"hotelName":"Staybridge Suites Abu Dhabi - Yas Island","address":"Yas Island Golf Plaza,P.O. Box 42375,42375 Abu Dhabi,United Arab Emirates","phones":"+97126563333","fax":"+97126563344","email":"info@cpyas.com","url":"http://www.ichotelsgroup.com/h/d/sb/1/en/hotel/auhis","countryIso2":"AE","countryName":"United Arab Emirates","hotelRating":"4","latitude":"24.4647","longitude":"54.5979","state_id":null,"state_name":null,"country_id":null},{"active":false,"Giataid":"219807","cityId":null,"cityName":"Abu Dhabi","hotelId":219807,"hotelName":"Al Jazira Club Hotel","address":"17 Muroor Road,P.O.Box: 111779,Abu Dhabi,United Arab Emirates","phones":"+97124433966","fax":"","email":"","url":"","countryIso2":"AE","countryName":"United Arab Emirates","hotelRating":"2","latitude":"24.4527","longitude":"54.3913","state_id":null,"state_name":null,"country_id":null},{"active":false,"Giataid":"227394","cityId":null,"cityName":"Ras al Khaimah","hotelId":227394,"hotelName":"Doubletree By Hilton Ras Al Khaimah","address":"Al Jazah Road,P.O. Box 11938,Ras Al Khaimah,United Arab Emirates","phones":"+97172260666","fax":"+97172260660","email":"","url":"http://doubletree1.hilton.com/en_US/dt/hotel/RKTDTDI-DoubleTree-by-Hilton-Hotel-Ras-Al-Khaimah/index.do","countryIso2":"AE","countryName":"United Arab Emirates","hotelRating":"4","latitude":"25.7962","longitude":"55.9688","state_id":null,"state_name":null,"country_id":null},{"active":false,"Giataid":"227703","cityId":null,"cityName":"Abu Dhabi","hotelId":227703,"hotelName":"Traders Hotel Qaryat Al Beri","address":"P.O. Box 128881,Khor Al Maqta,Abu Dhabi,United Arab Emirates","phones":"+97125108888","fax":"+97125108999","email":"","url":"http://www.shangri-la.com/en/property/abudhabi/traders","countryIso2":"AE","countryName":"United Arab Emirates","hotelRating":"4","latitude":"24.4124","longitude":"54.4917","state_id":null,"state_name":null,"country_id":null},{"active":false,"Giataid":"227842","cityId":null,"cityName":"Fujairah","hotelId":227842,"hotelName":"Concorde Hotel - Fujairah","address":"Hamad Bin Abdulla Road,P.O. Box 3588,Fujairah,United Arab Emirates","phones":"+97192249000","fax":"+97192249990","email":"reservations@iberotelconcorde.ae","url":"http://www.iberotel.com/en/hotels/details.php?id=59","countryIso2":"AE","countryName":"United Arab Emirates","hotelRating":"5","latitude":"25.1232","longitude":"56.3258","state_id":null,"state_name":null,"country_id":null},{"active":false,"Giataid":"227963","cityId":null,"cityName":"The Palm Islands","hotelId":227963,"hotelName":"One & Only The Palm","address":"West Crescent,Palm Jumeirah,Dubai,United Arab Emirates","phones":"+97144401010","fax":"+97144401011","email":"Info@oneandonlythepalm.ae","url":"http://thepalm.oneandonlyresorts.com/","countryIso2":"AE","countryName":"United Arab Emirates","hotelRating":"5","latitude":"25.0993","longitude":"55.1323","state_id":null,"state_name":null,"country_id":null},{"active":false,"Giataid":"228233","cityId":null,"cityName":"The Palm Islands","hotelId":228233,"hotelName":"Kempinski Hotel & Residences Palm Jumeirah","address":"The Crescent West,P.O.Box 213208,The Palm Jumeirah,Dubai,United Arab Emirates","phones":"+97144442000","fax":"+97144442777","email":"reservations.thepalm@kempinski.com","url":"http://www.kempinski.com/en/palmjumeirah/Pages/Welcome.aspx","countryIso2":"AE","countryName":"United Arab Emirates","hotelRating":"5","latitude":"25.1128","longitude":"55.1096","state_id":null,"state_name":null,"country_id":null},{"active":false,"Giataid":"229211","cityId":null,"cityName":"Abu Dhabi","hotelId":229211,"hotelName":"Hyatt Capital Gate, Abu Dhabi","address":"P.O. Box 95165,Abu Dhabi,United Arab Emirates","phones":"+97125961234","fax":"+971-2-596-1235 ","email":"","url":"http://www.abudhabi.capitalgate.hyatt.com/hyatt/hotels/","countryIso2":"AE","countryName":"United Arab Emirates","hotelRating":"5","latitude":"24.4187","longitude":"54.4347","state_id":null,"state_name":null,"country_id":null},{"active":false,"Giataid":"232313","cityId":null,"cityName":"The Palm Islands","hotelId":232313,"hotelName":"Jumeirah Zabeel Saray","address":"Crescent Road West,The Palm Jumeirah,P.O. Box 27722,Dubai,United Arab Emirates","phones":"+97144530000","fax":"+97144530001","email":"helpdesk@jumeirah.com","url":"http://www.jumeirah.com/en/Hotels-and-Resorts/Destinations/Dubai/Jumeirah-Zabeel-Saray/?","countryIso2":"AE","countryName":"United Arab Emirates","hotelRating":"5","latitude":"25.0985","longitude":"55.1236","state_id":null,"state_name":null,"country_id":null},{"active":false,"Giataid":"232593","cityId":null,"cityName":"Ras al Khaimah","hotelId":232593,"hotelName":"Al Hamra Village Golf & Beach Resort","address":"P.O. Box 35604,Ras Al Khaimah,United Arab Emirates","phones":"+97172067222","fax":"","email":"","url":"","countryIso2":"AE","countryName":"United Arab Emirates","hotelRating":"5","latitude":"25.6836","longitude":"55.773","state_id":null,"state_name":null,"country_id":null},{"active":false,"Giataid":"233921","cityId":null,"cityName":"Abu Dhabi","hotelId":233921,"hotelName":"Park Rotana - Abu Dhabi","address":"Al Salam Street,Behind Khalifa Park,P.O. Box 43377,Abu Dhabi,United Arab Emirates","phones":"+97126573333","fax":"+97126573000","email":"","url":"http://www.rotana.com/rotanahotelandresorts/unitedarabemirates/abudhabi/parkrotana","countryIso2":"AE","countryName":"United Arab Emirates","hotelRating":"5","latitude":"24.4242","longitude":"54.4734","state_id":null,"state_name":null,"country_id":null},{"active":false,"Giataid":"235963","cityId":null,"cityName":"Abu Dhabi","hotelId":235963,"hotelName":"Grand Millennium Al Wahda","address":"Hazza Bin Zayed Street,P.O.Box 107080,Al Wahda Complex,Abu Dhabi,United Arab Emirates","phones":"+97124439999","fax":"+97124439444","email":"sales.alwahda@mill-cop.ae","url":"http://www.millenniumhotels.com/ae/grandmillenniumalwahda/index.html","countryIso2":"AE","countryName":"United Arab Emirates","hotelRating":"5","latitude":"24.4713","longitude":"54.3738","state_id":null,"state_name":null,"country_id":null},{"active":false,"Giataid":"237760","cityId":null,"cityName":"Abu Dhabi","hotelId":237760,"hotelName":"The St. Regis Saadiyat Island Resort","address":"P.O. Box 54345,Saadiyat Island,Abu Dhabi,United Arab Emirates","phones":"+97124988888","fax":"+97124988889","email":"reservations.saadiyat@stregis.com","url":"http://www.stregissaadiyatisland.com","countryIso2":"AE","countryName":"United Arab Emirates","hotelRating":"5","latitude":"24.5385","longitude":"54.4247","state_id":null,"state_name":null,"country_id":null},{"active":false,"Giataid":"237885","cityId":null,"cityName":"Abu Dhabi","hotelId":237885,"hotelName":"Park Hyatt Abu Dhabi Hotel & Villas","address":"P.O.Box: 52007,Saadiyat Island,Abu Dhabi,United Arab Emirates","phones":"+97124071234","fax":"+97124071235","email":"abudhabi.park@hyatt.com","url":"http://abudhabi.park.hyatt.com","countryIso2":"AE","countryName":"United Arab Emirates","hotelRating":"5","latitude":"24.5449","longitude":"54.4349","state_id":null,"state_name":null,"country_id":null},{"active":false,"Giataid":"237952","cityId":null,"cityName":"Ras al Khaimah","hotelId":237952,"hotelName":"Waldorf Astoria Ras Al Khaimah","address":"Vienna Street,Ras Al Khaimah,United Arab Emirates","phones":"+97172035555","fax":"","email":"","url":"http://www.waldorfastoria.com/search/property-details.cfm?intPropertyId=43","countryIso2":"AE","countryName":"United Arab Emirates","hotelRating":"5","latitude":"25.6851","longitude":"55.7735","state_id":null,"state_name":null,"country_id":null},{"active":false,"Giataid":"239225","cityId":null,"cityName":"Abu Dhabi","hotelId":239225,"hotelName":"The Westin Abu Dhabi Golf Resort & Spa","address":"Abu Dhabi Golf Club,Sas Al Nakhl,Abu Dhabi 126797,United Arab Emirates","phones":"+97126169999","fax":"","email":"westinauh.info@westin.com","url":"http://www.westinabudhabigolfresort.com/","countryIso2":"AE","countryName":"United Arab Emirates","hotelRating":"5","latitude":"24.4196","longitude":"54.5288","state_id":null,"state_name":null,"country_id":null},{"active":false,"Giataid":"240125","cityId":null,"cityName":"Sir Bani Yas Island","hotelId":240125,"hotelName":"Anantara Al Yamm Villa Resort","address":"Al Ruwais,Sir Bani Yas Island,Abu Dhabi,United Arab Emirates","phones":"+97128015400","fax":"","email":"dirs@anantara.com","url":"http://www.anantara.com/al-yamm/","countryIso2":"AE","countryName":"United Arab Emirates","hotelRating":"5","latitude":"24.3661","longitude":"52.5945","state_id":null,"state_name":null,"country_id":null},{"active":false,"Giataid":"240784","cityId":null,"cityName":"Ras al Khaimah","hotelId":240784,"hotelName":"Mangrove Hotel","address":"Al Khor Road,Near Corniche Hall,Ras Al Khaimah 2035,United Arab Emirates","phones":"+97172050505","fax":"","email":"","url":"","countryIso2":"AE","countryName":"United Arab Emirates","hotelRating":"4","latitude":"25.7832","longitude":"55.9425","state_id":null,"state_name":null,"country_id":null},{"active":false,"Giataid":"240863","cityId":null,"cityName":"The Palm Islands","hotelId":240863,"hotelName":"Rixos The Palm Dubai","address":"East Crescent Plog40,Palm Jumeirah,Dubai,United Arab Emirates","phones":"+97144575555","fax":"+97144575555","email":"sales.dubai@rixos.com","url":"http://www.rixos.com/de/rixos-the-palm-dubai-hotel","countryIso2":"AE","countryName":"United Arab Emirates","hotelRating":"5","latitude":"25.121","longitude":"55.1537","state_id":null,"state_name":null,"country_id":null},{"active":false,"Giataid":"243478","cityId":null,"cityName":"Al Ain","hotelId":243478,"hotelName":"Ayla Hotel","address":"Khalifa Ibn Zayed Al Awwal Street,P.O. Box 86990,Al Ain,United Arab Emirates","phones":"+97137610111","fax":"","email":"r.s@aylahotels.com","url":"http://www.aylahotels.com/?page=cms_page&amp;record_id=17","countryIso2":"AE","countryName":"United Arab Emirates","hotelRating":"4","latitude":"24.2284","longitude":"55.7437","state_id":null,"state_name":null,"country_id":null},{"active":false,"Giataid":"245459","cityId":null,"cityName":"Abu Dhabi","hotelId":245459,"hotelName":"Hilton Capital Grand Abu Dhabi","address":"Sheikh Rashid Bin Saeed Al Maktoum,Abu Dhabi,United Arab Emirates","phones":"+97126170000","fax":"+97126170900","email":"reservations.abudhabi@roccofortehotels.com","url":"http://www.roccofortehotelabudhabi.com/","countryIso2":"AE","countryName":"United Arab Emirates","hotelRating":"5","latitude":"24.4215","longitude":"54.4569","state_id":null,"state_name":null,"country_id":null},{"active":false,"Giataid":"247030","cityId":null,"cityName":"Sir Bani Yas Island","hotelId":247030,"hotelName":"Anantara Al Sahel Villa Resort","address":"P.O. Box 12452,Al Ruwais,Sir Bani Yas Island,Abu Dhabi,United Arab Emirates","phones":"+97128015400","fax":"+97128015404","email":"alsahel@anantara.com","url":"http://www.anantara.com/al-sahel/","countryIso2":"AE","countryName":"United Arab Emirates","hotelRating":"5","latitude":"24.3661","longitude":"52.5946","state_id":null,"state_name":null,"country_id":null},{"active":false,"Giataid":"247181","cityId":null,"cityName":"Abu Dhabi","hotelId":247181,"hotelName":"Centro Al Manhal","address":"Street 2,Airport Road,P.O.Box 109595,Abu Dhabi,United Arab Emirates","phones":"+97128115000","fax":"+97128115100","email":"centro.almanhal@rotana.com","url":"http://www.rotana.com/centrohotels/unitedarabemirates/abudhabi/centroalmanhal","countryIso2":"AE","countryName":"United Arab Emirates","hotelRating":"3","latitude":"24.4681","longitude":"54.3731","state_id":null,"state_name":null,"country_id":null},{"active":false,"Giataid":"247341","cityId":null,"cityName":"Abu Dhabi","hotelId":247341,"hotelName":"City Seasons Al Hamra Abu Dhabi","address":"Electra Street,Abu Dhabi P.O. Box 4706,United Arab Emirates","phones":"+97126725000","fax":"","email":"","url":"http://www.cityseasonsgroup.com/about_hotel.php?id=1","countryIso2":"AE","countryName":"United Arab Emirates","hotelRating":"4","latitude":"24.4909","longitude":"54.3707","state_id":null,"state_name":null,"country_id":null},{"active":false,"Giataid":"247534","cityId":null,"cityName":"Abu Dhabi","hotelId":247534,"hotelName":"The St. Regis Abu Dhabi","address":"Nation Tower,Corniche,Abu Dhabi,United Arab Emirates","phones":"+97126944444","fax":"+97126581126","email":"","url":"http://www.starwoodhotels.com/stregis/property/rooms/index.html?propertyID=3561","countryIso2":"AE","countryName":"United Arab Emirates","hotelRating":"5","latitude":"24.4652","longitude":"54.3278","state_id":null,"state_name":null,"country_id":null},{"active":false,"Giataid":"247713","cityId":null,"cityName":"Abu Dhabi","hotelId":247713,"hotelName":"Eastern Mangroves Hotel & Spa","address":"Sheikh Zayed Street,P.O. Box 128555,Abu Dhabi,Eastern Mangroves,United Arab Emirates","phones":"+97126561000","fax":"","email":"easternmangroves@anantara.com","url":"http://abu-dhabi.anantara.com/","countryIso2":"AE","countryName":"United Arab Emirates","hotelRating":"5","latitude":"24.4463","longitude":"54.437","state_id":null,"state_name":null,"country_id":null},{"active":false,"Giataid":"248192","cityId":null,"cityName":"Abu Dhabi","hotelId":248192,"hotelName":"Ramada Abu Dhabi Downtown","address":"8th Street,Tourist Club Area,P.O. Box 107523,Abu Dhabi,United Arab Emirates","phones":"+97126597666","fax":"+97126597777","email":"","url":"http://www.cristalhotelsandresorts.com/cristalhotels/unitedarabemirates/abudhabi/cristalsalamhotel","countryIso2":"AE","countryName":"United Arab Emirates","hotelRating":"4","latitude":"24.4909","longitude":"54.3801","state_id":null,"state_name":null,"country_id":null},{"active":false,"Giataid":"249416","cityId":null,"cityName":"Fujairah","hotelId":249416,"hotelName":"Nour Arjaan Fujairah","address":"Hamad Bin Abdullah Road,P.O. Box 8899,Fujairah,United Arab Emirates","phones":"+97192025555","fax":"+97192025566","email":"","url":"http://www.rotana.com/arjaanhotelapartments/unitedarabemirates/fujairah/nourarjaanbyrotana","countryIso2":"AE","countryName":"United Arab Emirates","hotelRating":"4","latitude":"25.1225","longitude":"56.3271","state_id":null,"state_name":null,"country_id":null},{"active":false,"Giataid":"354493","cityId":null,"cityName":"Fujairah","hotelId":354493,"hotelName":"California Suites Hotel","address":"Down Town,P.O. Box 7449,Fujairah,United Arab Emirates","phones":"+97192222138","fax":"","email":"","url":"","countryIso2":"AE","countryName":"United Arab Emirates","hotelRating":"3","latitude":"25.123","longitude":"56.3413","state_id":null,"state_name":null,"country_id":null},{"active":false,"Giataid":"363700","cityId":null,"cityName":"Abu Dhabi","hotelId":363700,"hotelName":"Rosewood Abu Dhabi","address":"P.O. Box 41184,Al Maryah Island,Abu Dhabi,United Arab Emirates","phones":"+97128135550","fax":"","email":"","url":"http://www.rosewoodhotels.com/ebu-dhabi","countryIso2":"AE","countryName":"United Arab Emirates","hotelRating":"5","latitude":"24.5002","longitude":"54.3876","state_id":null,"state_name":null,"country_id":null},{"active":false,"Giataid":"367377","cityId":null,"cityName":"The Palm Islands","hotelId":367377,"hotelName":"Jumeirah Zabeel Saray Royal Residences","address":"Crescent West Road,PO Box 27722,The Palm Jumeirah,Dubai,United Arab Emirates","phones":"+97144530000","fax":"","email":"","url":"","countryIso2":"AE","countryName":"United Arab Emirates","hotelRating":"5","latitude":"25.0984","longitude":"55.125","state_id":null,"state_name":null,"country_id":null},{"active":false,"Giataid":"367678","cityId":null,"cityName":"Al Ain","hotelId":367678,"hotelName":"Ain Al Faida One To One Hotel And Resort","address":"Al Wagan Road,Al Ain PO Box 67715,United Arab Emirates","phones":"+97137014444","fax":"","email":"","url":"","countryIso2":"AE","countryName":"United Arab Emirates","hotelRating":"4","latitude":"24.0897","longitude":"55.716","state_id":null,"state_name":null,"country_id":null},{"active":false,"Giataid":"367679","cityId":null,"cityName":"Al Ain","hotelId":367679,"hotelName":"Hili Rayhaan By Rotana","address":"Bani Yas Street,P.O. Box 68456,Al Ain,United Arab Emirates","phones":"+97137053333","fax":"","email":"","url":"","countryIso2":"AE","countryName":"United Arab Emirates","hotelRating":"5","latitude":"24.2745","longitude":"55.7782","state_id":null,"state_name":null,"country_id":null},{"active":false,"Giataid":"372769","cityId":null,"cityName":"Abu Dhabi","hotelId":372769,"hotelName":"Liwa Hotel Apartments","address":"Behind Main Post Office,Madinat Zayed,Abu Dhabi,United Arab Emirates","phones":"+97126324999","fax":"+97126324999","email":"info@liwahotelapartments.com","url":"http://www.liwahotelapartments.com/","countryIso2":"AE","countryName":"United Arab Emirates","hotelRating":"3","latitude":"24.48","longitude":"54.3658","state_id":null,"state_name":null,"country_id":null},{"active":false,"Giataid":"373813","cityId":null,"cityName":"Abu Dhabi","hotelId":373813,"hotelName":"Phoenix Plaza Hotel Apartments","address":"Old Airport Road,Abu Dhabi,United Arab Emirates","phones":"+97126433322","fax":"","email":"","url":"","countryIso2":"AE","countryName":"United Arab Emirates","hotelRating":"3","latitude":"24.4664","longitude":"54.3748","state_id":null,"state_name":null,"country_id":null},{"active":false,"Giataid":"391123","cityId":null,"cityName":"Abu Dhabi","hotelId":391123,"hotelName":"Arabian Nights Village","address":"Abu Dhabi Al Ain Road,Razeen Area of Al Khatim,Abu Dhabi,United Arab Emirates","phones":"+97126769990","fax":"","email":"","url":"","countryIso2":"AE","countryName":"United Arab Emirates","hotelRating":"4","latitude":"23.8871","longitude":"55.0217","state_id":null,"state_name":null,"country_id":null},{"active":false,"Giataid":"391466","cityId":null,"cityName":"Abu Dhabi","hotelId":391466,"hotelName":"Jumeirah At Etihad Towers Residences","address":"PO Box 111929,Abu Dhabi,United Arab Emirates","phones":"+97128115555","fax":"","email":"","url":"","countryIso2":"AE","countryName":"United Arab Emirates","hotelRating":"5","latitude":"24.4582","longitude":"54.3219","state_id":null,"state_name":null,"country_id":null},{"active":false,"Giataid":"596638","cityId":null,"cityName":"Abu Dhabi","hotelId":404545,"hotelName":"Airport Hotel Abu Dhabi","address":"Airport,Abu Dhabi,United Arab Emirates","phones":"+97125757377","fax":"","email":"airporthotel@adhc.adac.ae","url":"http://www.abudhabiairport.ae/english/airport-informatioirport-facilities/airport-hotels/airport-hotel.aspx","countryIso2":"AE","countryName":"United Arab Emirates","hotelRating":"4","latitude":"24.4284","longitude":"54.6415","state_id":null,"state_name":null,"country_id":null},{"active":false,"Giataid":"411530","cityId":null,"cityName":"Abu Dhabi","hotelId":411530,"hotelName":"Executive Suites by Mourouj Gloria","address":"Muroor Street 4,P.O Box 107009,Abu Dhabi,United Arab Emirates","phones":"+97126115333","fax":"+97126115444","email":"info@executivesuites.ae","url":"http://www.gloria-hotels.com/epartments/executive-suites-abu-dhabi/","countryIso2":"AE","countryName":"United Arab Emirates","hotelRating":"4","latitude":"24.4628","longitude":"54.3867","state_id":null,"state_name":null,"country_id":null},{"active":false,"Giataid":"411800","cityId":null,"cityName":"Abu Dhabi","hotelId":411800,"hotelName":"Park Residences by Rotana","address":"","phones":"","fax":"","email":"","url":"","countryIso2":"AE","countryName":"United Arab Emirates","hotelRating":"1","latitude":"24.4716","longitude":"54.4048","state_id":null,"state_name":null,"country_id":null},{"active":false,"Giataid":"414709","cityId":null,"cityName":"Abu Dhabi","hotelId":414709,"hotelName":"Abu Dhabi Plaza Hotel Apartments","address":"Najda Street,Corner Electra Street,P.O. Box 52588,Abu Dhabi,United Arab Emirates","phones":"+97126192666","fax":"+97126313654","email":"info@adpha.ae","url":"http://www.adpha.ae","countryIso2":"AE","countryName":"United Arab Emirates","hotelRating":"4","latitude":"24.4906","longitude":"54.369","state_id":null,"state_name":null,"country_id":null},{"active":false,"Giataid":"417990","cityId":null,"cityName":"Al Ain","hotelId":417990,"hotelName":"Ayla Bawadi Hotel","address":"P.O Box 222095,Zayed Bin Sultan Street,Bawadi Mall,Al Ain,Abu Dhabi,United Arab Emirates","phones":"+97137030111","fax":"+97137030130","email":"","url":"https://www.aylahotels.com/unitedarabemirates/alaiylabawadihotel/overview","countryIso2":"AE","countryName":"United Arab Emirates","hotelRating":"4","latitude":"24.162","longitude":"55.8067","state_id":null,"state_name":null,"country_id":null},{"active":false,"Giataid":"424781","cityId":null,"cityName":"Abu Dhabi","hotelId":424781,"hotelName":"Jumeirah at Etihad Towers Hotel & Residences","address":"PO Box 111929,Abu Dhabi,United Arab Emirates","phones":"+97128115555","fax":"","email":"JADinfo@jumeirah.com","url":"https://www.jumeirah.com/en/hotels-resorts/abu-dhabi/jumeirah-etihad-towers/","countryIso2":"AE","countryName":"United Arab Emirates","hotelRating":"5","latitude":"24.4588","longitude":"54.3216","state_id":null,"state_name":null,"country_id":null},{"active":false,"Giataid":"431497","cityId":null,"cityName":"The Palm Islands","hotelId":431497,"hotelName":"The Langham Dubai","address":"Palm Jumeirah Beach,Dubai,United Arab Emirates","phones":"","fax":"","email":"","url":"http://dubai.langhamhotels.com","countryIso2":"AE","countryName":"United Arab Emirates","hotelRating":"1","latitude":"25.0987","longitude":"55.1284","state_id":null,"state_name":null,"country_id":null},{"active":false,"Giataid":"433030","cityId":null,"cityName":"Fujairah","hotelId":433030,"hotelName":"Fortune Hotel Apartments","address":"Al Fahim Street,P.O. Box 7119,Fujairah,United Arab Emirates","phones":"+97192244991","fax":"+97192244992","email":"fhaoperations@fortunegroupofhotels.com","url":"http://fortunegroupofhotels.com/contact-us/","countryIso2":"AE","countryName":"United Arab Emirates","hotelRating":"3","latitude":"25.124","longitude":"56.339","state_id":null,"state_name":null,"country_id":null},{"active":false,"Giataid":"543498","cityId":null,"cityName":"Abu Dhabi","hotelId":499088,"hotelName":"Oriental Hotel Apartment","address":"Zayed First Street,Tourist Club Area,Abu Dhabi Po Box 296,United Arab Emirates","phones":"+97126456222","fax":"+97126456333","email":"","url":"http://www.orientalguest.com","countryIso2":"AE","countryName":"United Arab Emirates","hotelRating":"4","latitude":"24.4975","longitude":"54.3786","state_id":null,"state_name":null,"country_id":null},{"active":false,"Giataid":"500050","cityId":null,"cityName":"Abu Dhabi","hotelId":500050,"hotelName":"Down Town Plaza Hotel Apartments","address":"Hamdan Street,Abu Dhabi Corniche,Abu Dhabi PO Box 4604,United Arab Emirates","phones":"","fax":"","email":"","url":"","countryIso2":"AE","countryName":"United Arab Emirates","hotelRating":"3","latitude":"24.4871","longitude":"54.3619","state_id":null,"state_name":null,"country_id":null},{"active":false,"Giataid":"515206","cityId":null,"cityName":"Fujairah","hotelId":515206,"hotelName":"Falcon Hotel Apartments","address":"Sheikh Zayed Bin Sultan Road,Near Fujairah Football Stadium,P.O. Box 2118,Fujairah,United Arab Emirates","phones":"+97192226050","fax":"+97192226040","email":"info@falconhotel.ae","url":"http://www.falconhotel.ae","countryIso2":"AE","countryName":"United Arab Emirates","hotelRating":"3","latitude":"25.1285","longitude":"56.3428","state_id":null,"state_name":null,"country_id":null},{"active":false,"Giataid":"515810","cityId":null,"cityName":"Fujairah","hotelId":515810,"hotelName":"Fujairah Youth Hostel","address":"203 Al Fasil Area Next To The Whote village and Abu Jandal School,Fujairah,United Arab Emirates","phones":"","fax":"","email":"","url":"","countryIso2":"AE","countryName":"United Arab Emirates","hotelRating":"1","latitude":"25.1378","longitude":"56.3507","state_id":null,"state_name":null,"country_id":null},{"active":false,"Giataid":"530122","cityId":null,"cityName":"The Palm Islands","hotelId":530122,"hotelName":"Marina Residences 6","address":"Marina Residences,Palm Jumeirah,Dubai,United Arab Emirates","phones":"","fax":"","email":"","url":"","countryIso2":"AE","countryName":"United Arab Emirates","hotelRating":"1","latitude":"25.1161","longitude":"55.1398","state_id":null,"state_name":null,"country_id":null},{"active":false,"Giataid":"532758","cityId":null,"cityName":"Dibba","hotelId":532758,"hotelName":"Fairmont Fujairah Beach Resort","address":"Mina Al Fajer,Dibba,Fujairah,United Arab Emirates","phones":"+97192041111","fax":"+97192041212","email":"fujairah@fairmont.com","url":"http://www.fairmont.com/fujairah/","countryIso2":"AE","countryName":"United Arab Emirates","hotelRating":"4","latitude":"25.586","longitude":"56.3553","state_id":null,"state_name":null,"country_id":null},{"active":false,"Giataid":"535726","cityId":null,"cityName":"Al Ain","hotelId":535726,"hotelName":"Aryana Hotel","address":"Main Street,Al Buraymi,United Arab Emirates","phones":"","fax":"","email":"","url":"","countryIso2":"AE","countryName":"United Arab Emirates","hotelRating":"1","latitude":"24.2134","longitude":"55.7531","state_id":null,"state_name":null,"country_id":null},{"active":false,"Giataid":"537570","cityId":null,"cityName":"Abu Dhabi","hotelId":537570,"hotelName":"Times Inn Hotel Apartments","address":"Muroor Street,Near Abudhabi Judiciary,Al Manoura Area,Abu Dhabi,United Arab Emirates","phones":"+97124147444","fax":"","email":"info@timesinn.ae","url":"http://www.timesinn.ae/","countryIso2":"AE","countryName":"United Arab Emirates","hotelRating":"3","latitude":"24.4662","longitude":"54.384","state_id":null,"state_name":null,"country_id":null},{"active":false,"Giataid":"543498","cityId":null,"cityName":"Abu Dhabi","hotelId":543498,"hotelName":"Oriental Hotel Apartments","address":"Zayed First Street,Tourist Club Area,Abu Dhabi Po Box 296,United Arab Emirates","phones":"","fax":"","email":"","url":"","countryIso2":"AE","countryName":"United Arab Emirates","hotelRating":"3","latitude":"24.4977","longitude":"54.3785","state_id":null,"state_name":null,"country_id":null},{"active":false,"Giataid":"546119","cityId":null,"cityName":"Fujairah","hotelId":546119,"hotelName":"V Hotel Fujairah","address":"Al Faseel Road,Po. Box 7764,Fujairah,United Arab Emirates","phones":"+97192023333","fax":"+97192023344","email":"E-mail-info@vhotel.ae","url":"http://www.vhotel.ae/","countryIso2":"AE","countryName":"United Arab Emirates","hotelRating":"4","latitude":"25.1374","longitude":"56.3543","state_id":null,"state_name":null,"country_id":null},{"active":false,"Giataid":"549570","cityId":null,"cityName":"Sir Bani Yas Island","hotelId":549570,"hotelName":"Anantara Sir Bani Yas Island Resorts","address":"Al Ruwais,Sir Bani Yas Island,Abu Dhabi,United Arab Emirates","phones":"+97128015400","fax":"+97128015408","email":"dirs@anantara.com","url":"http://sir-bani-yas-island.anantara.com/","countryIso2":"AE","countryName":"United Arab Emirates","hotelRating":"5","latitude":"24.3659","longitude":"52.5946","state_id":null,"state_name":null,"country_id":null},{"active":false,"Giataid":"556658","cityId":null,"cityName":"Ras al Khaimah","hotelId":556658,"hotelName":"Capital Hotel","address":"P O Box 13322,Ras Al Khaimahu,U.A.E,United Arab Emirates","phones":"+97172260055","fax":"+97172260066","email":"cpthotel@emirates.net.ae","url":"http://www.capitalhotelrak.com/index.aspx","countryIso2":"AE","countryName":"United Arab Emirates","hotelRating":"3","latitude":"25.7667","longitude":"55.931","state_id":null,"state_name":null,"country_id":null},{"active":false,"Giataid":"556842","cityId":null,"cityName":"Abu Dhabi","hotelId":556842,"hotelName":"Rainbow Hotel Apartments","address":"Hamdan Street,Behind BHS Stores,Abu Dhabi,United Arab Emirates","phones":"+97124016999","fax":"","email":"rainbowauh@yahoo.com","url":"http://www.rainbowhotel.ae/","countryIso2":"AE","countryName":"United Arab Emirates","hotelRating":"1","latitude":"24.4895","longitude":"54.3648","state_id":null,"state_name":null,"country_id":null},{"active":false,"Giataid":"753049","cityId":null,"cityName":"The Palm Islands","hotelId":580897,"hotelName":"Holiday Club, Palm Jumeirah","address":"Palm Jumeirah,Dubai,United Arab Emirates","phones":"","fax":"","email":"","url":"","countryIso2":"AE","countryName":"United Arab Emirates","hotelRating":"0","latitude":"25.1139","longitude":"55.1368","state_id":null,"state_name":null,"country_id":null},{"active":false,"Giataid":"584373","cityId":null,"cityName":"Deira","hotelId":584373,"hotelName":"Naif Index Hotel","address":"Al Sabkha Road,Naif,Near Sabka Bus Station,Deira,Dubai,United Arab Emirates","phones":"","fax":"","email":"","url":"","countryIso2":"AE","countryName":"United Arab Emirates","hotelRating":"1","latitude":"25.272","longitude":"55.3021","state_id":null,"state_name":null,"country_id":null},{"active":false,"Giataid":"620288","cityId":null,"cityName":"Ras al Khaimah","hotelId":620288,"hotelName":"Al Dar Inn Hotel Apartment","address":"Al Kharran Road,Ras Al Khaimah,United Arab Emirates","phones":"","fax":"","email":"","url":"","countryIso2":"AE","countryName":"United Arab Emirates","hotelRating":"1","latitude":"25.7402","longitude":"55.9418","state_id":null,"state_name":null,"country_id":null},{"active":false,"Giataid":"624989","cityId":null,"cityName":"Abu Dhabi","hotelId":624989,"hotelName":"Al Reem Hotel Apartments","address":"Khalifa Street,Al Markaziyah,Abu Dhabi,United Arab Emirates","phones":"","fax":"","email":"","url":"http://www.letsbookhotel.com/en/united-arab-emirates/abu-dhabi/hotel/al-reem-hotel-apartments.aspx","countryIso2":"AE","countryName":"United Arab Emirates","hotelRating":"1","latitude":"24.4976","longitude":"54.3685","state_id":null,"state_name":null,"country_id":null},{"active":false,"Giataid":"627615","cityId":null,"cityName":"Fujairah","hotelId":627615,"hotelName":"Royal Wing Hotel Apartments","address":"Dibba Street,Fujairah,United Arab Emirates","phones":"","fax":"","email":"","url":"","countryIso2":"AE","countryName":"United Arab Emirates","hotelRating":"1","latitude":"25.119","longitude":"56.3496","state_id":null,"state_name":null,"country_id":null},{"active":false,"Giataid":"630351","cityId":null,"cityName":"Al Ain","hotelId":630351,"hotelName":"Al Massa Hotel 1","address":"Hamdan Bin Mohammed Street,Al Ain,United Arab Emirates","phones":"+97137639003","fax":"+97137639007","email":"sales@almasahotels.com","url":"http://almasahotels.com/almassa_01.php","countryIso2":"AE","countryName":"United Arab Emirates","hotelRating":"3","latitude":"24.2423","longitude":"55.7402","state_id":null,"state_name":null,"country_id":null},{"active":false,"Giataid":"631220","cityId":null,"cityName":"Abu Dhabi","hotelId":631220,"hotelName":"Royal Suite Hotel Apartments","address":"Defence Road,Post Box 127577,Abu Dhabi,United Arab Emirates","phones":"+97124410999","fax":"+97124410998","email":"info@royalsuite.ae","url":"http://royalsuiteonline.ae/indux.php?id=2","countryIso2":"AE","countryName":"United Arab Emirates","hotelRating":"3","latitude":"24.4749","longitude":"54.3791","state_id":null,"state_name":null,"country_id":null},{"active":false,"Giataid":"640893","cityId":null,"cityName":"Ras al Khaimah","hotelId":640893,"hotelName":"Al Hamra Residence & Village","address":"Vienna Street,Al Hamra Village,P.O. Box 35604,Ras Al Khaimah,United Arab Emirates","phones":"+97172067222","fax":"+97172434517","email":"reservations@alhamrafort.com","url":"http://www.alhamraresorts.com/","countryIso2":"AE","countryName":"United Arab Emirates","hotelRating":"5","latitude":"25.6862","longitude":"55.7741","state_id":null,"state_name":null,"country_id":null},{"active":false,"Giataid":"650488","cityId":null,"cityName":"Fujairah","hotelId":650488,"hotelName":"Blue Diamond Salam Palace Fujairah","address":"Corniche Road 1B,PO BOX 8282,Al-Fujairah,United Arab Emirates","phones":"","fax":"","email":"","url":"","countryIso2":"AE","countryName":"United Arab Emirates","hotelRating":"5","latitude":"25.1998","longitude":"56.338","state_id":null,"state_name":null,"country_id":null},{"active":false,"Giataid":"656864","cityId":null,"cityName":"Ras al Khaimah","hotelId":656864,"hotelName":"The Village at Cove Rotana","address":"Sheikh Mohammed Bin Salim Road,P.O. Box 34429,Ras Al Khaimah,United Arab Emirates","phones":"+97172066000","fax":"+97172066200","email":"","url":"https://de.rotana.com/rotanahotelandresorts/unitedarabemirates/rasalkhaimah/thecoverotanaresort/accommodation/villas","countryIso2":"AE","countryName":"United Arab Emirates","hotelRating":"5","latitude":"25.7363","longitude":"55.8888","state_id":null,"state_name":null,"country_id":null},{"active":false,"Giataid":"671949","cityId":null,"cityName":"Ras al Khaimah","hotelId":671949,"hotelName":"Citymax Ras Al Khaimah","address":"Ras Al Khaimah,United Arab Emirates","phones":"","fax":"","email":"","url":"","countryIso2":"AE","countryName":"United Arab Emirates","hotelRating":"4","latitude":"25.736","longitude":"55.891","state_id":null,"state_name":null,"country_id":null},{"active":false,"Giataid":"677954","cityId":null,"cityName":"Al Ain","hotelId":677954,"hotelName":"Top Hotel Apartments","address":"Behind Al Ain Mall,Al Ain 1317,United Arab Emirates","phones":"+97137125000","fax":"","email":"tophotela@gmail.com","url":"http://www.tophotelalain.com","countryIso2":"AE","countryName":"United Arab Emirates","hotelRating":"1","latitude":"24.2134","longitude":"55.7531","state_id":null,"state_name":null,"country_id":null},{"active":false,"Giataid":"678503","cityId":null,"cityName":"The Palm Islands","hotelId":678503,"hotelName":"W Dubai - The Palm","address":"West Crescent,Palm Jumeirah,Dubai,United Arab Emirates","phones":"+971558133513","fax":"","email":"","url":"http://www.starwoodhotels.com/whotels/property/area/directions.html?propertyID=3820","countryIso2":"AE","countryName":"United Arab Emirates","hotelRating":"5","latitude":"25.1064","longitude":"55.1113","state_id":null,"state_name":null,"country_id":null},{"active":false,"Giataid":"678767","cityId":null,"cityName":"Deira","hotelId":678767,"hotelName":"Ferrari Hotel","address":"Naif Road Al Sabkha Road,Street 15,Deira,Dubai,United Arab Emirates","phones":"","fax":"","email":"","url":"","countryIso2":"AE","countryName":"United Arab Emirates","hotelRating":"1","latitude":"25.2746","longitude":"55.3085","state_id":null,"state_name":null,"country_id":null},{"active":false,"Giataid":"679103","cityId":null,"cityName":"Deira","hotelId":679103,"hotelName":"Night Stay Hotel","address":"40 Street 14,Dubai,United Arab Emirates","phones":"","fax":"","email":"","url":"","countryIso2":"AE","countryName":"United Arab Emirates","hotelRating":"1","latitude":"25.2746","longitude":"55.3085","state_id":null,"state_name":null,"country_id":null},{"active":false,"Giataid":"687749","cityId":null,"cityName":"Ras al Khaimah","hotelId":687749,"hotelName":"City Stay Beach Hotel Apartments","address":"E11,Al Marjan Island,Near Rixos Hotel,Ras Al Khaimah,United Arab Emirates","phones":"","fax":"","email":"","url":"","countryIso2":"AE","countryName":"United Arab Emirates","hotelRating":"3","latitude":"25.6622","longitude":"55.7522","state_id":null,"state_name":null,"country_id":null},{"active":false,"Giataid":"703623","cityId":null,"cityName":"Ras al Khaimah","hotelId":703623,"hotelName":"Al Nakheel Hotel Apartments","address":"Al Uraibi Street,Al Nakheel,Ras Al Khaimah,United Arab Emirates","phones":"+97172221999","fax":"","email":"info@alnakheelhotelapartments.com","url":"http://www.alnakheelhotelapartments.com","countryIso2":"AE","countryName":"United Arab Emirates","hotelRating":"3","latitude":"25.7929","longitude":"55.9805","state_id":null,"state_name":null,"country_id":null},{"active":false,"Giataid":"706021","cityId":null,"cityName":"Abu Dhabi","hotelId":706021,"hotelName":"Museum - Louvre Abu Dhabi","address":"","phones":"","fax":"","email":"","url":"https://www.louvreabudhabi.ae","countryIso2":"AE","countryName":"United Arab Emirates","hotelRating":"1","latitude":"24.4716","longitude":"54.4048","state_id":null,"state_name":null,"country_id":null},{"active":false,"Giataid":"714756","cityId":null,"cityName":"Al Ain","hotelId":714756,"hotelName":"Ayla Grand Hotel","address":"Othman Bin Affan Street,Al Ain,United Arab Emirates","phones":"+97137051111","fax":"+97137051333","email":"book@aylahotels.com","url":"https://www.aylahotels.com/hotels/ayla-grand-hotel/","countryIso2":"AE","countryName":"United Arab Emirates","hotelRating":"1","latitude":"24.2245","longitude":"55.783","state_id":null,"state_name":null,"country_id":null},{"active":false,"Giataid":"714866","cityId":null,"cityName":"The Palm Islands","hotelId":714866,"hotelName":"Al Msalli","address":"Al Msalli,Shoreline 9,Shoreline Apartments,Palm Jumeirah,Dubai,United Arab Emirates","phones":"","fax":"","email":"","url":"","countryIso2":"AE","countryName":"United Arab Emirates","hotelRating":"1","latitude":"25.1135","longitude":"55.1425","state_id":null,"state_name":null,"country_id":null},{"active":false,"Giataid":"715714","cityId":null,"cityName":"The Palm Islands","hotelId":715714,"hotelName":"Al Sarood","address":"Al Sarood,Shoreline 13,Shoreline Apartments,Palm Jumeirah,Dubai,United Arab Emirates","phones":"","fax":"","email":"","url":"","countryIso2":"AE","countryName":"United Arab Emirates","hotelRating":"1","latitude":"25.1119","longitude":"55.1425","state_id":null,"state_name":null,"country_id":null},{"active":false,"Giataid":"716083","cityId":null,"cityName":"The Palm Islands","hotelId":716083,"hotelName":"Al Dabas","address":"Al Dabas,Shoreline 2,Shoreline Apartments,Palm Jumeirah,Dubai,United Arab Emirates","phones":"","fax":"","email":"","url":"","countryIso2":"AE","countryName":"United Arab Emirates","hotelRating":"1","latitude":"25.1074","longitude":"55.1502","state_id":null,"state_name":null,"country_id":null},{"active":false,"Giataid":"719457","cityId":null,"cityName":"The Palm Islands","hotelId":719457,"hotelName":"The Palm Jumeirah Villas - Frond O","address":"Al Safawi,Frond O,Palm Jumeirah,Dubai,United Arab Emirates","phones":"","fax":"","email":"","url":"","countryIso2":"AE","countryName":"United Arab Emirates","hotelRating":"1","latitude":"25.1117","longitude":"55.1304","state_id":null,"state_name":null,"country_id":null},{"active":false,"Giataid":"722859","cityId":null,"cityName":"Abu Dhabi","hotelId":722859,"hotelName":"Jumeirah Saadiyat Island Resort","address":"Saadiyat Island","phones":"+97128115581","fax":"","email":"WaiKei.Wong@jumeirah.com","url":"http://www.jumeirah.com/en/jumeirah-group/press-centre/press-releases/press-releases-for-2015/jumeirah-group-to-operate-jumeirah-saadiyat-island-resort-in-abu-dhabi/","countryIso2":"AE","countryName":"United Arab Emirates","hotelRating":"5","latitude":"24.4716","longitude":"54.4048","state_id":null,"state_name":null,"country_id":null},{"active":false,"Giataid":"729490","cityId":null,"cityName":"Abu Dhabi","hotelId":729490,"hotelName":"Platinum Hotel Apartments Abu Dhabi","address":"Khaled Bin Alwaleed Street,Al Hosn Zone,PO Box 328,Abu Dhabi,United Arab Emirates","phones":"+97126344463","fax":"","email":"reception@phauae.com","url":"http://www.phauae.com","countryIso2":"AE","countryName":"United Arab Emirates","hotelRating":"1","latitude":"24.4716","longitude":"54.4048","state_id":null,"state_name":null,"country_id":null},{"active":false,"Giataid":"729510","cityId":null,"cityName":"Ras al Khaimah","hotelId":729510,"hotelName":"Piks Key Al Hamra Village","address":"Minsk Street,Al Hamra Village,Ras Al Khaimah,United Arab Emirates","phones":"","fax":"","email":"","url":"","countryIso2":"AE","countryName":"United Arab Emirates","hotelRating":"1","latitude":"25.736","longitude":"55.891","state_id":null,"state_name":null,"country_id":null},{"active":false,"Giataid":"732789","cityId":null,"cityName":"Ras al Khaimah","hotelId":732789,"hotelName":"SH Hotel","address":"12443 Ras Al Khaimah,United Arab Emirates","phones":"","fax":"","email":"","url":"","countryIso2":"AE","countryName":"United Arab Emirates","hotelRating":"3","latitude":"25.736","longitude":"55.891","state_id":null,"state_name":null,"country_id":null},{"active":false,"Giataid":"738507","cityId":null,"cityName":"Ras al Khaimah","hotelId":738507,"hotelName":"Royal View Hotel","address":"Al Muntasir Road,Opposite Manar Mall,Nakhel,Ras Al-Khaimah,United Arab Emirates","phones":"+97172277717","fax":"","email":"","url":"http://www.hotelnicolle.com/listing/royal-view-hotel/","countryIso2":"AE","countryName":"United Arab Emirates","hotelRating":"3","latitude":"25.783","longitude":"55.9674","state_id":null,"state_name":null,"country_id":null},{"active":false,"Giataid":"746991","cityId":null,"cityName":"Ras al Khaimah","hotelId":746991,"hotelName":"Jannah Place Villas Ras Al Khaimah","address":"Minsk Street,Ras al Khaimah,United Arab Emirates","phones":"","fax":"","email":"","url":"","countryIso2":"AE","countryName":"United Arab Emirates","hotelRating":"3","latitude":"25.736","longitude":"55.891","state_id":null,"state_name":null,"country_id":null},{"active":false,"Giataid":"747996","cityId":null,"cityName":"Ras al Khaimah","hotelId":747996,"hotelName":"Bermuda Villas Holiday Home","address":"Sheikh Muhammad Bin Salem Road,Ras Al Khaimah,United Arab Emirates","phones":"","fax":"","email":"","url":"","countryIso2":"AE","countryName":"United Arab Emirates","hotelRating":"3","latitude":"25.736","longitude":"55.891","state_id":null,"state_name":null,"country_id":null},{"active":false,"Giataid":"752474","cityId":null,"cityName":"Abu Dhabi","hotelId":752474,"hotelName":"Al Murjan Tower","address":"Airport Road,Danat Master community,Abu Dhabi,United Arab Emirates","phones":"","fax":"","email":"","url":"https://www.aldar.com/en/Commercial-Properties/Pages/DevelopmentDetails.aspx?DevID=Al-Murjan-Tower","countryIso2":"AE","countryName":"United Arab Emirates","hotelRating":"1","latitude":"24.4312","longitude":"54.4375","state_id":null,"state_name":null,"country_id":null},{"active":false,"Giataid":"758699","cityId":null,"cityName":"Abu Dhabi","hotelId":758699,"hotelName":"Studios Corniche","address":"NULL","phones":"","fax":"","email":"","url":"","countryIso2":"AE","countryName":"United Arab Emirates","hotelRating":"2","latitude":"24.4716","longitude":"54.4048","state_id":null,"state_name":null,"country_id":null},{"active":false,"Giataid":"770014","cityId":null,"cityName":"Ras al Khaimah","hotelId":770014,"hotelName":"Al Zain Hotel","address":"Nakheel Street,B.O box 3767,Ras Al Khaymah,United Arab Emirates","phones":"","fax":"","email":"","url":"http://www.alzainhotel-rasalkhaimah.site/","countryIso2":"AE","countryName":"United Arab Emirates","hotelRating":"1","latitude":"25.736","longitude":"55.891","state_id":null,"state_name":null,"country_id":null},{"active":false,"Giataid":"770992","cityId":null,"cityName":"Fujairah","hotelId":770992,"hotelName":"Capital Grand Hotel","address":"Mina Road,Al Fujayrah,Fujairah,United Arab Emirates","phones":"","fax":"","email":"res@capitalgrandhotel-fujairah.site","url":"http://www.capitalgrandhotel-fujairah.site/","countryIso2":"AE","countryName":"United Arab Emirates","hotelRating":"1","latitude":"25.1998","longitude":"56.338","state_id":null,"state_name":null,"country_id":null},{"active":false,"Giataid":"792439","cityId":null,"cityName":"Abu Dhabi","hotelId":792439,"hotelName":"Rixos Saadiyat Island","address":"Saadiyat Island,Abu Dhabi,United Arab Emirates","phones":"","fax":"","email":"","url":"http://www.watg.com/project/rixos-saadiyat-island-abu-dhabi-united-arab-emirates-architecture/","countryIso2":"AE","countryName":"United Arab Emirates","hotelRating":"5","latitude":"24.4716","longitude":"54.4048","state_id":null,"state_name":null,"country_id":null},{"active":false,"Giataid":"794000","cityId":null,"cityName":"Abu Dhabi","hotelId":794000,"hotelName":"Fairmont Marina Residences","address":"Abu Dhabi,Dubai,United Arab Emirates","phones":"+97180014444","fax":"","email":"","url":"http://www.fairmontmarinaresidences.com","countryIso2":"AE","countryName":"United Arab Emirates","hotelRating":"5","latitude":"24.4716","longitude":"54.4048","state_id":null,"state_name":null,"country_id":null},{"active":false,"Giataid":"794081","cityId":null,"cityName":"Abu Dhabi","hotelId":794081,"hotelName":"Jumeirah Al Wathba","address":"NULL","phones":"","fax":"","email":"PR@jumeirah.com","url":"http://www.jumeirah.com/en/jumeirah-group/press-centre/press-releases/press-releases-for-2018/jumeirah-to-operate-al-wathba-desert-resort-a-new-luxury-destination-in-abu-dhabi/","countryIso2":"AE","countryName":"United Arab Emirates","hotelRating":"1","latitude":"25.19","longitude":"55.2547","state_id":null,"state_name":null,"country_id":null},{"active":false,"Giataid":"794081","cityId":null,"cityName":"Abu Dhabi","hotelId":794081,"hotelName":"Jumeirah Al Wathba","address":"NULL","phones":"","fax":"","email":"PR@jumeirah.com","url":"http://www.jumeirah.com/en/jumeirah-group/press-centre/press-releases/press-releases-for-2018/jumeirah-to-operate-al-wathba-desert-resort-a-new-luxury-destination-in-abu-dhabi/","countryIso2":"AE","countryName":"United Arab Emirates","hotelRating":"1","latitude":"25.19","longitude":"55.2547","state_id":null,"state_name":null,"country_id":null},{"active":false,"Giataid":"816204","cityId":null,"cityName":"Abu Dhabi","hotelId":816204,"hotelName":"The Abu Dhabi Edition","address":"Al Bateen Marina,PO 127799,Abu Dhabi,United Arab Emirates","phones":"+97123047002","fax":"","email":"","url":"https://www.editionhotels.com","countryIso2":"AE","countryName":"United Arab Emirates","hotelRating":"1","latitude":"24.4716","longitude":"54.4048","state_id":null,"state_name":null,"country_id":null},{"active":false,"Giataid":"822473","cityId":null,"cityName":"Abu Dhabi","hotelId":822473,"hotelName":"Beach Arjaan by Rotana","address":"Al Zahiyah Area,Abu Dhabi,United Arab Emirates","phones":"+97122070000","fax":"+97122070001","email":"","url":"https://www.rotana.com/arjaanhotelapartments/unitedarabemirates/abudhabi/beacharjaanbyrotana","countryIso2":"AE","countryName":"United Arab Emirates","hotelRating":"4","latitude":"24.4936","longitude":"54.3847","state_id":null,"state_name":null,"country_id":null},{"active":false,"Giataid":"823047","cityId":null,"cityName":"Abu Dhabi","hotelId":823047,"hotelName":"Shangri-La Hotel Qaryat Al Beri & Shangri-La Residences Qaryat Al Beri","address":"P.O. Box 128881,Khor Al Maqta,Abu Dhabi,United Arab Emirates","phones":"+97125098888","fax":"","email":"","url":"http://www.shangri-la.com/abudhabi/shangrila/","countryIso2":"AE","countryName":"United Arab Emirates","hotelRating":"1","latitude":"24.4716","longitude":"54.4048","state_id":null,"state_name":null,"country_id":null},{"active":false,"Giataid":"826591","cityId":null,"cityName":"The Palm Islands","hotelId":826591,"hotelName":"Royal Central The Palm","address":"East Crescent,P.O. Box 9970,22369 Palm Jumeirah,Dubai,United Arab Emirates","phones":"+97144544900","fax":"+97144544901","email":"info@central-hotels.com","url":"http://www.central-hotels.com/hotels/royal-central-hotel-the-palm/","countryIso2":"AE","countryName":"United Arab Emirates","hotelRating":"1","latitude":"25.19","longitude":"55.2547","state_id":null,"state_name":null,"country_id":null},{"active":false,"Giataid":"407162","cityId":null,"cityName":"Abu Dhabi","hotelId":10044838,"hotelName":"Park Arjaan By Rotana","address":"Eastern Ring Road,P.O. Box 43377,Ministries Area,Abu Dhabi,United Arab Emirates","phones":"+97126573333","fax":"","email":"","url":"","countryIso2":"AE","countryName":"United Arab Emirates","hotelRating":"4","latitude":"24.4241","longitude":"54.4734","state_id":null,"state_name":null,"country_id":null},{"active":false,"Giataid":"414707","cityId":null,"cityName":"Abu Dhabi","hotelId":10048812,"hotelName":"Ramee Rose Hotel Apartments","address":"Near Taha Medical Centre,Al Falah 9th Street Old Passport Road,Abu Dhabi 500127,United Arab Emirates","phones":"+97126932777","fax":"","email":"","url":"","countryIso2":"AE","countryName":"United Arab Emirates","hotelRating":"3","latitude":"24.4813","longitude":"54.3724","state_id":null,"state_name":null,"country_id":null},{"active":false,"Giataid":"470454","cityId":null,"cityName":"Abu Dhabi","hotelId":10049339,"hotelName":"Vision Links Hotel Apartments","address":"Muroor Road,Al Nahyan Camp,City Center, Mamoura Area,Abu Dhabi P.O. Box: 54955,United Arab Emirates","phones":"+97126933000","fax":"","email":"","url":"","countryIso2":"AE","countryName":"United Arab Emirates","hotelRating":"4","latitude":"24.4659","longitude":"54.3843","state_id":null,"state_name":null,"country_id":null},{"active":false,"Giataid":"473040","cityId":null,"cityName":"The Palm Islands","hotelId":10050590,"hotelName":"Al Sultana","address":"Al Sultana,Shoreline 3,Shoreline Apartments,Palm Jumeirah,Dubai,United Arab Emirates","phones":"","fax":"","email":"","url":"","countryIso2":"AE","countryName":"United Arab Emirates","hotelRating":"3","latitude":"25.1083","longitude":"55.1494","state_id":null,"state_name":null,"country_id":null},{"active":false,"Giataid":"402678","cityId":null,"cityName":"Abu Dhabi","hotelId":10052431,"hotelName":"Eastern Mangroves Suites By Jannah","address":"Salam Street,Eastern Mangroves,Abu Dhabi (P.O. Box 127912),United Arab Emirates","phones":"+97123076307","fax":"","email":"","url":"","countryIso2":"AE","countryName":"United Arab Emirates","hotelRating":"5","latitude":"24.446","longitude":"54.4387","state_id":null,"state_name":null,"country_id":null},{"active":false,"Giataid":"554963","cityId":null,"cityName":"Al Marjan Islands","hotelId":10054931,"hotelName":"Marjan Island Resort & Spa","address":"Marjan Island Boulevard,P.O. Box 14745,Marjan Island,Ras al Khaimah,United Arab Emirates","phones":"+97172036666","fax":"","email":"","url":"","countryIso2":"AE","countryName":"United Arab Emirates","hotelRating":"5","latitude":"25.6823","longitude":"55.7464","state_id":null,"state_name":null,"country_id":null},{"active":false,"Giataid":"585027","cityId":null,"cityName":"Abu Dhabi","hotelId":10055909,"hotelName":"ShangrI-La Residences Qaryat Al Beri","address":"P.O. Box 128881,Khor Al Maqta,Abu Dhabi,United Arab Emirates","phones":"+97125098888","fax":"","email":"","url":"","countryIso2":"AE","countryName":"United Arab Emirates","hotelRating":"5","latitude":"24.4088","longitude":"54.4916","state_id":null,"state_name":null,"country_id":null},{"active":false,"Giataid":"407127","cityId":null,"cityName":"Abu Dhabi","hotelId":10057562,"hotelName":"Ramada Abu Dhabi Corniche","address":"Mina Road,Tourist Club Area,PO Box 128743,Abu Dhabi,United Arab Emirates","phones":"+97124019000","fax":"","email":"","url":"","countryIso2":"AE","countryName":"United Arab Emirates","hotelRating":"4","latitude":"24.5069","longitude":"54.3758","state_id":null,"state_name":null,"country_id":null},{"active":false,"Giataid":"402679","cityId":null,"cityName":"Abu Dhabi","hotelId":10058322,"hotelName":"Southern Sun Abu Dhabi","address":"Al Mina Street,Al Zahiya (Tourist Club Area),Abu Dhabi,United Arab Emirates","phones":"+97128184888","fax":"","email":"","url":"","countryIso2":"AE","countryName":"United Arab Emirates","hotelRating":"4","latitude":"24.5004","longitude":"54.3711","state_id":null,"state_name":null,"country_id":null},{"active":false,"Giataid":"427048","cityId":null,"cityName":"Ras al Khaimah","hotelId":10058330,"hotelName":"Ramada Hotel Suites Ras Al Khaimah","address":"Al Maareed Street,Ras Al Khaimah,United Arab Emirates","phones":"","fax":"","email":"","url":"","countryIso2":"AE","countryName":"United Arab Emirates","hotelRating":"4","latitude":"25.815","longitude":"55.9605","state_id":null,"state_name":null,"country_id":null},{"active":false,"Giataid":"414801","cityId":null,"cityName":"Abu Dhabi","hotelId":10059022,"hotelName":"Al Diar Sawa Hotel Apartments","address":"Al Nahyan Camp behind ADCB Building,P.O. Box 105825,Abu Dhabi,United Arab Emirates","phones":"+97124147777","fax":"","email":"","url":"","countryIso2":"AE","countryName":"United Arab Emirates","hotelRating":"4","latitude":"24.4666","longitude":"54.385","state_id":null,"state_name":null,"country_id":null},{"active":false,"Giataid":"438832","cityId":null,"cityName":"Abu Dhabi","hotelId":10066266,"hotelName":"Zaya Nurai Island","address":"Nurai Island,Abu Dhabi P.O. Box 44235,United Arab Emirates","phones":"+97125066212","fax":"","email":"","url":"","countryIso2":"AE","countryName":"United Arab Emirates","hotelRating":"5","latitude":"24.6145","longitude":"54.4761","state_id":null,"state_name":null,"country_id":null},{"active":false,"Giataid":"418374","cityId":null,"cityName":"Abu Dhabi","hotelId":10066625,"hotelName":"Bin Majid Tower Hotel Apartment","address":"Al Mina Road,Abu Dhabi,United Arab Emirates","phones":"+97124068444","fax":"","email":"","url":"","countryIso2":"AE","countryName":"United Arab Emirates","hotelRating":"4","latitude":"24.2992","longitude":"54.6973","state_id":null,"state_name":null,"country_id":null},{"active":false,"Giataid":"144464","cityId":null,"cityName":"Ras al Khaimah","hotelId":10066934,"hotelName":"Al Maha Residence","address":"4 Khozam Street,Ras al Khaimah,United Arab Emirates","phones":"+97172365100","fax":"","email":"","url":"","countryIso2":"AE","countryName":"United Arab Emirates","hotelRating":"3","latitude":"25.7642","longitude":"55.923","state_id":null,"state_name":null,"country_id":null},{"active":false,"Giataid":"407803","cityId":null,"cityName":"Fujairah","hotelId":10070661,"hotelName":"Raynor Hotel Apartments","address":"Al Murbah Street,4594 Murbah,Fujairah,United Arab Emirates","phones":"","fax":"","email":"","url":"","countryIso2":"AE","countryName":"United Arab Emirates","hotelRating":"3","latitude":"25.2684","longitude":"56.3617","state_id":null,"state_name":null,"country_id":null},{"active":false,"Giataid":"406511","cityId":null,"cityName":"Fujairah","hotelId":10070790,"hotelName":"Novotel Fujairah","address":"Hamad Bin Abdullah Road,PO Box 2751,Fujairah,United Arab Emirates","phones":"+97192239999","fax":"","email":"","url":"","countryIso2":"AE","countryName":"United Arab Emirates","hotelRating":"4","latitude":"25.1213","longitude":"56.3243","state_id":null,"state_name":null,"country_id":null},{"active":false,"Giataid":"406510","cityId":null,"cityName":"Fujairah","hotelId":10070912,"hotelName":"ibis Fujairah","address":"Hamad Bin Abdullah Road,P.O. Box 2751,Fujairah,United Arab Emirates","phones":"+97192239997","fax":"","email":"","url":"","countryIso2":"AE","countryName":"United Arab Emirates","hotelRating":"3","latitude":"25.1213","longitude":"56.3249","state_id":null,"state_name":null,"country_id":null},{"active":false,"Giataid":"406579","cityId":null,"cityName":"Fujairah","hotelId":10070933,"hotelName":"Adagio Fujairah Aparthotel","address":"Hamad Bin Abdullah Road,P.O. Box 2751,Fujairah,United Arab Emirates","phones":"+97192239888","fax":"","email":"","url":"","countryIso2":"AE","countryName":"United Arab Emirates","hotelRating":"4","latitude":"25.1221","longitude":"56.3301","state_id":null,"state_name":null,"country_id":null},{"active":false,"Giataid":"424474","cityId":null,"cityName":"Abu Dhabi","hotelId":10077058,"hotelName":"TRYP by Wyndham Abu Dhabi City Center","address":"Khalifa Bin Zyed the First Street,Abu Dhabi 44596,United Arab Emirates","phones":"971-2-2023555","fax":"NULL","email":"elitsa.chakarova@tryphotels.ae","url":"?","countryIso2":"AE","countryName":"United Arab Emirates","hotelRating":"4","latitude":"24.4962","longitude":"54.3667","state_id":null,"state_name":null,"country_id":null},{"active":false,"Giataid":"367368","cityId":null,"cityName":"Abu Dhabi","hotelId":10099480,"hotelName":"Oaks Liwa Executive Suites","address":"Plot C-19,Sector E-16,Tourist Club Area,Abu Dhabi 52920,United Arab Emirates","phones":"+97126443344","fax":"NULL","email":"NULL","url":"NULL","countryIso2":"AE","countryName":"United Arab Emirates","hotelRating":"4","latitude":"24.4931","longitude":"54.3825","state_id":null,"state_name":null,"country_id":null},{"active":false,"Giataid":"422885","cityId":null,"cityName":"Abu Dhabi","hotelId":10101538,"hotelName":"Paragon Hotel Apartments","address":"Muroor Road,Al Nahyan Camp,Near to Red Crescent Head Office,P O Box: 41665,Abu Dhabi,United Arab Emirates","phones":"+97126154555","fax":"NULL","email":"NULL","url":"NULL","countryIso2":"AE","countryName":"United Arab Emirates","hotelRating":"3","latitude":"24.465","longitude":"54.3852","state_id":null,"state_name":null,"country_id":null},{"active":false,"Giataid":"431520","cityId":null,"cityName":"Abu Dhabi","hotelId":10127050,"hotelName":"Jannah Burj Al Sarab","address":"Mina Street,Tourist Club Area,Abu Dhabi,United Arab Emirates","phones":"+97126526777","fax":"NULL","email":"NULL","url":"NULL","countryIso2":"AE","countryName":"United Arab Emirates","hotelRating":"4","latitude":"24.5016","longitude":"54.373","state_id":null,"state_name":null,"country_id":null},{"active":false,"Giataid":"263660","cityId":null,"cityName":"Deira","hotelId":10134140,"hotelName":"Al Deyafa Hotel Apartments 1","address":"Al Riqqa Road,Deira,Dubai,United Arab Emirates","phones":"'971 4 2282555","fax":"'971 4 2242977","email":"NULL","url":"NULL","countryIso2":"AE","countryName":"United Arab Emirates","hotelRating":"3","latitude":"25.2642","longitude":"55.322","state_id":null,"state_name":null,"country_id":null},{"active":false,"Giataid":"602997","cityId":null,"cityName":"Abu Dhabi","hotelId":10134189,"hotelName":"Emirates Plaza Hotel","address":"Tourist Club Area,Abu Dhabi,United Arab Emirates","phones":"971-2-67-22111","fax":"971-2-67-23214","email":"NULL","url":"NULL","countryIso2":"AE","countryName":"United Arab Emirates","hotelRating":"1","latitude":"24.5012","longitude":"54.3745","state_id":null,"state_name":null,"country_id":null},{"active":false,"Giataid":"295988","cityId":null,"cityName":"Abu Dhabi","hotelId":10134193,"hotelName":"Fortune Hotel Apartments","address":"Al Salam Street,Tourist Club Area,Abu Dhabi,United Arab Emirates","phones":"971-2-645-1666","fax":"971-2-645-6611","email":"NULL","url":"NULL","countryIso2":"AE","countryName":"United Arab Emirates","hotelRating":"2","latitude":"24.4942","longitude":"54.3782","state_id":null,"state_name":null,"country_id":null},{"active":false,"Giataid":"442938","cityId":null,"cityName":"Deira","hotelId":10134209,"hotelName":"Index Hotel","address":"Al Sabkha Road,P.O.Box 16382,Deira,United Arab Emirates","phones":"'97142291555","fax":"'","email":"NULL","url":"NULL","countryIso2":"AE","countryName":"United Arab Emirates","hotelRating":"1","latitude":"25.272","longitude":"55.3022","state_id":null,"state_name":null,"country_id":null},{"active":false,"Giataid":"122905","cityId":null,"cityName":"The Palm Islands","hotelId":10134247,"hotelName":"Tiara Residences","address":"Tiara Residence,Palm Jumeirah,Dubai,United Arab Emirates","phones":"971-4-5119111","fax":"971-4-5119111","email":"NULL","url":"NULL","countryIso2":"AE","countryName":"United Arab Emirates","hotelRating":"5","latitude":"25.1163","longitude":"55.1418","state_id":null,"state_name":null,"country_id":null},{"active":false,"Giataid":"442350","cityId":null,"cityName":"Abu Dhabi","hotelId":10141287,"hotelName":"Jannah Place Abu Dhabi","address":"Delma Street,Sheikh Rashid Bin Saeed Road,13th Street,Abu Dhabi,United Arab Emirates","phones":"971-241-23332","fax":"","email":"book@jannahplace.com","url":"http://www.jannah.ae","countryIso2":"AE","countryName":"United Arab Emirates","hotelRating":"3","latitude":"24.463","longitude":"54.3774","state_id":null,"state_name":null,"country_id":null},{"active":false,"Giataid":"515808","cityId":null,"cityName":"Abu Dhabi","hotelId":20000761,"hotelName":"Gloria Downtown Hotel","address":"6 Fatima Bint Mubarak Street,Abu Dhabi,United Arab Emirates","phones":"+97122055555","fax":"+97126666621","email":"info.gdt@gloria-hotels.com","url":"http://www.gloria-hotels.com/en/hotels/gloria-downtown-abu-dhabi/","countryIso2":"AE","countryName":"United Arab Emirates","hotelRating":"4","latitude":"24.4935","longitude":"54.3663","state_id":null,"state_name":null,"country_id":null},{"active":false,"Giataid":"443382","cityId":null,"cityName":"Al Ain","hotelId":20000826,"hotelName":"Al Bada Hotel & Resort","address":"Located 10 km from the Al Ain International Airport on Route E95 (Nahel Road) Exit 19 easily accessible while traveling from Abu Dhabi or Dubai,P.O.Box 15218,Al Ain,United Arab Emirates","phones":"+97137843330","fax":"+97137843883","email":"info@albadahotel.com","url":"","countryIso2":"AE","countryName":"United Arab Emirates","hotelRating":"4","latitude":"24.3722","longitude":"55.7213","state_id":null,"state_name":null,"country_id":null},{"active":false,"Giataid":"205298","cityId":null,"cityName":"Al Ain","hotelId":20000883,"hotelName":"Asfar Resorts","address":"Al Masoody Street,Opposite Safeer Mall,Al Qatara,PO Box 64975,Al Ain,United Arab Emirates,United Arab Emirates","phones":"+97137628882","fax":"+97137629666","email":"reservation@asfarhotels.com","url":"http://www.asfarhotels.com/resort.html","countryIso2":"AE","countryName":"United Arab Emirates","hotelRating":"3","latitude":"24.2692","longitude":"55.7445","state_id":null,"state_name":null,"country_id":null},{"active":false,"Giataid":"537149","cityId":null,"cityName":"Abu Dhabi","hotelId":20001055,"hotelName":"Four Seasons Hotel Abu Dhabi at Al Maryah Island","address":"Al Maryah Island,Abu Dhabi P.O. Box 107032,United Arab Emirates","phones":"+97123332222","fax":"+97122222278","email":"","url":"http://www.fourseasons.com/abudhabi/","countryIso2":"AE","countryName":"United Arab Emirates","hotelRating":"5","latitude":"24.503","longitude":"54.3879","state_id":null,"state_name":null,"country_id":null},{"active":false,"Giataid":"701643","cityId":null,"cityName":"Al Ain","hotelId":20001196,"hotelName":"Aloft Al Ain","address":"Al Ain Square,P.O. Box 1320,Al Towayya,Al Ain,United Arab Emirates","phones":"+97137138888","fax":"","email":"","url":"http://www.aloftalain.com","countryIso2":"AE","countryName":"United Arab Emirates","hotelRating":"4","latitude":"24.2441","longitude":"55.716","state_id":null,"state_name":null,"country_id":null},{"active":false,"Giataid":"560495","cityId":null,"cityName":"Abu Dhabi","hotelId":20001312,"hotelName":"Marriott Hotel Downtown, Abu Dhabi","address":"Sheikh Rashid Bin Saeed Street,PO Box 37421,Abu Dhabi,United Arab Emirates","phones":"+97123047777","fax":"+97123047779","email":"","url":"http://www.marriott.com/hotels/travel/auhmc-marriott-hotel-downtown-abu-dhabi/","countryIso2":"AE","countryName":"United Arab Emirates","hotelRating":"5","latitude":"24.4701","longitude":"54.3701","state_id":null,"state_name":null,"country_id":null},{"active":false,"Giataid":"427776","cityId":null,"cityName":"Abu Dhabi","hotelId":20001508,"hotelName":"Danat Capital Hotel","address":"115 Dhafeer Street,between Sultan Bin Zayed The First Street and Sheikh Rashid Bin Saeed Street,Abu Dhabi,United Arab Emirates","phones":"+97126954400","fax":"+97126954401","email":"info.residence@danathotels.com","url":"http://www.danatresidence.com","countryIso2":"AE","countryName":"United Arab Emirates","hotelRating":"5","latitude":"24.4362","longitude":"54.439","state_id":null,"state_name":null,"country_id":null},{"active":false,"Giataid":"667140","cityId":null,"cityName":"Abu Dhabi","hotelId":20001693,"hotelName":"Saadiyat Rotana Resort & Villas","address":"P.O. Box: 48578,Abu Dhabi,Saadiyat Island,United Arab Emirates","phones":"+97126994444","fax":"+97126994445","email":"head.office@rotana.com","url":"","countryIso2":"AE","countryName":"United Arab Emirates","hotelRating":"5","latitude":"24.5434","longitude":"54.4326","state_id":null,"state_name":null,"country_id":null},{"active":false,"Giataid":"498683","cityId":null,"cityName":"Abu Dhabi","hotelId":20001875,"hotelName":"Loulou Asfar Hotel Apartment","address":"Muroor Road,Between 23rd & 25th Street,Abu Dhabi,United Arab Emirates","phones":"","fax":"","email":"","url":"","countryIso2":"AE","countryName":"United Arab Emirates","hotelRating":"3","latitude":"24.4399","longitude":"54.4094","state_id":null,"state_name":null,"country_id":null},{"active":false,"Giataid":"683388","cityId":null,"cityName":"Abu Dhabi","hotelId":20002119,"hotelName":"Beach Rotana - All Suites","address":"Al Zahiyah Area,P.O. Box 45200,Abu Dhabi,United Arab Emirates","phones":"+97126979144","fax":"+97126442111","email":"beach.hotel@rotana.com","url":"https://www.rotana.com/rotanahotelandresorts/unitedarabemirates/abudhabi/beachrotanaallsuites","countryIso2":"AE","countryName":"United Arab Emirates","hotelRating":"5","latitude":"24.4944","longitude":"54.3842","state_id":null,"state_name":null,"country_id":null},{"active":false,"Giataid":"443364","cityId":null,"cityName":"Abu Dhabi","hotelId":20002361,"hotelName":"Top Stars Hotel","address":"Muroor Street,Madinat Zayed,Abu Dhabi,United Arab Emirates,United Arab Emirates","phones":"+97126140900","fax":"","email":"","url":"http://www.topstarshotel.com","countryIso2":"AE","countryName":"United Arab Emirates","hotelRating":"1","latitude":"24.4801","longitude":"54.3673","state_id":null,"state_name":null,"country_id":null},{"active":false,"Giataid":"411532","cityId":null,"cityName":"Abu Dhabi","hotelId":20003270,"hotelName":"Strand Hotel Abu Dhabi","address":"Salaam Street,Navy Gate,Near Abu Dhabi City Terminal,United Arab Emirates","phones":"","fax":"","email":"","url":"","countryIso2":"AE","countryName":"United Arab Emirates","hotelRating":"3","latitude":"24.4967","longitude":"54.3791","state_id":null,"state_name":null,"country_id":null},{"active":false,"Giataid":"411151","cityId":null,"cityName":"Abu Dhabi","hotelId":20003478,"hotelName":"Majlis Grand Mercure Residence Abu Dhabi","address":"Zayed The 1st Street,Electra Street,Tourist Club Area,53400  Abu Dhabi,United Arab Emirates","phones":"+97124081111","fax":"+97124081000","email":"H9704-RM@accor.com","url":"http://www.mercure.com/de/hotel-9704-majlis-grand-mercure-residence-abu-dhabi/room.shtml","countryIso2":"AE","countryName":"United Arab Emirates","hotelRating":"5","latitude":"24.4947","longitude":"54.3761","state_id":null,"state_name":null,"country_id":null},{"active":false,"Giataid":"443514","cityId":null,"cityName":"Abu Dhabi","hotelId":20003693,"hotelName":"Center Ville Hotel","address":"Defense Road,Al Nahyan Area,P.O. Box 126956,Abu Dhabi,United Arab Emirates","phones":"","fax":"","email":"","url":"","countryIso2":"AE","countryName":"United Arab Emirates","hotelRating":"2","latitude":"24.4737","longitude":"54.3773","state_id":null,"state_name":null,"country_id":null},{"active":false,"Giataid":"580907","cityId":null,"cityName":"Abu Dhabi","hotelId":20003876,"hotelName":"Gava Hotel","address":"Haza Bin Zayed the 1st Street (Defence Road),Opposite Dar Al Shifa Hospital,P.O BOX:44227,Abu Dhabi,United Arab Emirates","phones":"+97126425667","fax":"+97126416744","email":"info@gavahotel.net","url":"http://www.gavahotel.net/","countryIso2":"AE","countryName":"United Arab Emirates","hotelRating":"1","latitude":"24.2992","longitude":"54.6973","state_id":null,"state_name":null,"country_id":null},