[{"active":false,"Giataid":"1756","cityId":null,"cityName":"Angaagaa","hotelId":1756,"hotelName":"Angaga Island Resort & Spa","address":"Angaga Island,South Ari Atoll,Maldives","phones":"+9606680510","fax":"+9606680520","email":"angaga@dhivehinet.net.mv","url":"http://www.angaga.com.mv/","countryIso2":"MV","countryName":"Maldives","hotelRating":"4","latitude":"3.65262","longitude":"72.8221","state_id":null,"state_name":null,"country_id":null},{"active":false,"Giataid":"1757","cityId":null,"cityName":"Athurugau","hotelId":1757,"hotelName":"Diamonds Athuruga","address":"PO Box 2019,Athuruga Island,South Ari Atoll,Male,Maldives","phones":"+9606680508","fax":"+9606680574","email":"info.athuruga@diamonds-resorts.com","url":"http://www.planhotel.com","countryIso2":"MV","countryName":"Maldives","hotelRating":"5","latitude":"3.88702","longitude":"72.8165","state_id":null,"state_name":null,"country_id":null},{"active":false,"Giataid":"1758","cityId":null,"cityName":"Ellaidhoo","hotelId":1758,"hotelName":"Ellaidhoo Maldives by Cinnamon","address":"Ellaidhoo,North Male Atoll,Maldives","phones":"+9606660669","fax":"+960450514","email":"sales@keells.com.mv","url":"http://www.chaayamaldives.com/hotel.cfm?ghid=261091","countryIso2":"MV","countryName":"Maldives","hotelRating":"4","latitude":"4.00811","longitude":"72.9494","state_id":null,"state_name":null,"country_id":null},{"active":false,"Giataid":"1759","cityId":null,"cityName":"Dhiffushi (Alif Dhaal)","hotelId":1759,"hotelName":"Holiday Island Resort & Spa","address":"Dhiffushi,South Ari Atoll,Maldives","phones":"+9606680011","fax":"+9606680022","email":"info@holiday-island.com.mv","url":"http://www.villahotels.com/Resorts/Holiday-Island-Resort-Spa","countryIso2":"MV","countryName":"Maldives","hotelRating":"4","latitude":"3.47592","longitude":"72.8274","state_id":null,"state_name":null,"country_id":null},{"active":false,"Giataid":"1760","cityId":null,"cityName":"Kanifinolhu","hotelId":1760,"hotelName":"Kanifinolhu","address":"P.O. Box 2051,Kanifinolhu,North Male Atoll,Maldives","phones":"","fax":"","email":"","url":"","countryIso2":"MV","countryName":"Maldives","hotelRating":"1","latitude":"4.29776","longitude":"73.5421","state_id":null,"state_name":null,"country_id":null},{"active":false,"Giataid":"1760","cityId":null,"cityName":"Kanifinolhu","hotelId":1760,"hotelName":"Kanifinolhu","address":"P.O. Box 2051,Kanifinolhu,North Male Atoll,Maldives","phones":"","fax":"","email":"","url":"","countryIso2":"MV","countryName":"Maldives","hotelRating":"1","latitude":"4.29776","longitude":"73.5421","state_id":null,"state_name":null,"country_id":null},{"active":false,"Giataid":"1761","cityId":null,"cityName":"Maayyafushi","hotelId":1761,"hotelName":"VOI Maayafushi Resort ","address":"Atollo Ari Atoll,Maayafushi,Maldives","phones":"+9606660588","fax":"+9606660568","email":"vendite@hotels.alpitourworld.it","url":"http://www.alpitourworldhotels.it/hotel.asp?codice=AMMAAITAI6","countryIso2":"MV","countryName":"Maldives","hotelRating":"4","latitude":"4.07463","longitude":"72.8879","state_id":null,"state_name":null,"country_id":null},{"active":false,"Giataid":"1763","cityId":null,"cityName":"Mirihi","hotelId":1763,"hotelName":"Mirihi Island Resort","address":"Mirihi,South Ari Atoll,Alif Dhaal Atoll,Maldives","phones":"+9606680500","fax":"+9606680501","email":"info@mirihi.com","url":"http://www.mirihi.com/","countryIso2":"MV","countryName":"Maldives","hotelRating":"5","latitude":"3.62","longitude":"72.7814","state_id":null,"state_name":null,"country_id":null},{"active":false,"Giataid":"1764","cityId":null,"cityName":"Velidhu Island","hotelId":1764,"hotelName":"Velidhu Island Resort","address":"P.O. Box 2015,Male 20-02,North Ari Atol (North Male Atoll Alif Alif Atoll),Maldives","phones":"+9606660551","fax":"+9606660630","email":"reservations@velidhu.com.mv","url":"http://www.velidhu.com.mv","countryIso2":"MV","countryName":"Maldives","hotelRating":"3","latitude":"4.19566","longitude":"72.8177","state_id":null,"state_name":null,"country_id":null},{"active":false,"Giataid":"1765","cityId":null,"cityName":"Vilamendhoo","hotelId":1765,"hotelName":"Vilamendhoo Island Resort & Spa","address":"Vilamendhoo,South Ari Atoll,Maldives","phones":"+9606680637","fax":"+9606680639","email":"reservations@vilamendhooisland.com","url":"http://www.vilamendhooisland.com","countryIso2":"MV","countryName":"Maldives","hotelRating":"4","latitude":"3.6332","longitude":"72.959","state_id":null,"state_name":null,"country_id":null},{"active":false,"Giataid":"1766","cityId":null,"cityName":"Felidhu Atoll","hotelId":1766,"hotelName":"Rravo Alimatha Club","address":"","phones":"","fax":"","email":"","url":"","countryIso2":"MV","countryName":"Maldives","hotelRating":"1","latitude":"3.48863","longitude":"73.5387","state_id":null,"state_name":null,"country_id":null},{"active":false,"Giataid":"1767","cityId":null,"cityName":"Bandos","hotelId":1767,"hotelName":"Bandos Maldives","address":"Bandos,North Mal? Atoll 08480,Maldives","phones":"+9606640088","fax":"+9606643877","email":"resv@bandos.com.mv","url":"http://www.bandosmaldives.com/","countryIso2":"MV","countryName":"Maldives","hotelRating":"4","latitude":"4.26934","longitude":"73.4914","state_id":null,"state_name":null,"country_id":null},{"active":false,"Giataid":"1768","cityId":null,"cityName":"Lankanfushi","hotelId":1768,"hotelName":"Hudhuveli","address":"Lankanfushi Island 08290,North Male' Atoll,Maldives","phones":"","fax":"","email":"","url":"","countryIso2":"MV","countryName":"Maldives","hotelRating":"1","latitude":"4.29776","longitude":"73.5421","state_id":null,"state_name":null,"country_id":null},{"active":false,"Giataid":"1768","cityId":null,"cityName":"Lankanfushi","hotelId":1768,"hotelName":"Hudhuveli","address":"Lankanfushi Island 08290,North Male' Atoll,Maldives","phones":"","fax":"","email":"","url":"","countryIso2":"MV","countryName":"Maldives","hotelRating":"1","latitude":"4.29776","longitude":"73.5421","state_id":null,"state_name":null,"country_id":null},{"active":false,"Giataid":"1769","cityId":null,"cityName":"Lhohifushi","hotelId":1769,"hotelName":"Adaaran Select Hudhuranfushi","address":"Lhohifushi,Kaafu Atoll,Maldives","phones":"+9606641930","fax":"+9606640379","email":"res.hrf@adaaran.com.mv","url":"http://www.adaaran.com/selecthudhuranfus","countryIso2":"MV","countryName":"Maldives","hotelRating":"4","latitude":"4.34993","longitude":"73.6175","state_id":null,"state_name":null,"country_id":null},{"active":false,"Giataid":"1772","cityId":null,"cityName":"Ziyaaraifushi","hotelId":1772,"hotelName":"Summer Island Maldives","address":"Ziyaaraifushi Island,North Male Atoll,Maldives","phones":"+9606641949","fax":"+9606641910","email":"reservations@summerislandvillage.com.mv","url":"http://www.summerislandvillage.com","countryIso2":"MV","countryName":"Maldives","hotelRating":"3","latitude":"4.53405","longitude":"73.3724","state_id":null,"state_name":null,"country_id":null},{"active":false,"Giataid":"1773","cityId":null,"cityName":"Henbadhoo","hotelId":1773,"hotelName":"Vivanta By Taj - Coral Reef, Maldives","address":"PO Box 2117,Henbadhoo 20012,North Male Atoll,Maldives","phones":"+9606641948","fax":"+9606643884","email":"coralreef.maldives@tajhotels.com","url":"http://www.vivantabytaj.com/coral-reef-maldives/overview.html","countryIso2":"MV","countryName":"Maldives","hotelRating":"5","latitude":"4.48111","longitude":"73.3931","state_id":null,"state_name":null,"country_id":null},{"active":false,"Giataid":"1774","cityId":null,"cityName":"Lankanfinolhu","hotelId":1774,"hotelName":"Paradise Island Resort & Spa","address":"PO Box 2073,Lankanfinolhu Island,North Male' Atoll,Maldives","phones":"+9606640011","fax":"+9606640022","email":"info@paradise-island.com.mv","url":"http://www.villahotels.com/Resorts/Paradise-Island-Resort-Spa","countryIso2":"MV","countryName":"Maldives","hotelRating":"4","latitude":"4.28629","longitude":"73.5541","state_id":null,"state_name":null,"country_id":null},{"active":false,"Giataid":"1775","cityId":null,"cityName":"Rasdhu Atoll","hotelId":1775,"hotelName":"Kuramathi Maldives","address":"Kuramathi Maldives,Rasdhoo Atoll,Maldives","phones":"+9606660527","fax":"+9603312131","email":"reservations@universalresorts.com","url":"http://www.kuramathi.com/","countryIso2":"MV","countryName":"Maldives","hotelRating":"4","latitude":"4.25991","longitude":"72.9846","state_id":null,"state_name":null,"country_id":null},{"active":false,"Giataid":"1776","cityId":null,"cityName":"Biyadoo","hotelId":1776,"hotelName":"Biyadhoo Island","address":"Biyadoo Island,South Male Atoll 02145,Maldives","phones":"+9603344420","fax":"+9603325543","email":"admin@biyadhoo.com.mv","url":"","countryIso2":"MV","countryName":"Maldives","hotelRating":"3","latitude":"3.92206","longitude":"73.4568","state_id":null,"state_name":null,"country_id":null},{"active":false,"Giataid":"236981","cityId":null,"cityName":"Bolifushi","hotelId":1777,"hotelName":"Bolifushi Resort","address":"Bolifushi Island,South Male Atoll,Maldives","phones":"+9606642020","fax":"","email":"jumeirahvittavelli@jumeirah.com","url":"http://www.jumeirah.com/Hotels-and-Resorts/Reiseziele/Maldives/Jumeirah-Vittaveli/","countryIso2":"MV","countryName":"Maldives","hotelRating":"3","latitude":"4.09591","longitude":"73.4016","state_id":null,"state_name":null,"country_id":null},{"active":false,"Giataid":"1778","cityId":null,"cityName":"Enboodhoo","hotelId":1778,"hotelName":"Embudu Village","address":"Embudu Island,South Male Atoll,Maldives","phones":"+9606644776","fax":"+9606642673","email":"","url":"http://www.embudu.com/","countryIso2":"MV","countryName":"Maldives","hotelRating":"3","latitude":"4.08382","longitude":"73.5121","state_id":null,"state_name":null,"country_id":null},{"active":false,"Giataid":"1779","cityId":null,"cityName":"Fihalhohi","hotelId":1779,"hotelName":"Fihalhohi Island Resort","address":"Faamudheyri Magu,South Male Atoll,Male,Maldives","phones":"+9606642903","fax":"+9606643803","email":"fiha@dhivehinet.net.mv","url":"http://www.fihalhohi.net","countryIso2":"MV","countryName":"Maldives","hotelRating":"1","latitude":"3.877","longitude":"73.3673","state_id":null,"state_name":null,"country_id":null},{"active":false,"Giataid":"1780","cityId":null,"cityName":"Bodufinolhu","hotelId":1780,"hotelName":"Fun Island Resort","address":"Bodufinolhu,S?d Male Atoll,Maldives","phones":"+9606640033","fax":"","email":"","url":"","countryIso2":"MV","countryName":"Maldives","hotelRating":"3","latitude":"3.85844","longitude":"73.4564","state_id":null,"state_name":null,"country_id":null},{"active":false,"Giataid":"1782","cityId":null,"cityName":"Kandoomaafushi","hotelId":1782,"hotelName":"Holiday Inn Resort Kandooma Maldives","address":"Kandooma Fushi,South Male Atoll,Maldives","phones":"+9606640511","fax":"+9606640513","email":"info@hikandooma.com","url":"http://www.ichotelsgroup.com/h/d/rs/1/en/hotel/MLEKF","countryIso2":"MV","countryName":"Maldives","hotelRating":"4","latitude":"3.90431","longitude":"73.4738","state_id":null,"state_name":null,"country_id":null},{"active":false,"Giataid":"6552","cityId":null,"cityName":"Fonimagoodhoo (Reethi Beach)","hotelId":6552,"hotelName":"Reethi Beach Resort","address":"Fonimagoodhoo Island,Baa Atoll,Maldives","phones":"+9606602626","fax":"+9606602727","email":"info@reethibeach.com.mv","url":"http://www.reethibeach.com","countryIso2":"MV","countryName":"Maldives","hotelRating":"4","latitude":"5.2559","longitude":"73.1637","state_id":null,"state_name":null,"country_id":null},{"active":false,"Giataid":"6553","cityId":null,"cityName":"Hakuraa Huraa","hotelId":6553,"hotelName":"Cinnamon Hakuraa Huraa Maldives","address":"Hakuraa Huraa,Meemu Atoll,Maldives,Maldives","phones":"+960966720014","fax":"","email":"sales@keells.com.mv","url":"http://www.chaayahotels.com/ChaayaLagoon.htm","countryIso2":"MV","countryName":"Maldives","hotelRating":"4","latitude":"2.85365","longitude":"73.5393","state_id":null,"state_name":null,"country_id":null},{"active":false,"Giataid":"6555","cityId":null,"cityName":"Reethi","hotelId":6555,"hotelName":"One&only Reethi Rah","address":"Reethi Rah,North Mal? Atoll,Maldives","phones":"+9606648800","fax":"+9606648822","email":"reservations@oneandonlyreethirah.com","url":"http://reethirah.oneandonlyresorts.com/","countryIso2":"MV","countryName":"Maldives","hotelRating":"5","latitude":"4.52212","longitude":"73.3669","state_id":null,"state_name":null,"country_id":null},{"active":false,"Giataid":"8067","cityId":null,"cityName":"Asdhoo","hotelId":8067,"hotelName":"Asdu Sun Island","address":"Asdu Sun Island,North Male Atoll,Maldives","phones":"+9606645051","fax":"+9606640176","email":"info@asdu.com","url":"http://www.asdu.com","countryIso2":"MV","countryName":"Maldives","hotelRating":"3","latitude":"0","longitude":"0","state_id":null,"state_name":null,"country_id":null},{"active":false,"Giataid":"8538","cityId":null,"cityName":"Vabbinfaru","hotelId":8538,"hotelName":"Banyan Tree Vabbinfaru","address":"Vabbinfaru Island,North Mal? Atoll,Maldives","phones":"+9606643147","fax":"+9606643843","email":"reservations-vabbinfaru@banyantree.com","url":"http://www.banyantree.com/en/maldives_vabbinfaru/","countryIso2":"MV","countryName":"Maldives","hotelRating":"5","latitude":"4.30988","longitude":"73.424","state_id":null,"state_name":null,"country_id":null},{"active":false,"Giataid":"8576","cityId":null,"cityName":"Baros","hotelId":8576,"hotelName":"Baros Maldives Hotel","address":"P.O. Box 20 15,Mal? 20ï¿½02,Nord Male Atoll,Maldives","phones":"+9606642672","fax":"","email":"reservations@baros.com","url":"http://www.baros.com/","countryIso2":"MV","countryName":"Maldives","hotelRating":"5","latitude":"4.28502","longitude":"73.4272","state_id":null,"state_name":null,"country_id":null},{"active":false,"Giataid":"8590","cityId":null,"cityName":"Bathalaa","hotelId":8590,"hotelName":"Sandies Bathala","address":"Bathala,Ari Atoll,Maldives","phones":"+9606660587","fax":"+9606660558","email":"bathala@aaa.com.mv","url":"http://www.aaaresorts.com.mv/resort/bathala","countryIso2":"MV","countryName":"Maldives","hotelRating":"3","latitude":"4.07034","longitude":"72.9455","state_id":null,"state_name":null,"country_id":null},{"active":false,"Giataid":"9154","cityId":null,"cityName":"Boduhithi","hotelId":9154,"hotelName":"Coco Bodu Hithi","address":"Bodu Hithi,Nord Male Atoll,Maldives","phones":"+9606641122","fax":"","email":"","url":"http://www.cocopalm.com/de/bodu-hithi/location/","countryIso2":"MV","countryName":"Maldives","hotelRating":"5","latitude":"4.42987","longitude":"73.3849","state_id":null,"state_name":null,"country_id":null},{"active":false,"Giataid":"10562","cityId":null,"cityName":"Dhunikolhu","hotelId":10562,"hotelName":"Coco Palm Dhuni Kolhu","address":"Dhuni Kolhu,Baa Atoll,Maldives","phones":"+9606646600","fax":"+9606600022","email":"reservations.dhunikolhu@cocopalm.com.mv","url":"http://www.cocopalm.com/de/dhuni-kolhu/location/","countryIso2":"MV","countryName":"Maldives","hotelRating":"5","latitude":"5.04087","longitude":"72.8808","state_id":null,"state_name":null,"country_id":null},{"active":false,"Giataid":"10566","cityId":67933,"cityName":"Maafushi","hotelId":10566,"hotelName":"COMO Cocoa Island","address":"Makunufushi,South Male Atoll,Cocoa Island,Maldives","phones":"+9606641818","fax":"+9606641919","email":"cocoaisland@comohotels.com","url":"http://www.cocoaisland.como.bz","countryIso2":"MV","countryName":"Maldives","hotelRating":"5","latitude":"3.91783","longitude":"73.4698","state_id":2596,"state_name":"Kaafu Atoll","country_id":133},{"active":false,"Giataid":"1755","cityId":42027,"cityName":"Gan","hotelId":12154,"hotelName":"Equator Village","address":"Gan Island,Addu Atoll,Maldives","phones":"+9606898721","fax":"+9606898020","email":"equator@dhivehinet.net.mv","url":"http://www.equatorvillage.com","countryIso2":"MV","countryName":"Maldives","hotelRating":"3","latitude":"-0.686909","longitude":"73.1468","state_id":4795,"state_name":"Nouvelle-Aquitaine","country_id":75},{"active":false,"Giataid":"12181","cityId":null,"cityName":"Eriyadhoo","hotelId":12181,"hotelName":"smartline Eriyadu","address":"Eriyadhoo,Nord Male Atoll,Male,Maldives","phones":"+9606444487","fax":"+9606645926","email":"sales-eriyadu@pch.com.mv","url":"http://www.eriyadumaldives.com","countryIso2":"MV","countryName":"Maldives","hotelRating":"3","latitude":"4.58977","longitude":"73.4147","state_id":null,"state_name":null,"country_id":null},{"active":false,"Giataid":"12500","cityId":null,"cityName":"Fesdhoo","hotelId":12500,"hotelName":"Fesdu Village","address":"North Ari Atoll,Fesdu Island 09110,Maldives","phones":"","fax":"","email":"","url":"","countryIso2":"MV","countryName":"Maldives","hotelRating":"3","latitude":"3.87364","longitude":"72.8897","state_id":null,"state_name":null,"country_id":null},{"active":false,"Giataid":"12500","cityId":null,"cityName":"Fesdhoo","hotelId":12500,"hotelName":"Fesdu Village","address":"North Ari Atoll,Fesdu Island 09110,Maldives","phones":"","fax":"","email":"","url":"","countryIso2":"MV","countryName":"Maldives","hotelRating":"3","latitude":"3.87364","longitude":"72.8897","state_id":null,"state_name":null,"country_id":null},{"active":false,"Giataid":"12530","cityId":null,"cityName":"Faafu Atoll","hotelId":12530,"hotelName":"Filitheyo Island Resort","address":"Filitheyo Island,Faafu Atoll,Male,Maldives","phones":"+9606740025","fax":"+9606740024","email":"fili@aaa.com.mv","url":"http://www.aaaresorts.com.mv","countryIso2":"MV","countryName":"Maldives","hotelRating":"4","latitude":"3.21273","longitude":"73.0339","state_id":null,"state_name":null,"country_id":null},{"active":false,"Giataid":"12947","cityId":null,"cityName":"Kuda Huraa","hotelId":12947,"hotelName":"Four Seasons Resort Maldives At Kuda Huraa","address":"Kuda Huraa,North Mal? Atoll,Maldives","phones":"+9606644888","fax":"+9606644900","email":"khrr@dhivehinet.net.mv","url":"http://www.fourseasons.com","countryIso2":"MV","countryName":"Maldives","hotelRating":"5","latitude":"4.32757","longitude":"73.5973","state_id":null,"state_name":null,"country_id":null},{"active":false,"Giataid":"13023","cityId":null,"cityName":"Furan-nafushi","hotelId":13023,"hotelName":"Sheraton Maldives Full Moon Resort & Spa","address":"Furanafushi Island,North Male Atoll 08240,Maldives","phones":"+9606642010","fax":"+9606641979","email":"sheraton.maldives@sheraton.com","url":"http://www.starwoodhotels.com/sheraton/property/overview/index.html?propertyID=3442","countryIso2":"MV","countryName":"Maldives","hotelRating":"5","latitude":"4.25004","longitude":"73.5456","state_id":null,"state_name":null,"country_id":null},{"active":false,"Giataid":"13088","cityId":null,"cityName":"Ganeghi","hotelId":13088,"hotelName":"Gangehi Island Resort","address":"Gangehi,North Ari Atoll,Maldives","phones":"+9606660505","fax":"+9606660506","email":"info@gangehi.com","url":"http://www.gangehi.com/","countryIso2":"MV","countryName":"Maldives","hotelRating":"5","latitude":"4.22016","longitude":"72.7552","state_id":null,"state_name":null,"country_id":null},{"active":false,"Giataid":"13895","cityId":null,"cityName":"Helengeli","hotelId":13895,"hotelName":"OBLU by Atmosphere at Helengeli","address":"Helengeli Island,North Male Atoll,Maldives","phones":"+9609596006","fax":"+9606642881","email":"info@helengeli.net","url":"http://www.helengeli.net","countryIso2":"MV","countryName":"Maldives","hotelRating":"4","latitude":"4.6343","longitude":"73.5631","state_id":null,"state_name":null,"country_id":null},{"active":false,"Giataid":"14637","cityId":null,"cityName":"Ihuru","hotelId":14637,"hotelName":"Angsana Ihuru","address":"Ihuru Island,North Mal? Atoll,Maldives","phones":"+9606643502","fax":"+9606645933","email":"ihuru@angsana.com","url":"http://www.angsana.com","countryIso2":"MV","countryName":"Maldives","hotelRating":"5","latitude":"4.30666","longitude":"73.4162","state_id":null,"state_name":null,"country_id":null},{"active":false,"Giataid":"14817","cityId":null,"cityName":"Vihamanaafushi","hotelId":14817,"hotelName":"Kurumba Maldives","address":"Vihamanaafushi 08340,North Male Atoll,Maldives","phones":"+9606642324","fax":"+9606643885","email":"kurumba@kurumba.com","url":"http://www.kurumba.com","countryIso2":"MV","countryName":"Maldives","hotelRating":"5","latitude":"4.22551","longitude":"73.5207","state_id":null,"state_name":null,"country_id":null},{"active":false,"Giataid":"15212","cityId":null,"cityName":"Mal? City","hotelId":15212,"hotelName":"Kam Hotel","address":"Meheli Goalhi,Male 20222,Maldives","phones":"+9603320611","fax":"","email":"","url":"","countryIso2":"MV","countryName":"Maldives","hotelRating":"3","latitude":"4.17688","longitude":"73.5172","state_id":null,"state_name":null,"country_id":null},{"active":false,"Giataid":"15225","cityId":null,"cityName":"Kanuhuraa (Lhaviyani)","hotelId":15225,"hotelName":"Kanuhura Maldives","address":"Kanuhuraa,Lhaviyani Atoll,Maldives","phones":"+9606620044","fax":"+9606620033","email":"info@kanuhura.com.mv","url":"http://www.kanuhura.com/","countryIso2":"MV","countryName":"Maldives","hotelRating":"5","latitude":"5.5321","longitude":"73.5066","state_id":null,"state_name":null,"country_id":null},{"active":false,"Giataid":"15566","cityId":null,"cityName":"Dhangethi","hotelId":15566,"hotelName":"Amaya Kuda Rah","address":"Kuda Rah Island,Ari Atoll,Maldives","phones":"+9606680000","fax":"","email":"sales.amayamv@amayaresorts.com","url":"http://www.amayakudarah.com","countryIso2":"MV","countryName":"Maldives","hotelRating":"5","latitude":"3.57457","longitude":"72.91","state_id":null,"state_name":null,"country_id":null},{"active":false,"Giataid":"15580","cityId":null,"cityName":"Kuredu","hotelId":15580,"hotelName":"Kuredu Resort & Spa","address":"Kuredhoo Island,Kuredu,Lhaviyani Atoll,Maldives","phones":"+9606620337","fax":"","email":"info@kuredu.com","url":"http://www.kuredu.com/","countryIso2":"MV","countryName":"Maldives","hotelRating":"4","latitude":"5.54872","longitude":"73.4657","state_id":null,"state_name":null,"country_id":null},{"active":false,"Giataid":"15870","cityId":null,"cityName":"Velassaru (Laguna)","hotelId":15870,"hotelName":"Velassaru Maldives","address":"39 Orchid Magu,Velassaru,Mal? 20-02,Maldives","phones":"+9606656100","fax":"+9606643041","email":"reservations@universalresorts.com","url":"http://www.velassarumaldives.com/","countryIso2":"MV","countryName":"Maldives","hotelRating":"5","latitude":"4.12144","longitude":"73.437","state_id":null,"state_name":null,"country_id":null},{"active":false,"Giataid":"16356","cityId":null,"cityName":"Lily","hotelId":16356,"hotelName":"Lily Beach Resort & Spa","address":"Huvahendhoo,South Ari Atoll,Maldives","phones":"+9606680013","fax":"+9606680646","email":"sales@lilybeachmaldives.com","url":"http://www.lilybeachmaldives.com","countryIso2":"MV","countryName":"Maldives","hotelRating":"5","latitude":"3.65364","longitude":"72.954","state_id":null,"state_name":null,"country_id":null},{"active":false,"Giataid":"16556","cityId":null,"cityName":"Sun Island","hotelId":16556,"hotelName":"Sun Island Resort & Spa","address":"Nalaguraidhoo,South Ari Atoll,P.O. Box 2073,Maldives","phones":"+9606680088","fax":"+9606680099","email":"info@sun-island.com.mv","url":"http://www.villahotels.com/Resorts/Sun-Island-Resort-Spa","countryIso2":"MV","countryName":"Maldives","hotelRating":"4","latitude":"3.4842","longitude":"72.8021","state_id":null,"state_name":null,"country_id":null},{"active":false,"Giataid":"16557","cityId":null,"cityName":"Horubadhoo","hotelId":16557,"hotelName":"Royal Island Resort & Spa","address":"Horubadhoo,Baa Atoll,Maldives","phones":"+9606600088","fax":"+9606600099","email":"info@royal-island.com.mv","url":"http://www.royal-island.com","countryIso2":"MV","countryName":"Maldives","hotelRating":"5","latitude":"5.1628","longitude":"73.0523","state_id":null,"state_name":null,"country_id":null},{"active":false,"Giataid":"16637","cityId":null,"cityName":"Madoogali","hotelId":16637,"hotelName":"Madoogali - The Maldives","address":"Madoogali,Nortn Ari Atoll,Maldives","phones":"+9606660581","fax":"+9606660554","email":"info@madoogalimaldives.com","url":"http://www.madoogalimaldives.com/","countryIso2":"MV","countryName":"Maldives","hotelRating":"4","latitude":"4.09559","longitude":"72.7533","state_id":null,"state_name":null,"country_id":null},{"active":false,"Giataid":"16713","cityId":null,"cityName":"Makunudhoo","hotelId":16713,"hotelName":"Makunudu Island","address":"Makunudu,North Male' Atoll 99999,Maldives","phones":"+9606646464","fax":"+96066446565","email":"makunudu@sunland.com.mv","url":"http://www.makunudu.com","countryIso2":"MV","countryName":"Maldives","hotelRating":"4","latitude":"4.54277","longitude":"73.4052","state_id":null,"state_name":null,"country_id":null},{"active":false,"Giataid":"16716","cityId":null,"cityName":"Rangali","hotelId":16716,"hotelName":"Conrad Maldives Rangali Island","address":"Conrad Maldives,Rangali Island 20077,Maldives","phones":"+9606680629","fax":"","email":"Conrad_Maldives@conradhotels.com","url":"http://conradhotels3.hilton.com/en/hotels/maldives/conrad-maldives-rangali-island-MLEHICI/index.html","countryIso2":"MV","countryName":"Maldives","hotelRating":"5","latitude":"3.61777","longitude":"72.7233","state_id":null,"state_name":null,"country_id":null},{"active":false,"Giataid":"16617","cityId":null,"cityName":"Machchafushi","hotelId":17120,"hotelName":"Matchafush","address":"Centara Grand Island,South Ari Atoll,Machchafushi 20217,Maldives","phones":"","fax":"","email":"","url":"","countryIso2":"MV","countryName":"Maldives","hotelRating":"1","latitude":"3.87364","longitude":"72.8897","state_id":null,"state_name":null,"country_id":null},{"active":false,"Giataid":"17172","cityId":null,"cityName":"Medhufushi","hotelId":17172,"hotelName":"Medhufushi Island Resort","address":"Medhufushi Island,Meemu Atoll,Maldives","phones":"+9606720026","fax":"+9606720027","email":"medhufushi@aaa.com.mv","url":"http://www.malediven.net/Bilder/Medhufushi/index.htm","countryIso2":"MV","countryName":"Maldives","hotelRating":"5","latitude":"2.88456","longitude":"73.5753","state_id":null,"state_name":null,"country_id":null},{"active":false,"Giataid":"17205","cityId":null,"cityName":"Meedhupparu","hotelId":17205,"hotelName":"Adaaran Select Meedhupparu","address":"Raa Atoll,Meedhupparu,Maldives","phones":"+9606587700","fax":"+9606640379","email":"ebiz.mv@adaaran.com.mv","url":"http://www.adaaran.com/selectmeedhupparu/","countryIso2":"MV","countryName":"Maldives","hotelRating":"4","latitude":"5.45601","longitude":"72.9793","state_id":null,"state_name":null,"country_id":null},{"active":false,"Giataid":"17208","cityId":null,"cityName":"Meeru Island","hotelId":17208,"hotelName":"Meeru Island Resort & Spa","address":"North Male' Atoll,Meeru,Maldives","phones":"+9606643157","fax":"+9606645946","email":"reservations@meeru.com","url":"http://www.meeru.com","countryIso2":"MV","countryName":"Maldives","hotelRating":"4","latitude":"4.45338","longitude":"73.7168","state_id":null,"state_name":null,"country_id":null},{"active":false,"Giataid":"17807","cityId":null,"cityName":"Nakachchaafushi","hotelId":17807,"hotelName":"Huvafen Fushi Maldives","address":"PO Box 2017,Huvafen,North Mal? Atoll,Maldives","phones":"+9606644222","fax":"+9606646202","email":"reservations@huvafenfushi.com","url":"http://www.huvafenfushi.peraquum.com/contactus/default.html","countryIso2":"MV","countryName":"Maldives","hotelRating":"5","latitude":"4.36806","longitude":"73.37","state_id":null,"state_name":null,"country_id":null},{"active":false,"Giataid":"19923","cityId":null,"cityName":"Rannalhi","hotelId":19923,"hotelName":"Adaaran Club Rannalhi","address":"7th Floor,STO Aifaanu Building,Boduthakurufaanu Magu,Male,Rannalhi Island,Kaafu Atoll,Maldives","phones":"+9606642688","fax":"+9606640379","email":"res.acr@adaaran.com.mv","url":"http://www.adaaran.com/clubrannalhi/","countryIso2":"MV","countryName":"Maldives","hotelRating":"4","latitude":"3.90342","longitude":"73.3575","state_id":null,"state_name":null,"country_id":null},{"active":false,"Giataid":"21922","cityId":null,"cityName":"Kunfunadhoo","hotelId":21922,"hotelName":"Soneva Fushi","address":"Kunfunadhoo Island,Baa Atoll,Maldives","phones":"+9606600304","fax":"+9606600374","email":"reservations-fushi@soneva.com","url":"http://www.sonevaresorts.com","countryIso2":"MV","countryName":"Maldives","hotelRating":"5","latitude":"5.11141","longitude":"73.078","state_id":null,"state_name":null,"country_id":null},{"active":false,"Giataid":"23120","cityId":null,"cityName":"Thudufushi","hotelId":23120,"hotelName":"Diamonds Thudufushi","address":"P.O. Box 2019,South Ari Atoll,Male,Maldives","phones":"+9606680583","fax":"+9606680515","email":"info.thudufushi@diamonds-resorts.com","url":"http://thudufushibeach.diamonds-resorts.com/","countryIso2":"MV","countryName":"Maldives","hotelRating":"5","latitude":"3.78623","longitude":"72.7304","state_id":null,"state_name":null,"country_id":null},{"active":false,"Giataid":"23124","cityId":null,"cityName":"Thulagiri","hotelId":23124,"hotelName":"Thulhagiri Island Resort & Spa","address":"Thulhagiri Island 20307,North Mal? Atoll,Maldives","phones":"+9606645930","fax":"+9606645939","email":"reserve@thulhagiri.com.mv","url":"http://www.malediven.net/inseln/thulagiri.htm","countryIso2":"MV","countryName":"Maldives","hotelRating":"4","latitude":"4.31106","longitude":"73.4877","state_id":null,"state_name":null,"country_id":null},{"active":false,"Giataid":"23546","cityId":null,"cityName":"Vakarufalhi","hotelId":23546,"hotelName":"Vakarufalhi Island Resort","address":"Vakarufalhi Island,South Ari Atoll,Vakarufalhi,Maldives","phones":"+9606680004","fax":"+9606680007","email":"info@vakaru.com","url":"http://www.vakaru.com","countryIso2":"MV","countryName":"Maldives","hotelRating":"4","latitude":"3.5788","longitude":"72.9022","state_id":null,"state_name":null,"country_id":null},{"active":false,"Giataid":"23612","cityId":null,"cityName":"South Nilandhe Atoll","hotelId":23612,"hotelName":"Angsana Velavaru","address":"South Nilandhe Atoll,Dhaalu Atoll,Maldives","phones":"+9606760028","fax":"+9606760029","email":"velavaru@angsana.com","url":"http://www.angsana.com/en/maldives_velavaru/","countryIso2":"MV","countryName":"Maldives","hotelRating":"5","latitude":"2.97982","longitude":"73.0162","state_id":null,"state_name":null,"country_id":null},{"active":false,"Giataid":"23615","cityId":null,"cityName":"Veligandu","hotelId":23615,"hotelName":"Anantara Veli Maldives Resort","address":"P.O. Box 2098,Veligandu,Veliganduhuraa,South Mal? Atoll,Male,Maldives","phones":"+9606644100","fax":"+960 664 4101","email":"velimaldives@anantara.com","url":"http://veli-maldives.anantara.com/","countryIso2":"MV","countryName":"Maldives","hotelRating":"5","latitude":"3.96715","longitude":"73.5051","state_id":null,"state_name":null,"country_id":null},{"active":false,"Giataid":"23616","cityId":null,"cityName":"Rasdhu Atoll","hotelId":23616,"hotelName":"Veligandu Island Resort & Spa","address":"Veligandu,Rasdhu Atoll,North Ari Atoll,Maldives","phones":"+9606660519","fax":"+9606660648","email":"reservations@veliganduisland.com","url":"http://www.veliganduisland.com","countryIso2":"MV","countryName":"Maldives","hotelRating":"4","latitude":"4.29879","longitude":"73.0118","state_id":null,"state_name":null,"country_id":null},{"active":false,"Giataid":"1768","cityId":null,"cityName":"Lankanfushi","hotelId":26466,"hotelName":"Gili Lankanfushi Maldives","address":"Lankanfushi Island 08290,North Male' Atoll,Maldives","phones":"+9606640304","fax":"+9606640305","email":"reservations-gili@sonevaresorts.com","url":"http://www.sonevaresorts.com","countryIso2":"MV","countryName":"Maldives","hotelRating":"5","latitude":"4.29448","longitude":"73.5578","state_id":null,"state_name":null,"country_id":null},{"active":false,"Giataid":"1768","cityId":null,"cityName":"Lankanfushi","hotelId":26466,"hotelName":"Gili Lankanfushi Maldives","address":"Lankanfushi Island 08290,North Male' Atoll,Maldives","phones":"+9606640304","fax":"+9606640305","email":"reservations-gili@sonevaresorts.com","url":"http://www.sonevaresorts.com","countryIso2":"MV","countryName":"Maldives","hotelRating":"5","latitude":"4.29448","longitude":"73.5578","state_id":null,"state_name":null,"country_id":null},{"active":false,"Giataid":"28044","cityId":null,"cityName":"Enboodhoo","hotelId":28044,"hotelName":"Taj Exotica Resort & Spa","address":"Emboodhu Finolhu,P.O. Box 2117,Maldives","phones":"+9606642200","fax":"+9606642211","email":"exotica.maldives@tajhotels.com","url":"http://www.tajhotels.com/Luxury/Exotica-Resort-And-Spa/Taj-Exotica-Resort-And-Spa-Maldives/Overview.html","countryIso2":"MV","countryName":"Maldives","hotelRating":"5","latitude":"4.10031","longitude":"73.526","state_id":null,"state_name":null,"country_id":null},{"active":false,"Giataid":"32039","cityId":null,"cityName":"Olhuveli","hotelId":32039,"hotelName":"Olhuveli Beach & Spa","address":"Olhuveli,South Male' Atoll,Maldives","phones":"+9606642788","fax":"+9606645942","email":"info@olhuveli.com.mv","url":"http://olhuvelimaldives.com/","countryIso2":"MV","countryName":"Maldives","hotelRating":"4","latitude":"3.84953","longitude":"73.4549","state_id":null,"state_name":null,"country_id":null},{"active":false,"Giataid":"32080","cityId":null,"cityName":"Hulhule Island","hotelId":32080,"hotelName":"Hulhule Island","address":"PO Box 2118,Male',Maldives","phones":"+9603330888","fax":"+9603330777","email":"sales@hih.com.mv","url":"http://www.hih.com.mv","countryIso2":"MV","countryName":"Maldives","hotelRating":"4","latitude":"4.1947","longitude":"73.5263","state_id":null,"state_name":null,"country_id":null},{"active":false,"Giataid":"32077","cityId":null,"cityName":"Dhiggiri","hotelId":32077,"hotelName":"VOI Dhiggiri Resort ","address":"Felidhe Atoll,Maldives","phones":"+9606700593","fax":"+9606700592","email":"dhiggiri@dhivehinet.net.mv","url":"http://www.dhiggiriresort.com/","countryIso2":"MV","countryName":"Maldives","hotelRating":"4","latitude":"3.64544","longitude":"73.4879","state_id":null,"state_name":null,"country_id":null},{"active":false,"Giataid":"34001","cityId":null,"cityName":"Madhiriguraidhoo","hotelId":34001,"hotelName":"Palm Beach Island Resort & Spa","address":"Madhiriguraidhoo,Lhaviyani Atoll,Maldives","phones":"+9606620084","fax":"+9606620091","email":"reservation@sportingholiday.com.mv","url":"http://www.palmbeachmaldives.com","countryIso2":"MV","countryName":"Maldives","hotelRating":"4","latitude":"5.46945","longitude":"73.5596","state_id":null,"state_name":null,"country_id":null},{"active":false,"Giataid":"38789","cityId":null,"cityName":"Dhiddhoofinolhu","hotelId":38789,"hotelName":"LUX South Ari Atoll","address":"Dhidhoofinolhu,South Ari Atoll,Maldives","phones":"+9606680901","fax":"+9606680902","email":"divamaldives@naiade.com","url":"http://www.naiade.com/en/hotels/maldives/diva_maldives/default.aspx","countryIso2":"MV","countryName":"Maldives","hotelRating":"5","latitude":"3.50117","longitude":"72.9024","state_id":null,"state_name":null,"country_id":null},{"active":false,"Giataid":"1760","cityId":null,"cityName":"Kanifinolhu","hotelId":38907,"hotelName":"Club Med Kani","address":"P.O. Box 2051,Kanifinolhu,North Male Atoll,Maldives","phones":"+9606643152","fax":"+9606644859","email":"servicecenter01@clubmed.com","url":"http://www.clubmed.de/cm/urlaub-kani-malediven_p-5-l-DE-v-KANC-ac-vh.html","countryIso2":"MV","countryName":"Maldives","hotelRating":"4","latitude":"4.34307","longitude":"73.6074","state_id":null,"state_name":null,"country_id":null},{"active":false,"Giataid":"1760","cityId":null,"cityName":"Kanifinolhu","hotelId":38907,"hotelName":"Club Med Kani","address":"P.O. Box 2051,Kanifinolhu,North Male Atoll,Maldives","phones":"+9606643152","fax":"+9606644859","email":"servicecenter01@clubmed.com","url":"http://www.clubmed.de/cm/urlaub-kani-malediven_p-5-l-DE-v-KANC-ac-vh.html","countryIso2":"MV","countryName":"Maldives","hotelRating":"4","latitude":"4.34307","longitude":"73.6074","state_id":null,"state_name":null,"country_id":null},{"active":false,"Giataid":"39068","cityId":null,"cityName":"Farukolhufushi","hotelId":39068,"hotelName":"Club Faru","address":"Faamudheyri Magu,Male,Maldives","phones":"+9606640553","fax":"+9606642415","email":"clubfaru@dhivehinet.net.mv","url":"http://www.clubfaru.com/","countryIso2":"MV","countryName":"Maldives","hotelRating":"3","latitude":"4.23059","longitude":"73.5429","state_id":null,"state_name":null,"country_id":null},{"active":false,"Giataid":"42344","cityId":null,"cityName":"Villivaru","hotelId":42344,"hotelName":"Ranveli Village ","address":"Villingilivaru Island,South Ari Atoll,Maldives","phones":"+9606680826","fax":"+9606680823","email":"info@ranvelivillage.com","url":"http://www.ranvelivillage.com","countryIso2":"MV","countryName":"Maldives","hotelRating":"4","latitude":"3.61881","longitude":"72.9551","state_id":null,"state_name":null,"country_id":null},{"active":false,"Giataid":"47932","cityId":null,"cityName":"Vaadhoo","hotelId":47932,"hotelName":"Adaaran Prestige Vadoo","address":"Vaadhoo Island,Kaafu Atoll,Maldives","phones":"+9606643976","fax":"+9606640379","email":"ebiz.mv@adaaran.com.mv","url":"http://www.adaaran.com/prestigevadoo/","countryIso2":"MV","countryName":"Maldives","hotelRating":"5","latitude":"4.12348","longitude":"73.4574","state_id":null,"state_name":null,"country_id":null},{"active":false,"Giataid":"51314","cityId":null,"cityName":"Kandholhudhoo","hotelId":51314,"hotelName":"Kandolhu Maldives","address":"Kandolhudhoo,Maldives","phones":"+9606680790","fax":"+9606680788","email":"info@kandolhu.com","url":"http://www.kandolhu.com/","countryIso2":"MV","countryName":"Maldives","hotelRating":"5","latitude":"4.00325","longitude":"72.8807","state_id":null,"state_name":null,"country_id":null},{"active":false,"Giataid":"103079","cityId":null,"cityName":"Veligandu","hotelId":103079,"hotelName":"Naladhu Private Island Maldives","address":"P.O. Box 2098,Veligandu Huraa,South Male Atoll,Maldives","phones":"+9606644105","fax":"+9606644188","email":"stay@naladhu.com","url":"http://www.naladhu.com","countryIso2":"MV","countryName":"Maldives","hotelRating":"5","latitude":"3.97148","longitude":"73.5066","state_id":null,"state_name":null,"country_id":null},{"active":false,"Giataid":"103081","cityId":null,"cityName":"Villingili Island","hotelId":103081,"hotelName":"Shangri-La's Villingili Resort & Spa","address":"Villingili Island,South of the Equator,Addu Atoll,Maldives","phones":"+9606897888","fax":"+9606897999","email":"","url":"http://www.shangri-la.com/male/villingiliresort","countryIso2":"MV","countryName":"Maldives","hotelRating":"5","latitude":"-0.674935","longitude":"73.1944","state_id":null,"state_name":null,"country_id":null},{"active":false,"Giataid":"103084","cityId":null,"cityName":"Gemanafushi","hotelId":103084,"hotelName":"Park Hyatt Maldives Hadahaa","address":"North Huvadhoo,Gaafu Alifu Atoll,Maldives","phones":"+9606821234","fax":"+9606821235","email":"maldives.parkhadahaa@hyatt.com","url":"http://maldives.hadahaa.park.hyatt.com/hyatt/hotels/index.jsp","countryIso2":"MV","countryName":"Maldives","hotelRating":"5","latitude":"0.505686","longitude":"73.4542","state_id":null,"state_name":null,"country_id":null},{"active":false,"Giataid":"134999","cityId":null,"cityName":"Funamadua","hotelId":134999,"hotelName":"Robinson Club Maldives","address":"Funamadua,Gaafu-Alif-Atoll,Maldives","phones":"","fax":"","email":"malediven@robinson.de","url":"http://www.robinson.com/unsere-clubs/malediven/maldives/","countryIso2":"MV","countryName":"Maldives","hotelRating":"4","latitude":"0.73881","longitude":"73.3405","state_id":null,"state_name":null,"country_id":null},{"active":false,"Giataid":"136104","cityId":null,"cityName":"Olhuveli","hotelId":136104,"hotelName":"Six Senses Laamu","address":"Olhuveli Island,Laamu Atoll,Maldives","phones":"+9606800800","fax":"+9606800801","email":"reservations-laamu@sixsenses.com","url":"http://www.sixsenses.com/SixSensesLaamu/index.php","countryIso2":"MV","countryName":"Maldives","hotelRating":"5","latitude":"1.81733","longitude":"73.405","state_id":null,"state_name":null,"country_id":null},{"active":false,"Giataid":"16617","cityId":null,"cityName":"Machchafushi","hotelId":136266,"hotelName":"Centara Grand Island Resort & Spa Maldives All Inclusive","address":"Centara Grand Island,South Ari Atoll,Machchafushi 20217,Maldives","phones":"+9606688000","fax":"+9606688888","email":"cirm@chr.co.th","url":"http://www.centarahotelsresorts.com/cirm/cirm_default.asp#.ULcfc9Pm6ac","countryIso2":"MV","countryName":"Maldives","hotelRating":"4","latitude":"3.5937","longitude":"72.8833","state_id":null,"state_name":null,"country_id":null},{"active":false,"Giataid":"139610","cityId":null,"cityName":"Maalefushi","hotelId":139610,"hotelName":"The Regent Maldives","address":"Maalefushi Island,Thaa Atoll,Maldives,Maldives","phones":"+9606780088","fax":"+9606780077","email":"sales.maldives@regenthotels.com","url":"http://www.regenthotels.com/maldives","countryIso2":"MV","countryName":"Maldives","hotelRating":"5","latitude":"2.50241","longitude":"73.3091","state_id":null,"state_name":null,"country_id":null},{"active":false,"Giataid":"182706","cityId":null,"cityName":"Gasfinholu","hotelId":182706,"hotelName":"Club Med Finolhu Villas","address":"P.O. BOX N 2051,Gasfinolhu,North Mal? Atoll,Maldives","phones":"+9607784054","fax":"+9606640219","email":"reservations@gasfinolhuisland.com","url":"http://www.gasfinolhuisland.com/","countryIso2":"MV","countryName":"Maldives","hotelRating":"5","latitude":"4.41667","longitude":"73.5","state_id":null,"state_name":null,"country_id":null},{"active":false,"Giataid":"182707","cityId":null,"cityName":"Mal? City","hotelId":182707,"hotelName":"Jen Male","address":"Ameer Ahmed Magu,Male 20096,North Male Atoll,Maldives","phones":"+9603300888","fax":"+9603300790","email":"hjmd@hoteljen.com","url":"https://www.hoteljen.com/male/maldives/about/","countryIso2":"MV","countryName":"Maldives","hotelRating":"4","latitude":"4.17802","longitude":"73.5136","state_id":null,"state_name":null,"country_id":null},{"active":false,"Giataid":"185690","cityId":null,"cityName":"Kuredu","hotelId":185690,"hotelName":"Tauchbasis - Kuredu Prodivers","address":"Kuredu Resort & Spa,Lhaviyani Atoll,Maldives","phones":"+9606620343","fax":"+9606620344","email":"kuredo@prodivers.com","url":"http://www.prodivers.com/de/kuredu-malediven/tauchbasis/","countryIso2":"MV","countryName":"Maldives","hotelRating":"5","latitude":"5.54934","longitude":"73.4652","state_id":null,"state_name":null,"country_id":null},{"active":false,"Giataid":"202030","cityId":null,"cityName":"Kihavah-huravalhi","hotelId":202030,"hotelName":"Anantara Kihavah Villas Maldives","address":"P.O. Box 2014,Kihavah Huravalhi Island,Baa Atoll,Maldives","phones":"+9606601020","fax":"+9606601040","email":"kihavahmaldives@anantara.com","url":"http://kihavah-maldives.anantara.com","countryIso2":"MV","countryName":"Maldives","hotelRating":"5","latitude":"5.29613","longitude":"73.0573","state_id":null,"state_name":null,"country_id":null},{"active":false,"Giataid":"203597","cityId":null,"cityName":"Kanifinolhu","hotelId":203597,"hotelName":"Tauchbasis - Euro-Divers Club Med Kani","address":"Kanifinolhu Island Resort,North Male Atoll,Maldives","phones":"+9607772495","fax":"","email":"","url":"http://www.euro-divers.com/de/tauchen-auf-den-malediven/club-med-kani-maldives/","countryIso2":"MV","countryName":"Maldives","hotelRating":"1","latitude":"4.34243","longitude":"73.6074","state_id":null,"state_name":null,"country_id":null},{"active":false,"Giataid":"203599","cityId":null,"cityName":"Rangali","hotelId":203599,"hotelName":"Tauchbasis -  Ocean Dive Centre Conrad Maldives Rangali","address":"","phones":"","fax":"","email":"","url":"","countryIso2":"MV","countryName":"Maldives","hotelRating":"1","latitude":"3.55772","longitude":"72.8092","state_id":null,"state_name":null,"country_id":null},{"active":false,"Giataid":"203600","cityId":null,"cityName":"Mahaanaelhihuraa","hotelId":203600,"hotelName":"Tauchbasis - Extra Divers Rihiveli","address":"Rihiveli Maldives Resort,S?d-Male-Atoll,Maldives","phones":"","fax":"","email":"","url":"https://www.extradivers-worldwide.com/de/tauchbasen/land/malediven/tauchbasis-extra-divers-rihiveli_944.html","countryIso2":"MV","countryName":"Maldives","hotelRating":"1","latitude":"3.81311","longitude":"73.4115","state_id":null,"state_name":null,"country_id":null},{"active":false,"Giataid":"227843","cityId":null,"cityName":"Moofushi","hotelId":227843,"hotelName":"Constance Moofushi Maldives","address":"South Ari Atoll 00200,Maldives","phones":"+9606680517","fax":"+9606880509","email":"resa@constancehotels.com","url":"http://www.moofushiresort.com","countryIso2":"MV","countryName":"Maldives","hotelRating":"5","latitude":"3.88533","longitude":"72.7286","state_id":null,"state_name":null,"country_id":null},{"active":false,"Giataid":"228764","cityId":null,"cityName":"Maafushivaru","hotelId":228764,"hotelName":"Maafushivaru Island Resort","address":"P.O. Box 2015,Maafushivaru,South Ari Atoll,Maldives","phones":"+9606680596","fax":"+9606680524","email":"club@maafushivaru.com.mv","url":"http://www.sevenholidays.com/Resort/Maafushivaru/Details.aspx","countryIso2":"MV","countryName":"Maldives","hotelRating":"4","latitude":"3.60796","longitude":"72.9002","state_id":null,"state_name":null,"country_id":null},{"active":false,"Giataid":"232496","cityId":null,"cityName":"Meradhoo Island","hotelId":232496,"hotelName":"Dhevanafushi Maldives Luxury Resort, Managed by AccorHotels","address":"Meradhoo Island,Gaafu Alifu Atoll,Maldives","phones":"+9606828800","fax":"","email":"jdmreservations@jumeirah.com","url":"http://www.jumeirah.com/en/hotels-resorts/maldives/jumeirah-dhevanafushi/","countryIso2":"MV","countryName":"Maldives","hotelRating":"5","latitude":"0.585566","longitude":"73.0933","state_id":null,"state_name":null,"country_id":null},{"active":false,"Giataid":"236981","cityId":null,"cityName":"Bolifushi","hotelId":236981,"hotelName":"Jumeirah Vittaveli","address":"Bolifushi Island,South Male Atoll,Maldives","phones":"+96046642020","fax":"","email":"jvmreservations@jumeirah.com","url":"http://www.jumeirah.com/Hotels-and-Resorts/Reiseziele/Maldives/Jumeirah-Vittaveli/","countryIso2":"MV","countryName":"Maldives","hotelRating":"5","latitude":"4.09591","longitude":"73.4016","state_id":null,"state_name":null,"country_id":null},{"active":false,"Giataid":"237921","cityId":67931,"cityName":"Kudahuvadhoo","hotelId":237921,"hotelName":"Niyama Private Islands Maldives","address":"PO Box 2002,Huluwalu,Dhaalu Atoll,Maldives","phones":"+9606762828","fax":"+9606762828","email":"reservations@niyama.com","url":"http://www.niyama.com","countryIso2":"MV","countryName":"Maldives","hotelRating":"5","latitude":"2.68072","longitude":"72.9323","state_id":2590,"state_name":"Dhaalu Atoll","country_id":133},{"active":false,"Giataid":"237928","cityId":null,"cityName":"Shaviyani Atoll","hotelId":237928,"hotelName":"Viceroy Maldives","address":"Vagaru Island,P.O. Box 2031,Shaviyani Atoll,Maldives","phones":"+9606545000","fax":"+9606545000","email":"reservations.maldives@viceroyhotelsandresorts.com","url":"http://www.viceroyhotelsandresorts.com/maldives/","countryIso2":"MV","countryName":"Maldives","hotelRating":"5","latitude":"6.09041","longitude":"73.2041","state_id":null,"state_name":null,"country_id":null},{"active":false,"Giataid":"238408","cityId":null,"cityName":"Maguhdhuvaa","hotelId":238408,"hotelName":"Ayada Maldives","address":"Maguhdhuvaa Island,Gaafu Dhaalu Atoll,Maldives","phones":"+9606844444","fax":"+9607303010","email":"reservations@ayadamaldives.com","url":"http://www.ayadamaldives.com","countryIso2":"MV","countryName":"Maldives","hotelRating":"5","latitude":"0.277227","longitude":"73.357","state_id":null,"state_name":null,"country_id":null},{"active":false,"Giataid":"239842","cityId":null,"cityName":"Lily","hotelId":239842,"hotelName":"Tauchbasis - Lily Beach","address":"Huvahendhoo,South Ari Atoll,Maldives","phones":"+9606680013","fax":"+9606680646","email":"sales@lilybeachmaldives.com","url":"http://www.lilybeachmaldives.com/diving.html","countryIso2":"MV","countryName":"Maldives","hotelRating":"1","latitude":"3.65365","longitude":"72.9538","state_id":null,"state_name":null,"country_id":null},{"active":false,"Giataid":"240218","cityId":null,"cityName":"Mal? City","hotelId":240218,"hotelName":"Mookai Suites","address":"S. Sakaimoo,Haveeree Hingun,Mal? 20222,Maldives","phones":"+9603309911","fax":"+9603309922","email":"info@mookaisuites.com.mv","url":"http://www.mookaisuites.com.mv/","countryIso2":"MV","countryName":"Maldives","hotelRating":"3","latitude":"4.17879","longitude":"73.5069","state_id":null,"state_name":null,"country_id":null},{"active":false,"Giataid":"246499","cityId":null,"cityName":"Muddhoo","hotelId":246499,"hotelName":"Dusit Thani Maldives","address":"P.O. Box 2188,Mudhdhoo Island,Baa Atoll,Maldives","phones":"+9606608888","fax":"+9606609999","email":"sales.maldives@dusit.com","url":"http://www.dusit.com/dusit-thani/maldives.html","countryIso2":"MV","countryName":"Maldives","hotelRating":"5","latitude":"5.20844","longitude":"73.0827","state_id":null,"state_name":null,"country_id":null},{"active":false,"Giataid":"247362","cityId":null,"cityName":"Kandholhudhoo","hotelId":247362,"hotelName":"Tauchbasis - Star Divers Kandholhu","address":"Kandholhu,North Ari Atoll,Maldives","phones":"+9606680789","fax":"","email":"info@seastardivers.com","url":"http://www.seastardivers.com/Kandholhu","countryIso2":"MV","countryName":"Maldives","hotelRating":"1","latitude":"4.08508","longitude":"72.8514","state_id":null,"state_name":null,"country_id":null},{"active":false,"Giataid":"247791","cityId":null,"cityName":"Mal? City","hotelId":247791,"hotelName":"Relax Inn","address":"Ameeru Ahmed Magu,Mal?,Maldives","phones":"","fax":"","email":"","url":"","countryIso2":"MV","countryName":"Maldives","hotelRating":"3","latitude":"4.17753","longitude":"73.5157","state_id":null,"state_name":null,"country_id":null},{"active":false,"Giataid":"248854","cityId":null,"cityName":"Mal? City","hotelId":248854,"hotelName":"Nasandhura Palace","address":"Boduthakurufaanu magu,Male,Maldives","phones":"+9603338844","fax":"+9603320822","email":"info@nasandhurapalace.com","url":"http://nasandhurapalace.com","countryIso2":"MV","countryName":"Maldives","hotelRating":"3","latitude":"4.1775","longitude":"73.5167","state_id":null,"state_name":null,"country_id":null},{"active":false,"Giataid":"249233","cityId":42027,"cityName":"Gan","hotelId":249233,"hotelName":"Reveries Diving Village","address":"Monaan,Laamu Gan,Namoona Magu,Thundi 15061,Maldives","phones":"+9606808866","fax":"","email":"","url":"","countryIso2":"MV","countryName":"Maldives","hotelRating":"3","latitude":"1.93779","longitude":"73.5403","state_id":4795,"state_name":"Nouvelle-Aquitaine","country_id":75},{"active":false,"Giataid":"292137","cityId":null,"cityName":"Mal? City","hotelId":292137,"hotelName":"House Clover","address":"Ma. Anaarukalee Shaheed KTM Hingun  Male,Maldives","phones":"","fax":"","email":"","url":"","countryIso2":"MV","countryName":"Maldives","hotelRating":"3","latitude":"4.17583","longitude":"73.5091","state_id":null,"state_name":null,"country_id":null},{"active":false,"Giataid":"366686","cityId":null,"cityName":"Lankanfinolhu","hotelId":366686,"hotelName":"Paradise Island Resort & The Haven at Paradise Island","address":"Lankanfinolhu,Nord Male Atoll,P.O. Box 2073,Maldives","phones":"+9606640011","fax":"+9606640022","email":"info@paradise-island.com.mv","url":"http://www.villahotels.com/Resorts/Paradise-Island-Resort-Spa","countryIso2":"MV","countryName":"Maldives","hotelRating":"4","latitude":"4.28718","longitude":"73.5535","state_id":null,"state_name":null,"country_id":null},{"active":false,"Giataid":"366687","cityId":null,"cityName":"Lankanfinolhu","hotelId":366687,"hotelName":"The Haven at Paradise Island","address":"Lankanfinolhu,Nord Male Atoll,PO Box 2073,Maldives","phones":"+9606640011","fax":"+9606640022","email":"info@paradise-island.com.mv","url":"http://www.villahotels.com/Resorts/Paradise-Island-Resort-Spa/The-Haven","countryIso2":"MV","countryName":"Maldives","hotelRating":"5","latitude":"4.28662","longitude":"73.5574","state_id":null,"state_name":null,"country_id":null},{"active":false,"Giataid":"367089","cityId":null,"cityName":"Ukulhas Island","hotelId":367089,"hotelName":"Ukulhas Inn","address":"Orchid Road,Ukulhas 09030,North Ari Atoll,Maldives","phones":"+9607773613","fax":"","email":"","url":"","countryIso2":"MV","countryName":"Maldives","hotelRating":"3","latitude":"4.21379","longitude":"72.8651","state_id":null,"state_name":null,"country_id":null},{"active":false,"Giataid":"367858","cityId":null,"cityName":"Hulhumal?","hotelId":367858,"hotelName":"Fern Boquete Inn","address":"Hirundhumagu,Hulhumale' 10402,Male,Maldives","phones":"+9603355591","fax":"","email":"","url":"","countryIso2":"MV","countryName":"Maldives","hotelRating":"3","latitude":"4.21239","longitude":"73.5444","state_id":null,"state_name":null,"country_id":null},{"active":false,"Giataid":"367861","cityId":null,"cityName":"Hulhumal?","hotelId":367861,"hotelName":"Le Vieux Nice Inn Hotel","address":"Nirolhu Magu 06,Lot 10056,Hulhumale 2050 23000,Maldives","phones":"+9603357788","fax":"","email":"","url":"","countryIso2":"MV","countryName":"Maldives","hotelRating":"3","latitude":"4.21895","longitude":"73.5454","state_id":null,"state_name":null,"country_id":null},{"active":false,"Giataid":"372072","cityId":null,"cityName":"Gaafu Dhaalu Atoll","hotelId":372072,"hotelName":"Raffles Resort Konottaa","address":"","phones":"","fax":"","email":"","url":"","countryIso2":"MV","countryName":"Maldives","hotelRating":"1","latitude":"0.4779","longitude":"73.2729","state_id":null,"state_name":null,"country_id":null},{"active":false,"Giataid":"372723","cityId":null,"cityName":"Lily","hotelId":372723,"hotelName":"Tauchbasis - Ocean-Pro Dive Team, Lily Beach","address":"Huvahendhoo,S?d Ari Atoll,Maldives","phones":"+9606680500","fax":"","email":"oceanpro@mirihi.com","url":"http://www.oceanpro-diveteam.com/german/lilybeach.html","countryIso2":"MV","countryName":"Maldives","hotelRating":"1","latitude":"3.65283","longitude":"72.9516","state_id":null,"state_name":null,"country_id":null},{"active":false,"Giataid":"372724","cityId":null,"cityName":"Vakarufalhi","hotelId":372724,"hotelName":"Tauchbasis - Vakarufalhi Prodivers","address":"Vakarufalhi,South Ari Atoll,Maldives","phones":"+9606680560","fax":"+9606680007","email":"vakarufalhi@prodivers.com","url":"http://www.prodivers.com/de/komandoo-malediven/resort/unterkunft/","countryIso2":"MV","countryName":"Maldives","hotelRating":"1","latitude":"3.5788","longitude":"72.9021","state_id":null,"state_name":null,"country_id":null},{"active":false,"Giataid":"390325","cityId":null,"cityName":"Hulhumal?","hotelId":390325,"hotelName":"Sunny Break","address":"Hulhumale Lot 10818 & 10819,HulhuMale,South Male,Maldives","phones":"","fax":"","email":"","url":"","countryIso2":"MV","countryName":"Maldives","hotelRating":"3","latitude":"4.18821","longitude":"73.5351","state_id":null,"state_name":null,"country_id":null},{"active":false,"Giataid":"391991","cityId":67933,"cityName":"Maafushi","hotelId":391991,"hotelName":"Kaani Beach","address":"Aabaadhee Hingun Road,Maafush 08090,Maldives","phones":"+9609933626","fax":"+9609933626","email":"info@kaanibeach.com","url":"http://www.kaanibeach.com","countryIso2":"MV","countryName":"Maldives","hotelRating":"4","latitude":"3.94411","longitude":"73.4906","state_id":2596,"state_name":"Kaafu Atoll","country_id":133},{"active":false,"Giataid":"405862","cityId":null,"cityName":"Velaa (Private Island)","hotelId":405862,"hotelName":"Velaa Private Island","address":"P.O. Box 2071,Noonu Atoll,Maldives","phones":"+9606565000","fax":"+9606566000","email":"reservations@velaaprivateisland.com","url":"http://www.velaaprivateisland.com","countryIso2":"MV","countryName":"Maldives","hotelRating":"5","latitude":"5.83116","longitude":"73.2094","state_id":null,"state_name":null,"country_id":null},{"active":false,"Giataid":"409291","cityId":null,"cityName":"Dhiddhoofinolhu","hotelId":409291,"hotelName":"Tauchbasis - Euro-Divers Lux* Maldives","address":"Dhidhoo finolhu,South Ari Atoll,Maldives","phones":"+9607775284","fax":"","email":"luxmaldives@euro-divers.com","url":"http://www.euro-divers.com/de/tauchen-auf-den-malediven/lux-maldives/","countryIso2":"MV","countryName":"Maldives","hotelRating":"1","latitude":"3.49874","longitude":"72.896","state_id":null,"state_name":null,"country_id":null},{"active":false,"Giataid":"423988","cityId":null,"cityName":"Bandos","hotelId":423988,"hotelName":"Malahini Kuda Bandos Resort","address":"Kuda Bandos,North Male Atoll,Maldives","phones":"+9606644556","fax":"","email":"","url":"","countryIso2":"MV","countryName":"Maldives","hotelRating":"4","latitude":"4.41667","longitude":"73.5","state_id":null,"state_name":null,"country_id":null},{"active":false,"Giataid":"425069","cityId":null,"cityName":"Vaikaradhoo","hotelId":425069,"hotelName":"Hondaafushi Island Resort","address":"Haa Dhaalu Atoll,Vaikaradhoo 02040,Maldives","phones":"","fax":"","email":"","url":"","countryIso2":"MV","countryName":"Maldives","hotelRating":"4","latitude":"6.77799","longitude":"73.1209","state_id":null,"state_name":null,"country_id":null},{"active":false,"Giataid":"426997","cityId":null,"cityName":"Hulhumal?","hotelId":426997,"hotelName":"Newtown Inn","address":"Plot 10488,Nirolhumagu,Hulhumale,Maldives","phones":"","fax":"","email":"","url":"","countryIso2":"MV","countryName":"Maldives","hotelRating":"3","latitude":"4.21312","longitude":"73.5437","state_id":null,"state_name":null,"country_id":null},{"active":false,"Giataid":"430190","cityId":null,"cityName":"Theluveligaa","hotelId":430190,"hotelName":"Drift Thelu Veliga Retreat","address":"Thelu Veliga Island,South Ari Atoll,Maldives","phones":"+9606641994","fax":"+9606640052","email":"reservations@driftretreat.com","url":"https://www.driftretreat.com/","countryIso2":"MV","countryName":"Maldives","hotelRating":"4","latitude":"3.66992","longitude":"72.9027","state_id":null,"state_name":null,"country_id":null},{"active":false,"Giataid":"430820","cityId":null,"cityName":"Dhigurah Island","hotelId":430820,"hotelName":"Tme Retreats Dhigurah","address":"Dhigurah Island,Maldives","phones":"+9606680890","fax":"","email":"reservations@tme.mv","url":"http://www.tme.mv","countryIso2":"MV","countryName":"Maldives","hotelRating":"3","latitude":"3.52407","longitude":"72.9218","state_id":null,"state_name":null,"country_id":null},{"active":false,"Giataid":"431371","cityId":null,"cityName":"Hulhumal?","hotelId":431371,"hotelName":"Newtown Inn Royal","address":"PLOT No. 10488,Nirolhumagu,Hulhumal? Island,Maldives","phones":"+9603358696","fax":"+9603358697","email":"info@newtowninn.com","url":"http://newtowninn.com/guest-houses/newtown-inn-royal/","countryIso2":"MV","countryName":"Maldives","hotelRating":"1","latitude":"4.21306","longitude":"73.5437","state_id":null,"state_name":null,"country_id":null},{"active":false,"Giataid":"434405","cityId":null,"cityName":"Hulhumal?","hotelId":434405,"hotelName":"Rivethi Beach Boutique","address":"Beach Road,Ibrahim Nasir International Airport,Hulhumal? L11070,Maldives Republic,Maldives","phones":"+9603352610","fax":"+9603352612","email":"rivethibeach@gmail.com","url":"http://www.rivethibeach.com","countryIso2":"MV","countryName":"Maldives","hotelRating":"4","latitude":"4.20752","longitude":"73.5425","state_id":null,"state_name":null,"country_id":null},{"active":false,"Giataid":"434839","cityId":null,"cityName":"Lhohifushi","hotelId":434839,"hotelName":"Adaaran Select Hudhuranfushi Beach Villas","address":"Lhohifushi,Kaafu Atoll,Maldives","phones":"+9606641930","fax":"","email":"","url":"","countryIso2":"MV","countryName":"Maldives","hotelRating":"1","latitude":"4.34993","longitude":"73.6175","state_id":null,"state_name":null,"country_id":null},{"active":false,"Giataid":"434840","cityId":null,"cityName":"Lhohifushi","hotelId":434840,"hotelName":"Adaaran Select Hudhuranfushi Garden Room","address":"Lhohifushi,Kaafu Atoll,Maldives","phones":"+9606641930","fax":"","email":"","url":"","countryIso2":"MV","countryName":"Maldives","hotelRating":"1","latitude":"4.34993","longitude":"73.6175","state_id":null,"state_name":null,"country_id":null},{"active":false,"Giataid":"451478","cityId":null,"cityName":"Mal? City","hotelId":451478,"hotelName":"Sala Boutique Hotel","address":"H. Buruneege,Hithahfinivaa Magu,20044 Male,Maldives","phones":"","fax":"","email":"","url":"","countryIso2":"MV","countryName":"Maldives","hotelRating":"4","latitude":"4.17666","longitude":"73.5135","state_id":null,"state_name":null,"country_id":null},{"active":false,"Giataid":"456373","cityId":null,"cityName":"Hulhumal?","hotelId":456373,"hotelName":"Beach Palace","address":"nirolhumagu,23000 hulhumale,Maldives","phones":"","fax":"","email":"","url":"","countryIso2":"MV","countryName":"Maldives","hotelRating":"3","latitude":"4.21203","longitude":"73.5433","state_id":null,"state_name":null,"country_id":null},{"active":false,"Giataid":"457071","cityId":null,"cityName":"Hulhumal?","hotelId":457071,"hotelName":"Askani Villa","address":"Plot 10078 Hulumale,Male,Maldives","phones":"","fax":"","email":"","url":"","countryIso2":"MV","countryName":"Maldives","hotelRating":"2","latitude":"4.21833","longitude":"73.5457","state_id":null,"state_name":null,"country_id":null},{"active":false,"Giataid":"468695","cityId":null,"cityName":"Hulhumal?","hotelId":468695,"hotelName":"Iberry Inn","address":"Ahigas Magu,Ibery villa,Hulhumale 20009,Maladiven,Maldives","phones":"+9603356866","fax":"","email":"iberryinn@gmail.com","url":"http://www.iberrymaldives.com","countryIso2":"MV","countryName":"Maldives","hotelRating":"3","latitude":"4.21483","longitude":"73.5446","state_id":null,"state_name":null,"country_id":null},{"active":false,"Giataid":"469199","cityId":null,"cityName":"Hulhumal?","hotelId":469199,"hotelName":"Express Inn Hulhumale","address":"Lot 10787,Unigas Magu,Hulhumale,Male City,Maldives","phones":"+9603354044","fax":"","email":"expressinnmv@gmail.com","url":"http://express-inn-mv.book.direct","countryIso2":"MV","countryName":"Maldives","hotelRating":"4","latitude":"4.21181","longitude":"73.5438","state_id":null,"state_name":null,"country_id":null},{"active":false,"Giataid":"469342","cityId":null,"cityName":"Hulhumal?","hotelId":469342,"hotelName":"Grace Beach Inn","address":"Lot 10103 Halaveli Magu,Dhigga Magu,Hulhumale 23000,Maldives","phones":"","fax":"","email":"","url":"","countryIso2":"MV","countryName":"Maldives","hotelRating":"3","latitude":"4.21743","longitude":"73.5455","state_id":null,"state_name":null,"country_id":null},{"active":false,"Giataid":"469580","cityId":null,"cityName":"Gulhi","hotelId":469580,"hotelName":"Gulhi Beach Villa","address":"Neal villa,Gulhi Island 20096,South Male Atoll,Maldives","phones":"","fax":"","email":"info@gulhibeach.com","url":"http://www.gulhibeach.com/en","countryIso2":"MV","countryName":"Maldives","hotelRating":"2","latitude":"3.98965","longitude":"73.5083","state_id":null,"state_name":null,"country_id":null},{"active":false,"Giataid":"469834","cityId":67933,"cityName":"Maafushi","hotelId":469834,"hotelName":"Whiteshell Island Hotel & Spa","address":"Miskiy Magu,Maafushi 08090,Kaafu Atoll,Maldives","phones":"+9609898772","fax":"","email":"","url":"","countryIso2":"MV","countryName":"Maldives","hotelRating":"3","latitude":"3.94399","longitude":"73.4908","state_id":2596,"state_name":"Kaafu Atoll","country_id":133},{"active":false,"Giataid":"470817","cityId":null,"cityName":"Hulhumal?","hotelId":470817,"hotelName":"Airport Beach Hotel","address":"Munich Residence, Lot 10969,Kaani Magu, Hulhumale,Maldives","phones":"+9607950492","fax":"+9603353949","email":"info@airportbeach.mv","url":"http://airportbeachhotel.com/","countryIso2":"MV","countryName":"Maldives","hotelRating":"4","latitude":"4.21027","longitude":"73.5436","state_id":null,"state_name":null,"country_id":null},{"active":false,"Giataid":"471391","cityId":null,"cityName":"Hulhumal?","hotelId":471391,"hotelName":"Maakanaa Lodge","address":"10026 Nirolhu Magu,Hulhumale 23000,Maldives","phones":"","fax":"","email":"","url":"","countryIso2":"MV","countryName":"Maldives","hotelRating":"3","latitude":"4.22012","longitude":"73.5457","state_id":null,"state_name":null,"country_id":null},{"active":false,"Giataid":"471514","cityId":null,"cityName":"Hulhumal?","hotelId":471514,"hotelName":"G 10 Beach Inn","address":"Lot 10164 Halaveli Magu,Kaafu Atoll,Hulhumale 23000,Maldives","phones":"","fax":"","email":"","url":"","countryIso2":"MV","countryName":"Maldives","hotelRating":"3","latitude":"4.21652","longitude":"73.545","state_id":null,"state_name":null,"country_id":null},{"active":false,"Giataid":"473476","cityId":null,"cityName":"Gulhi","hotelId":473476,"hotelName":"Tropic Tree Hotel Maldives","address":"Chaandhanee House,Gulhi Mal? Atoll,Maldives,Maldives","phones":"+9607776483","fax":"+9603332511","email":"reservations@tropictreemaldives.com","url":"http://tropictreemaldives.com/","countryIso2":"MV","countryName":"Maldives","hotelRating":"3","latitude":"3.98971","longitude":"73.5085","state_id":null,"state_name":null,"country_id":null},{"active":false,"Giataid":"473674","cityId":67938,"cityName":"Muli","hotelId":473674,"hotelName":"Roashanee Guest House","address":"Alikilegefaanu Magu, Mulaku , Maldives, 11040 Muli,Maldives","phones":"","fax":"","email":"","url":"","countryIso2":"MV","countryName":"Maldives","hotelRating":"1","latitude":"5.10388","longitude":"73.069","state_id":2608,"state_name":"Meemu Atoll","country_id":133},{"active":false,"Giataid":"474051","cityId":null,"cityName":"Hulhumal?","hotelId":474051,"hotelName":"Hotel 78","address":"Plot 11049 Nirolhu Magu,Hulhumale 23000,Maldives","phones":"+9607767878","fax":"+9603350078","email":"info@hotel78maldives.com","url":"http://www.hotel78maldives.com","countryIso2":"MV","countryName":"Maldives","hotelRating":"3","latitude":"4.20832","longitude":"73.5429","state_id":null,"state_name":null,"country_id":null},{"active":false,"Giataid":"475196","cityId":null,"cityName":"Hulhumal?","hotelId":475196,"hotelName":"Season Holidays","address":"Lot 10349 Hirundhu Magu,23000 Hulhumale,Maldives","phones":"","fax":"","email":"","url":"","countryIso2":"MV","countryName":"Maldives","hotelRating":"4","latitude":"4.21495","longitude":"73.5449","state_id":null,"state_name":null,"country_id":null},{"active":false,"Giataid":"476000","cityId":null,"cityName":"Nilandhoo","hotelId":476000,"hotelName":"Apquo Veli Hotel","address":"Veneela Goalhi, Nilandhoo, Faafu Atoll, Central Province, Maldives,12050 Maldives Islands,Maldives","phones":"","fax":"","email":"","url":"","countryIso2":"MV","countryName":"Maldives","hotelRating":"3","latitude":"3.05751","longitude":"72.8886","state_id":null,"state_name":null,"country_id":null},{"active":false,"Giataid":"476261","cityId":null,"cityName":"Mal? City","hotelId":476261,"hotelName":"Somerset Inn","address":"M. Aazamaan Villa,Kulhidhoshu Magu,Male 20288,Maldives","phones":"+9603322133","fax":"","email":"sales@laze.com.mv","url":"http://www.laze.com.mv/","countryIso2":"MV","countryName":"Maldives","hotelRating":"3","latitude":"4.17707","longitude":"73.5054","state_id":null,"state_name":null,"country_id":null},{"active":false,"Giataid":"491319","cityId":null,"cityName":"Hulhumal?","hotelId":491319,"hotelName":"Vista Beach Retreat","address":"Lot 10669 Kaani Magu,Hulhumale 10669,Maldives","phones":"+9603350955","fax":"+9603350954","email":"reservations@vistabeachretreat.com","url":"http://www.vistabeachretreat.com","countryIso2":"MV","countryName":"Maldives","hotelRating":"3","latitude":"4.21129","longitude":"73.544","state_id":null,"state_name":null,"country_id":null},{"active":false,"Giataid":"491390","cityId":null,"cityName":"Hulhumal?","hotelId":491390,"hotelName":"Eve Caurica","address":"10710 Kaani Magu,20057 Hulhumale,Maldives","phones":"","fax":"","email":"","url":"","countryIso2":"MV","countryName":"Maldives","hotelRating":"3","latitude":"4.21125","longitude":"73.544","state_id":null,"state_name":null,"country_id":null},{"active":false,"Giataid":"493378","cityId":null,"cityName":"Milaidhoo","hotelId":493378,"hotelName":"Milaidhoo Island","address":"Milaidhoo Island Milaidhoo  ","phones":"+9606607788","fax":"","email":"","url":"http://www.milaidhoo.com","countryIso2":"MV","countryName":"Maldives","hotelRating":"5","latitude":"5.26694","longitude":"73.1284","state_id":null,"state_name":null,"country_id":null},{"active":false,"Giataid":"501189","cityId":null,"cityName":"Hulhumal?","hotelId":501189,"hotelName":"DeMal Orchid Hotel - Hulhumale","address":"10134 Halaveli Magu,23000 Hulhumal?,Maldives","phones":"","fax":"","email":"","url":"","countryIso2":"MV","countryName":"Maldives","hotelRating":"3","latitude":"4.2179","longitude":"73.5454","state_id":null,"state_name":null,"country_id":null},{"active":false,"Giataid":"502583","cityId":67933,"cityName":"Maafushi","hotelId":502583,"hotelName":"Maafushi","address":"","phones":"","fax":"","email":"","url":"","countryIso2":"MV","countryName":"Maldives","hotelRating":"3","latitude":"3.94088","longitude":"73.4903","state_id":2596,"state_name":"Kaafu Atoll","country_id":133},{"active":false,"Giataid":"509751","cityId":null,"cityName":"Hulhumal?","hotelId":509751,"hotelName":"Pine Lodge","address":"Kelaa Magu 11103,23000 Hulhumale,Maldives","phones":"","fax":"","email":"","url":"","countryIso2":"MV","countryName":"Maldives","hotelRating":"3","latitude":"4.20768","longitude":"73.5424","state_id":null,"state_name":null,"country_id":null},{"active":false,"Giataid":"516379","cityId":null,"cityName":"Hulhumal?","hotelId":516379,"hotelName":"Vilu Rest","address":"17 Nirolhu Magu,Hulhumal?,Maldives","phones":"+9603352838","fax":"+9603352838","email":"sales@vilurest.com","url":"http://www.vilurest.com","countryIso2":"MV","countryName":"Maldives","hotelRating":"3","latitude":"4.20977","longitude":"73.5431","state_id":null,"state_name":null,"country_id":null},{"active":false,"Giataid":"516393","cityId":null,"cityName":"Hulhumal?","hotelId":516393,"hotelName":"Beach Grand & Spa","address":"10101 Halavelimagu,Hulhumale 23000,Maldives","phones":"","fax":"","email":"","url":"https://www.bedandbreakfast.eu/privatzimmer/hulhumale/beach-grand-and-spa/761912/","countryIso2":"MV","countryName":"Maldives","hotelRating":"3","latitude":"4.21781","longitude":"73.5453","state_id":null,"state_name":null,"country_id":null},{"active":false,"Giataid":"517575","cityId":null,"cityName":"Hulhumal?","hotelId":517575,"hotelName":"Koamas Lodge","address":"Lot 10476,Hulhumale 23000,Mal?,Maldives","phones":"+9603350885","fax":"+9603350885","email":"info@koamaslodge.com","url":"http://koamaslodge.com/","countryIso2":"MV","countryName":"Maldives","hotelRating":"3","latitude":"4.21289","longitude":"73.5439","state_id":null,"state_name":null,"country_id":null},{"active":false,"Giataid":"517596","cityId":null,"cityName":"Hulhumal?","hotelId":517596,"hotelName":"Wonder Retreat","address":"Unigas Magu Lot 10435,Hulhumale 23000,Maldives","phones":"","fax":"","email":"","url":"http://yonderretreat.com/hulhumale","countryIso2":"MV","countryName":"Maldives","hotelRating":"3","latitude":"4.21438","longitude":"73.5444","state_id":null,"state_name":null,"country_id":null},{"active":false,"Giataid":"518977","cityId":67928,"cityName":"Guraidhoo","hotelId":518977,"hotelName":"Sunshine Lodge","address":"Lainoofaru Magu,Kaafu,Guraidhoo 08080,Maldives","phones":"","fax":"","email":"","url":"http://www.agoda.com/sunshine-lodge/hotel/maldives-islands-mv.html?checkin=2016-02-21&los=1&adults=2&rooms=1&cid=1731239","countryIso2":"MV","countryName":"Maldives","hotelRating":"3","latitude":"3.90212","longitude":"73.4685","state_id":2596,"state_name":"Kaafu Atoll","country_id":133},{"active":false,"Giataid":"530743","cityId":null,"cityName":"Hulhumal?","hotelId":530743,"hotelName":"Velaa Beach Hotel","address":"Hirudhu Magu,Velaa Beach,10355 Hulhumale,Maldives","phones":"","fax":"","email":"","url":"","countryIso2":"MV","countryName":"Maldives","hotelRating":"3","latitude":"4.21483","longitude":"73.5444","state_id":null,"state_name":null,"country_id":null},{"active":false,"Giataid":"530746","cityId":null,"cityName":"Hulhumal?","hotelId":530746,"hotelName":"Ripple Beach Inn","address":"Lot 10117 Dhigga Magu,Hulhumale,North Male Atoll,Maldives","phones":"+9603352012","fax":"","email":"sales@ripplebeachinn.com","url":"http://www.ripplebeachinn.com/","countryIso2":"MV","countryName":"Maldives","hotelRating":"3","latitude":"4.21646","longitude":"73.5452","state_id":null,"state_name":null,"country_id":null},{"active":false,"Giataid":"530756","cityId":null,"cityName":"Hulhumal?","hotelId":530756,"hotelName":"Beverly Park Inn","address":"Ranauraa Magu,Hulhumale,Nord Male Atoll,Maldives","phones":"","fax":"","email":"","url":"","countryIso2":"MV","countryName":"Maldives","hotelRating":"3","latitude":"4.22059","longitude":"73.5441","state_id":null,"state_name":null,"country_id":null},{"active":false,"Giataid":"530769","cityId":null,"cityName":"Hulhumal?","hotelId":530769,"hotelName":"Velima Inn Hulhumale","address":"10530 Ranauraa Magu,Hulhumale 23000,Maldives","phones":"","fax":"","email":"","url":"","countryIso2":"MV","countryName":"Maldives","hotelRating":"3","latitude":"4.22039","longitude":"73.5441","state_id":null,"state_name":null,"country_id":null},{"active":false,"Giataid":"530770","cityId":null,"cityName":"North Male Atoll","hotelId":530770,"hotelName":"Coco Prive","address":"Kuda Hithi Island,North Male Atoll,Maldives","phones":"+9606648887","fax":"","email":"yourplace@cocoprive.com","url":"http://www.cocoprive.com/","countryIso2":"MV","countryName":"Maldives","hotelRating":"1","latitude":"4.29776","longitude":"73.5421","state_id":null,"state_name":null,"country_id":null},{"active":false,"Giataid":"530774","cityId":null,"cityName":"Hulhumal?","hotelId":530774,"hotelName":"Clear Sky Inn","address":"Lot 11118 Nirolhu Magu,Hulhumale 23500,Maldives","phones":"+9607792883","fax":"","email":"reservations@clearskymaldives.com","url":"http://www.clearskyinn.com/","countryIso2":"MV","countryName":"Maldives","hotelRating":"4","latitude":"4.20808","longitude":"73.5421","state_id":null,"state_name":null,"country_id":null},{"active":false,"Giataid":"531233","cityId":null,"cityName":"Hulhumal?","hotelId":531233,"hotelName":"TLM Retreat","address":"Lot 10413 Gandhakoalhi Magu,Hulhumale,23000 Male City and Airport,Maldives","phones":"","fax":"","email":"","url":"","countryIso2":"MV","countryName":"Maldives","hotelRating":"1","latitude":"4.21529","longitude":"73.5446","state_id":null,"state_name":null,"country_id":null},{"active":false,"Giataid":"531238","cityId":null,"cityName":"Hulhumeedhoo","hotelId":531238,"hotelName":"Charming Holiday Lodge","address":"Majudhudin Magu,19010 Maldives Islands,Maldives","phones":"+9609658363","fax":"","email":"","url":"http://www.charmingholidaylodge.com","countryIso2":"MV","countryName":"Maldives","hotelRating":"3","latitude":"-0.583944","longitude":"73.2285","state_id":null,"state_name":null,"country_id":null},{"active":false,"Giataid":"531259","cityId":null,"cityName":"Dhigurah Island","hotelId":531259,"hotelName":"Dhigurah Inn","address":"Ocean Road,Noomaraage,Alif Dhaal Dhigurah,Dhigurah Island,South Ariatoll,Maldives","phones":"+9607787517","fax":"","email":"info@dhigurahinn.net","url":"http://www.dhigurahinn.net","countryIso2":"MV","countryName":"Maldives","hotelRating":"2","latitude":"3.53255","longitude":"72.9275","state_id":null,"state_name":null,"country_id":null},{"active":false,"Giataid":"531271","cityId":null,"cityName":"Vaikaradhoo","hotelId":531271,"hotelName":"Varuvaa Boutique","address":"Vaikaradhoo,Haa Dhaalu Atoll,Maldives","phones":"","fax":"","email":"","url":"","countryIso2":"MV","countryName":"Maldives","hotelRating":"1","latitude":"0","longitude":"0","state_id":null,"state_name":null,"country_id":null},{"active":false,"Giataid":"531282","cityId":null,"cityName":"Raa Meedhoo","hotelId":531282,"hotelName":"Five Senses Pearl Guest House","address":"","phones":"","fax":"","email":"","url":"","countryIso2":"MV","countryName":"Maldives","hotelRating":"1","latitude":"5.44367","longitude":"72.9309","state_id":null,"state_name":null,"country_id":null},{"active":false,"Giataid":"531308","cityId":null,"cityName":"Vashafaru","hotelId":531308,"hotelName":"Vashafaru Inn","address":"Beach Side Road,Vashafaru 01090,Maldives","phones":"+9609889656","fax":"","email":"","url":"http://vashafaru.com/","countryIso2":"MV","countryName":"Maldives","hotelRating":"2","latitude":"6.89583","longitude":"73.1583","state_id":null,"state_name":null,"country_id":null},{"active":false,"Giataid":"531805","cityId":67940,"cityName":"Thinadhoo","hotelId":531805,"hotelName":"Plumeria Boutique Hotel","address":"Vaavu Atoll,Thinadoo 10020,Maldives","phones":"","fax":"","email":"","url":"","countryIso2":"MV","countryName":"Maldives","hotelRating":"4","latitude":"3.48878","longitude":"73.5393","state_id":2603,"state_name":"Gaafu Dhaalu Atoll","country_id":133},{"active":false,"Giataid":"532787","cityId":null,"cityName":"Fulidhoo","hotelId":532787,"hotelName":"Thundi Guest House","address":"Stella,Fulidhoo,Maldives","phones":"+9607757232","fax":"","email":"","url":"http://www.thundihotels.com/","countryIso2":"MV","countryName":"Maldives","hotelRating":"3","latitude":"3.68021","longitude":"73.4155","state_id":null,"state_name":null,"country_id":null},{"active":false,"Giataid":"535287","cityId":null,"cityName":"Furaveri","hotelId":535287,"hotelName":"Furaveri Island Resort & Spa","address":"Raa Atoll 20012,Nord Male Atoll,Maldives","phones":"+9606582718","fax":"","email":"info@furaveri.com","url":"http://www.furaveri.com/","countryIso2":"MV","countryName":"Maldives","hotelRating":"5","latitude":"5.44019","longitude":"72.9087","state_id":null,"state_name":null,"country_id":null},{"active":false,"Giataid":"537197","cityId":null,"cityName":"Kanifushi Island","hotelId":537197,"hotelName":"Finolhu Baa Atoll Maldives","address":"Baa Atoll,P.O. Box 2123,Kanifushi,Male,Maldives","phones":"+9606608800","fax":"","email":"wonder@finolhu.mv","url":"http://www.finolhu.mv/","countryIso2":"MV","countryName":"Maldives","hotelRating":"5","latitude":"5.01162","longitude":"72.951","state_id":null,"state_name":null,"country_id":null},{"active":false,"Giataid":"543606","cityId":67934,"cityName":"Mahibadhoo","hotelId":543606,"hotelName":"K Villas Maldives Mahibadho","address":"Sosun Magu,Alif Dhaal Mahibadhoo,South Ari Atoll,Maldives","phones":"","fax":"","email":"","url":"","countryIso2":"MV","countryName":"Maldives","hotelRating":"3","latitude":"3.75707","longitude":"72.969","state_id":2606,"state_name":"South Central Province","country_id":133},{"active":false,"Giataid":"543725","cityId":null,"cityName":"North Male Atoll","hotelId":543725,"hotelName":"LUX* North Male Atoll","address":"H. Jazeera Building 5th Floor,Boduthakurufaanu Magu,Nord Male Atoll (Kaafu Atoll),Maldives","phones":"","fax":"","email":"reservation@luxresorts.com","url":"https://www.luxresorts.com/de/hotel-malediven/luxnorthmaleatoll","countryIso2":"MV","countryName":"Maldives","hotelRating":"5","latitude":"4.29776","longitude":"73.5421","state_id":null,"state_name":null,"country_id":null},{"active":false,"Giataid":"543726","cityId":null,"cityName":"Huravalhi","hotelId":543726,"hotelName":"Hurawalhi Island Resort","address":"Hurawalhi,Lhaviyani Atoll,Maldives","phones":"+9606622000","fax":"+9606625555","email":"info@hurawalhi.com","url":"http://hurawalhi.com/","countryIso2":"MV","countryName":"Maldives","hotelRating":"5","latitude":"5.52098","longitude":"73.4418","state_id":null,"state_name":null,"country_id":null},{"active":false,"Giataid":"544407","cityId":67924,"cityName":"Felidhoo","hotelId":544407,"hotelName":"Hudhu Raakani Lodge Maldives","address":"Tiunik V Thinadhoo,Felidhoo 10020,Vaavu Atoll,Maldives","phones":"","fax":"","email":"","url":"","countryIso2":"MV","countryName":"Maldives","hotelRating":"3","latitude":"3.48862","longitude":"73.5387","state_id":2584,"state_name":"Vaavu Atoll","country_id":133},{"active":false,"Giataid":"544410","cityId":null,"cityName":"Hulhumal?","hotelId":544410,"hotelName":"Transit Inn","address":"Lot number 10484,Nirolhumagu,23000  Hulhumal?,Maldives","phones":"","fax":"","email":"","url":"","countryIso2":"MV","countryName":"Maldives","hotelRating":"3","latitude":"4.21284","longitude":"73.5437","state_id":null,"state_name":null,"country_id":null},{"active":false,"Giataid":"552617","cityId":null,"cityName":"Hulhumal?","hotelId":554189,"hotelName":"Sand Gate Inn","address":"Lot 10820,Hulhumale,Maldives","phones":"","fax":"","email":"","url":"","countryIso2":"MV","countryName":"Maldives","hotelRating":"3","latitude":"4.2117","longitude":"73.5433","state_id":null,"state_name":null,"country_id":null},{"active":false,"Giataid":"554233","cityId":67931,"cityName":"Kudahuvadhoo","hotelId":554233,"hotelName":"Kudahuvadhoo Inn","address":"Green Leaf,Dhaal Atoll,Kudhahuvadhoo Island,Kudahuvadhoo 13080,Maldives","phones":"","fax":"","email":"","url":"","countryIso2":"MV","countryName":"Maldives","hotelRating":"1","latitude":"2.67317","longitude":"72.8919","state_id":2590,"state_name":"Dhaalu Atoll","country_id":133},{"active":false,"Giataid":"554761","cityId":null,"cityName":"Thoddoo","hotelId":554761,"hotelName":"Fini Roalhi Guest House","address":"Fehi Ali,Thoddoo,Ari Atoll,Maldives","phones":"+9609194733","fax":"","email":"info@finiroalhi.com","url":"http://www.finiroalhi.com/","countryIso2":"MV","countryName":"Maldives","hotelRating":"1","latitude":"4.43841","longitude":"72.9592","state_id":null,"state_name":null,"country_id":null},{"active":false,"Giataid":"560672","cityId":null,"cityName":"Hulhumal?","hotelId":560672,"hotelName":"Hiyala Inn","address":"","phones":"","fax":"","email":"","url":"","countryIso2":"MV","countryName":"Maldives","hotelRating":"1","latitude":"4.21483","longitude":"73.5444","state_id":null,"state_name":null,"country_id":null},{"active":false,"Giataid":"561920","cityId":null,"cityName":"Dhigufaruvinagandu","hotelId":561920,"hotelName":"Dhigufaru Island Resort","address":"Baa Atol,Maledives,Maldives","phones":"+9603302656","fax":"+9603330804","email":"","url":"https://dhigufaru.com","countryIso2":"MV","countryName":"Maldives","hotelRating":"5","latitude":"5.35218","longitude":"72.9899","state_id":null,"state_name":null,"country_id":null},{"active":false,"Giataid":"570053","cityId":null,"cityName":"Kooddoo","hotelId":570053,"hotelName":"Mercure Maldives Kooddoo Resort","address":"Kooddoo Island 20219,Gaafu Alifu Atoll,Maldives","phones":"+9606820003","fax":"+9606820004","email":"H9923@ACCOR.COM","url":"","countryIso2":"MV","countryName":"Maldives","hotelRating":"4","latitude":"0.731215","longitude":"73.4323","state_id":null,"state_name":null,"country_id":null},{"active":false,"Giataid":"582060","cityId":67940,"cityName":"Thinadhoo","hotelId":582060,"hotelName":"Plumeria Seaview Hotel","address":"Vaavu Atoll,Thinadhoo 10020,Maldives","phones":"","fax":"","email":"","url":"","countryIso2":"MV","countryName":"Maldives","hotelRating":"4","latitude":"3.48878","longitude":"73.5393","state_id":2603,"state_name":"Gaafu Dhaalu Atoll","country_id":133},{"active":false,"Giataid":"594413","cityId":null,"cityName":"Hulhumal?","hotelId":594413,"hotelName":"Piculet Royal Beach","address":"Lot 10667,Hulhumale 20057,Maldives","phones":"+9603350071","fax":"","email":"info@piculethotels.com","url":"http://www.piculethotels.com","countryIso2":"MV","countryName":"Maldives","hotelRating":"3","latitude":"4.21158","longitude":"73.544","state_id":null,"state_name":null,"country_id":null},{"active":false,"Giataid":"594432","cityId":null,"cityName":"Hulhumal?","hotelId":594432,"hotelName":"Noomoo","address":"Lot 10075 Nirolhu Goalhi,Hulhumale 23000,Maldives","phones":"","fax":"","email":"","url":"","countryIso2":"MV","countryName":"Maldives","hotelRating":"4","latitude":"4.21879","longitude":"73.5455","state_id":null,"state_name":null,"country_id":null},{"active":false,"Giataid":"596551","cityId":null,"cityName":"Rasdhu Atoll","hotelId":596551,"hotelName":"Ras Beach Inn","address":"Ethumaa,09020 Rasdhu,Maldives","phones":"","fax":"","email":"","url":"","countryIso2":"MV","countryName":"Maldives","hotelRating":"3","latitude":"4.26187","longitude":"72.9937","state_id":null,"state_name":null,"country_id":null},{"active":false,"Giataid":"596627","cityId":null,"cityName":"Hulhumal?","hotelId":596627,"hotelName":"Golden Spiral","address":"Lot No 10516,23000 Hulhumale,Maldives","phones":"","fax":"","email":"","url":"","countryIso2":"MV","countryName":"Maldives","hotelRating":"3","latitude":"4.22038","longitude":"73.5451","state_id":null,"state_name":null,"country_id":null},{"active":false,"Giataid":"596720","cityId":null,"cityName":"Hulhumal?","hotelId":596720,"hotelName":"The White Harp Beach Hotel","address":"Lot 11075,Hulhumale 20057,Kaafu,Maldives","phones":"+9603355674","fax":"","email":"res@visitens.com","url":"http://www.whiteharpbeachmaldives.com/","countryIso2":"MV","countryName":"Maldives","hotelRating":"3","latitude":"4.20734","longitude":"73.5426","state_id":null,"state_name":null,"country_id":null},{"active":false,"Giataid":"612492","cityId":null,"cityName":"Kudafushi","hotelId":612492,"hotelName":"Kudafushi Resort & Spa","address":"Kudafushi  Island,Raa Atoll,Maldives","phones":"+9606580080","fax":"","email":"reservations@kudafushiresort.com","url":"http://kudafushiresort.com/","countryIso2":"MV","countryName":"Maldives","hotelRating":"5","latitude":"5.50998","longitude":"72.9802","state_id":null,"state_name":null,"country_id":null},{"active":false,"Giataid":"619817","cityId":null,"cityName":"Hulhumal?","hotelId":619817,"hotelName":"Rare Deluxe Inn","address":"Lot No 10595,20057 Hulhumale,Maldives","phones":"","fax":"","email":"","url":"","countryIso2":"MV","countryName":"Maldives","hotelRating":"4","latitude":"4.22102","longitude":"73.5432","state_id":null,"state_name":null,"country_id":null},{"active":false,"Giataid":"622745","cityId":null,"cityName":"Hulhumal?","hotelId":622745,"hotelName":"Coco Gili Beach House","address":"Plot 10975 Nirolhumagu 16-Goalhi,Hulhumale 23500,Maldives","phones":"","fax":"","email":"","url":"","countryIso2":"MV","countryName":"Maldives","hotelRating":"3","latitude":"4.21047","longitude":"73.5433","state_id":null,"state_name":null,"country_id":null},{"active":false,"Giataid":"622821","cityId":null,"cityName":"Hulhumal?","hotelId":622821,"hotelName":"Simry Beach Side","address":"Lot 10066 Dhiggaa Magu,Hulhumale 23000,Maldives","phones":"+9603350557","fax":"+9603350558","email":"email@simrybeachside.com","url":"http://www.simrybeachside.com","countryIso2":"MV","countryName":"Maldives","hotelRating":"3","latitude":"4.21836","longitude":"73.5457","state_id":null,"state_name":null,"country_id":null},{"active":false,"Giataid":"622907","cityId":null,"cityName":"Hulhumal?","hotelId":622907,"hotelName":"Velvet Beach","address":"Hulhumale' Bridge,Hulhumale 23000,Maldives","phones":"","fax":"","email":"","url":"","countryIso2":"MV","countryName":"Maldives","hotelRating":"1","latitude":"4.21483","longitude":"73.5444","state_id":null,"state_name":null,"country_id":null},{"active":false,"Giataid":"622909","cityId":null,"cityName":"Hulhumal?","hotelId":622909,"hotelName":"Planktons Beach","address":"Lot 10094 Dhigga Magu,Hulhumale 22000,Maldives","phones":"","fax":"","email":"booking@planktonsbeach.com","url":"http://www.planktonsbeach.com","countryIso2":"MV","countryName":"Maldives","hotelRating":"3","latitude":"4.21761","longitude":"73.5457","state_id":null,"state_name":null,"country_id":null},{"active":false,"Giataid":"622921","cityId":null,"cityName":"Maamigili","hotelId":622921,"hotelName":"Rincodon Hotel Maldives","address":"Ameenee Magu,Karanka Villa,Maamigili 00100,Maldives","phones":"","fax":"","email":"","url":"","countryIso2":"MV","countryName":"Maldives","hotelRating":"1","latitude":"3.47663","longitude":"72.8392","state_id":null,"state_name":null,"country_id":null},{"active":false,"Giataid":"622935","cityId":null,"cityName":"Hulhumal?","hotelId":622935,"hotelName":"HM Retreat","address":"Lot 11054 Nirolhu Magu-19 Goalhi,Hulhumale 23000,Maldives","phones":"","fax":"","email":"","url":"","countryIso2":"MV","countryName":"Maldives","hotelRating":"1","latitude":"4.2085","longitude":"73.543","state_id":null,"state_name":null,"country_id":null},{"active":false,"Giataid":"623533","cityId":null,"cityName":"Hulhumal?","hotelId":623533,"hotelName":"Sunny Suites","address":"Lot 10818 Unigas Magu,Hulhumale 23000,Maldives","phones":"+9603353034","fax":"","email":"reservations@sunnysuites.com.mv","url":"http://www.sunnysuitesmaldives.com.mv/","countryIso2":"MV","countryName":"Maldives","hotelRating":"3","latitude":"4.2115","longitude":"73.5436","state_id":null,"state_name":null,"country_id":null},{"active":false,"Giataid":"623539","cityId":null,"cityName":"Hulhumal?","hotelId":623539,"hotelName":"Dreams Arena","address":"Lot 10467,Nirolhu Magu,Hulhumale 23000,Kaafa Atoll,Maldives","phones":"+9607916111","fax":"","email":"sales@dreamshotelmaldives.com","url":"https://www.dreamshotelmaldives.com/","countryIso2":"MV","countryName":"Maldives","hotelRating":"3","latitude":"4.21483","longitude":"73.5444","state_id":null,"state_name":null,"country_id":null},{"active":false,"Giataid":"639643","cityId":null,"cityName":"Filaidhoo","hotelId":639643,"hotelName":"Reethi Faru Resort","address":"Meedhoo,Filaidhoo 05140,Maldives,Maldives","phones":"+9604004000","fax":"","email":"","url":"","countryIso2":"MV","countryName":"Maldives","hotelRating":"4","latitude":"5.49173","longitude":"72.9379","state_id":null,"state_name":null,"country_id":null},{"active":false,"Giataid":"648408","cityId":null,"cityName":"Hulhumal?","hotelId":648408,"hotelName":"Beach Sunrise Inn","address":"Plot 10718,Kaani Magu,Hulhumale 20025,Maldives","phones":"+9603350056","fax":"","email":"","url":"","countryIso2":"MV","countryName":"Maldives","hotelRating":"3","latitude":"4.21056","longitude":"73.5436","state_id":null,"state_name":null,"country_id":null},{"active":false,"Giataid":"653304","cityId":null,"cityName":"Baa Atoll","hotelId":653304,"hotelName":"Vakkaru Maldives","address":"Vakkaru Island,Baa Atoll,Maldives","phones":"+9606607000","fax":"","email":"info@vakkarumaldives.com","url":"http://www.vakkarumaldives.com","countryIso2":"MV","countryName":"Maldives","hotelRating":"5","latitude":"5.13415","longitude":"72.9099","state_id":null,"state_name":null,"country_id":null},{"active":false,"Giataid":"654632","cityId":null,"cityName":"Hulhumal?","hotelId":654632,"hotelName":"Laguna Boutique","address":"Lot Number 10801,Unigas Magu,2300 Hulhumale,Maldives","phones":"+9603354555","fax":"","email":"reservations@laguna-boutique.com","url":"http://www.laguna-boutique.com/","countryIso2":"MV","countryName":"Maldives","hotelRating":"1","latitude":"4.21078","longitude":"73.5434","state_id":null,"state_name":null,"country_id":null},{"active":false,"Giataid":"654639","cityId":null,"cityName":"Hulhumal?","hotelId":654639,"hotelName":"Sunset Royal","address":"Lot 10140,Nirolhu Magu,Hulhumale 20057,Maldives","phones":"+9607786565","fax":"","email":"info@sunsetmaldives.com","url":"http://sunsetmaldives.net/v1/accommodation/sunset-royal/","countryIso2":"MV","countryName":"Maldives","hotelRating":"4","latitude":"4.21483","longitude":"73.5444","state_id":null,"state_name":null,"country_id":null},{"active":false,"Giataid":"655773","cityId":null,"cityName":"Orivaru","hotelId":655773,"hotelName":"Robinson Club Noonu","address":"Orivaru,20077 Noonu-Atoll,Maldives","phones":"","fax":"","email":"","url":"","countryIso2":"MV","countryName":"Maldives","hotelRating":"5","latitude":"0.53422","longitude":"73.1895","state_id":null,"state_name":null,"country_id":null},{"active":false,"Giataid":"659840","cityId":null,"cityName":"Aarah Island","hotelId":659840,"hotelName":"Heritance Aarah","address":"Aararh Island,Raa Atoll,Maldives","phones":"","fax":"","email":"","url":"","countryIso2":"MV","countryName":"Maldives","hotelRating":"5","latitude":"0","longitude":"0","state_id":null,"state_name":null,"country_id":null},{"active":false,"Giataid":"660037","cityId":null,"cityName":"South Nilandhe Atoll","hotelId":660037,"hotelName":"Baglioni Resort Maldives","address":"Dhaalu Atoll,Maldives","phones":"+960390294779881","fax":"","email":"","url":"","countryIso2":"MV","countryName":"Maldives","hotelRating":"5","latitude":"2.87063","longitude":"72.9427","state_id":null,"state_name":null,"country_id":null},{"active":false,"Giataid":"661621","cityId":null,"cityName":"Sangeli Island","hotelId":661621,"hotelName":"Oblu Select at Sangeli","address":"Sangeli Island,Noth Male Atoll,Maldives","phones":"","fax":"","email":"","url":"","countryIso2":"MV","countryName":"Maldives","hotelRating":"5","latitude":"4.63778","longitude":"73.4008","state_id":null,"state_name":null,"country_id":null},{"active":false,"Giataid":"661625","cityId":null,"cityName":"Hirundhoo","hotelId":661625,"hotelName":"Dreamland The Unique Sea & Lake Resort / Spa","address":"Hirundhoo Island,Baa Atoll,Maldives","phones":"","fax":"","email":"","url":"","countryIso2":"MV","countryName":"Maldives","hotelRating":"4","latitude":"5.21713","longitude":"73.1528","state_id":null,"state_name":null,"country_id":null},{"active":false,"Giataid":"662527","cityId":null,"cityName":"Aluvifushi","hotelId":662527,"hotelName":"Sun Aqua Iru Veli","address":"Iru Veli's Lagoon,South Nilandhe Atoll,Maldives","phones":"","fax":"","email":"","url":"","countryIso2":"MV","countryName":"Maldives","hotelRating":"4","latitude":"0","longitude":"0","state_id":null,"state_name":null,"country_id":null},{"active":false,"Giataid":"665139","cityId":null,"cityName":"Fulhadhoo","hotelId":665139,"hotelName":"Fulhadhoo Inn","address":"Fulhadhoo Kilege Magu, Fulhadhoo Island","phones":"+9607779818","fax":"","email":"","url":"","countryIso2":"MV","countryName":"Maldives","hotelRating":"3","latitude":"4.88526","longitude":"72.9344","state_id":null,"state_name":null,"country_id":null},{"active":false,"Giataid":"666889","cityId":null,"cityName":"Kuda Vattaru","hotelId":666889,"hotelName":"Grand Park Kodhipparu","address":"P.O. Box 2168,08470 North Male Atoll,Maldives","phones":"+9606651111","fax":"","email":"info.gpkd@parkhotelgroup.com","url":"http://www.parkhotelgroup.com/en/maldives","countryIso2":"MV","countryName":"Maldives","hotelRating":"5","latitude":"4.25996","longitude":"73.3798","state_id":null,"state_name":null,"country_id":null},{"active":false,"Giataid":"667215","cityId":null,"cityName":"Athurugau","hotelId":667215,"hotelName":"Diamonds Athuruga Beach Villas","address":"","phones":"","fax":"","email":"","url":"","countryIso2":"MV","countryName":"Maldives","hotelRating":"4","latitude":"0","longitude":"0","state_id":null,"state_name":null,"country_id":null},{"active":false,"Giataid":"667218","cityId":null,"cityName":"Athurugau","hotelId":667218,"hotelName":"Diamonds Athuruga Water Villas","address":"","phones":"","fax":"","email":"","url":"","countryIso2":"MV","countryName":"Maldives","hotelRating":"5","latitude":"0","longitude":"0","state_id":null,"state_name":null,"country_id":null},{"active":false,"Giataid":"670995","cityId":null,"cityName":"Hulhumal?","hotelId":670995,"hotelName":"Point Inn Hulhumale","address":"Lot 10366,Hirundhu Magu,Hulhumale 20057,Maldives","phones":"+9603350661","fax":"+9603350665","email":"reservations@pointinn.com.mv","url":"http://pointinn.com.mv","countryIso2":"MV","countryName":"Maldives","hotelRating":"3","latitude":"4.21396","longitude":"73.5448","state_id":null,"state_name":null,"country_id":null},{"active":false,"Giataid":"674521","cityId":null,"cityName":"Ukulhas Island","hotelId":674521,"hotelName":"Ukulhas Breeze Inn","address":"Jumhooree Magu,Ukulhas 09030,Maldives","phones":"","fax":"","email":"","url":"http://www.hotelscombined.com/Hotel/Ukulhas_Breeze_Inn.htm","countryIso2":"MV","countryName":"Maldives","hotelRating":"1","latitude":"4.21346","longitude":"72.8659","state_id":null,"state_name":null,"country_id":null},{"active":false,"Giataid":"677347","cityId":null,"cityName":"Hulhumal?","hotelId":677347,"hotelName":"Seaside Lodge Maldives","address":"Lot 10431 Nirolhu Magu,Hulhumale 23080,Maldives","phones":"","fax":"","email":"","url":"","countryIso2":"MV","countryName":"Maldives","hotelRating":"1","latitude":"4.21483","longitude":"73.5444","state_id":null,"state_name":null,"country_id":null},{"active":false,"Giataid":"677358","cityId":null,"cityName":"Fulidhoo","hotelId":677358,"hotelName":"Island Holiday Home","address":"Felidhoo 10030,Vaavu Atoll,Maldives","phones":"","fax":"","email":"","url":"","countryIso2":"MV","countryName":"Maldives","hotelRating":"1","latitude":"3.68015","longitude":"73.4156","state_id":null,"state_name":null,"country_id":null},{"active":false,"Giataid":"677664","cityId":null,"cityName":"Gulhi","hotelId":677664,"hotelName":"Orchid Island Lodge","address":"Vilares,Kaaf Atoll Gulhi,08070 Gulhi,South Male Atoll,Maldives","phones":"","fax":"","email":"","url":"","countryIso2":"MV","countryName":"Maldives","hotelRating":"1","latitude":"3.98966","longitude":"73.5084","state_id":null,"state_name":null,"country_id":null},{"active":false,"Giataid":"682574","cityId":null,"cityName":"Gulhi","hotelId":682574,"hotelName":"The Strand Hotel","address":"Kuda Gulhi,Gulhi,Maldives","phones":"","fax":"","email":"","url":"","countryIso2":"MV","countryName":"Maldives","hotelRating":"1","latitude":"3.98966","longitude":"73.5084","state_id":null,"state_name":null,"country_id":null},{"active":false,"Giataid":"682578","cityId":null,"cityName":"Hulhumal?","hotelId":682578,"hotelName":"Huvadhumaa Inn","address":"Lot 10076 Nirolhumagu 6,Hulhumal?,Maldives","phones":"","fax":"","email":"","url":"http://www.palmvilla-maldives.com/english/hulhumale.htm","countryIso2":"MV","countryName":"Maldives","hotelRating":"1","latitude":"4.21483","longitude":"73.5444","state_id":null,"state_name":null,"country_id":null},{"active":false,"Giataid":"682580","cityId":null,"cityName":"Hulhumal?","hotelId":682580,"hotelName":"Coral Queen Inn","address":"Halaveli Magu,Hulhumale 10132,Maldives","phones":"","fax":"","email":"","url":"","countryIso2":"MV","countryName":"Maldives","hotelRating":"3","latitude":"4.21421","longitude":"73.5441","state_id":null,"state_name":null,"country_id":null},{"active":false,"Giataid":"682584","cityId":null,"cityName":"Dhiffushi","hotelId":682584,"hotelName":"Local Adventure at Dhiffushi","address":"K.Dhiffushi,Dhiffushi 08030,Maldives","phones":"","fax":"","email":"","url":"","countryIso2":"MV","countryName":"Maldives","hotelRating":"1","latitude":"4.44057","longitude":"73.7134","state_id":null,"state_name":null,"country_id":null},{"active":false,"Giataid":"683242","cityId":null,"cityName":"Hulhumal?","hotelId":683242,"hotelName":"Hotel Elysium","address":"Ranauraa Magu,Neighborhood 1,Hulhumale 23000,Maldives","phones":"","fax":"","email":"","url":"","countryIso2":"MV","countryName":"Maldives","hotelRating":"1","latitude":"4.22044","longitude":"73.5441","state_id":null,"state_name":null,"country_id":null},