[{"active":false,"Giataid":"184007","cityId":81060,"cityName":"Kavieng","hotelId":184007,"hotelName":"Lissenung Island Resort","address":"P.O.Box 536,Kavieng,N.I.P.,Papua New Guinea","phones":"+67572345834","fax":"","email":"info@lissenung.com","url":"http://www.lissenung.com/Germabout.htm","countryIso2":"PG","countryName":"Papua New Guinea","hotelRating":"3","latitude":"-2.66451","longitude":"150.733","state_id":4841,"state_name":"New Ireland Province","country_id":171},{"active":false,"Giataid":"245455","cityId":81078,"cityName":"Madang","hotelId":245455,"hotelName":"Madang Resort Hotel","address":"P.O.Box: 707,511 Madang,Papua New Guinea,Papua New Guinea","phones":"+6754222766","fax":"+6754223543","email":"mtsmanager@mtspng.com","url":"http://www.madangresort.com/","countryIso2":"PG","countryName":"Papua New Guinea","hotelRating":"3","latitude":"-5.20884","longitude":"145.81","state_id":4843,"state_name":"Madang Province","country_id":171},{"active":false,"Giataid":"470775","cityId":null,"cityName":"Omili","hotelId":470775,"hotelName":"Crossroads Transit Hotel","address":"9 Mile,Main Lae/Nadzab Highway,Omili 411,Papua New Guinea","phones":"","fax":"","email":"","url":"","countryIso2":"PG","countryName":"Papua New Guinea","hotelRating":"3","latitude":"-6.70184","longitude":"147.005","state_id":null,"state_name":null,"country_id":null},{"active":false,"Giataid":"471004","cityId":81101,"cityName":"Port Moresby","hotelId":471004,"hotelName":"Laguna Hotel","address":"Waigani Drive,Port Moresby,Papua New Guinea","phones":"+6753239333","fax":"+6753239333","email":"inquiry@lagunahotel.com.pg","url":"http://lagunahotelpng.com/","countryIso2":"PG","countryName":"Papua New Guinea","hotelRating":"4","latitude":"-9.43203","longitude":"147.18","state_id":4837,"state_name":"Port Moresby","country_id":171},{"active":false,"Giataid":"599726","cityId":81101,"cityName":"Port Moresby","hotelId":599726,"hotelName":"Citi Serviced Apartments & Motel - Korobosea","address":"Section 72,Lot 28 Muniara Street Corner Gavamani Road,Korobosea,Port Moresby 111,Papua New Guinea","phones":"+6753230543","fax":"+6753232689","email":"reservations_boroko@citiservicedapartments.com.pg","url":"http://www.moresbyapartments.com/","countryIso2":"PG","countryName":"Papua New Guinea","hotelRating":"3","latitude":"-9.48074","longitude":"147.198","state_id":4837,"state_name":"Port Moresby","country_id":171},{"active":false,"Giataid":"627170","cityId":81076,"cityName":"Lorengau","hotelId":627170,"hotelName":"Seeadler Bay Hotel","address":"Seeadler Bay,Lorengau,Papua New Guinea","phones":"+6759709589","fax":"","email":"reservations@seeadlerbayhotel.com","url":"http://www.seeadlerbayhotel.com/","countryIso2":"PG","countryName":"Papua New Guinea","hotelRating":"1","latitude":"-2.01833","longitude":"147.261","state_id":4842,"state_name":"Manus Province","country_id":171},{"active":false,"Giataid":"720924","cityId":81101,"cityName":"Port Moresby","hotelId":720924,"hotelName":"Whittaker Apartments","address":"Whittaker Street,Port Moresby,Papua New Guinea","phones":"+6753212100","fax":"+6753212434","email":"whittaker@coralseahotels.com.pg","url":"http://www.coralseahotels.com.pg/index.php/contact","countryIso2":"PG","countryName":"Papua New Guinea","hotelRating":"3","latitude":"-9.48148","longitude":"147.15","state_id":4837,"state_name":"Port Moresby","country_id":171},{"active":false,"Giataid":"733135","cityId":81101,"cityName":"Port Moresby","hotelId":733135,"hotelName":"Citi Boutique Hotel","address":"Section 24,Lot 30,Lahara Avenue,Port Moresby,Papua New Guinea","phones":"","fax":"","email":"","url":"","countryIso2":"PG","countryName":"Papua New Guinea","hotelRating":"1","latitude":"-9.46778","longitude":"147.197","state_id":4837,"state_name":"Port Moresby","country_id":171},{"active":false,"Giataid":"799389","cityId":null,"cityName":"Kimbe Bay","hotelId":799389,"hotelName":"Liamo Reef Resort","address":"San Remo Road,Po Box 94,Kimbe 621,Papua New Guinea","phones":"","fax":"+6759834371","email":"reservations@liamoreefresort.com","url":"http://www.liamoreefresort.com","countryIso2":"PG","countryName":"Papua New Guinea","hotelRating":"1","latitude":"-5.55197","longitude":"150.161","state_id":null,"state_name":null,"country_id":null},{"active":false,"Giataid":"803511","cityId":81101,"cityName":"Port Moresby","hotelId":803511,"hotelName":"The Shady Rest Hotel","address":"Lot 7 Taurama Road,Section 4,Gordons,PO Box 206,Port Moresby 111,Papua New Guinea","phones":"+6753230000","fax":"+6753230060","email":"reservations@shadyrest.com.pg","url":"http://www.shadyrest.com.pg","countryIso2":"PG","countryName":"Papua New Guinea","hotelRating":"1","latitude":"-9.47184","longitude":"147.192","state_id":4837,"state_name":"Port Moresby","country_id":171},{"active":false,"Giataid":"810831","cityId":81101,"cityName":"Port Moresby","hotelId":810831,"hotelName":"Salvation Army Boroko Motel","address":"Lahara Avenue Building,Port Moresby 111,Papua New Guinea","phones":"","fax":"","email":"","url":"","countryIso2":"PG","countryName":"Papua New Guinea","hotelRating":"1","latitude":"-9.46008","longitude":"147.189","state_id":4837,"state_name":"Port Moresby","country_id":171},{"active":false,"Giataid":"627175","cityId":81027,"cityName":"Alotau","hotelId":10043004,"hotelName":"Alotau International Hotel","address":"Charles Able Highway,P.O. Box 341,Alotau,Milne Bay Province,Papua New Guinea","phones":"+6756410300","fax":"","email":"","url":"","countryIso2":"PG","countryName":"Papua New Guinea","hotelRating":"3","latitude":"-10.308","longitude":"150.448","state_id":4849,"state_name":"Milne Bay Province","country_id":171},{"active":false,"Giataid":"464891","cityId":81101,"cityName":"Port Moresby","hotelId":10056869,"hotelName":"Lamana Hotel","address":"Lamana Road,Waigani,P.O. Box 495,National Capital District,Port Moresby,Papua New Guinea","phones":"+6753232333","fax":"","email":"","url":"","countryIso2":"PG","countryName":"Papua New Guinea","hotelRating":"3","latitude":"-9.44218","longitude":"147.18","state_id":4837,"state_name":"Port Moresby","country_id":171},{"active":false,"Giataid":"425081","cityId":81101,"cityName":"Port Moresby","hotelId":10064326,"hotelName":"Holiday Inn Express Port Moresby","address":"Islander Drive,Waigani,National Capital District,Port Moresby 121,Papua New Guinea","phones":"+67573732500","fax":"","email":"","url":"","countryIso2":"PG","countryName":"Papua New Guinea","hotelRating":"3","latitude":"-9.44538","longitude":"147.182","state_id":4837,"state_name":"Port Moresby","country_id":171},{"active":false,"Giataid":"720945","cityId":null,"cityName":"Duke of Portland Islands","hotelId":10069201,"hotelName":"Kulkulit Guest House","address":"Tingwon Island,Papua New Guinea","phones":"","fax":"","email":"","url":"","countryIso2":"PG","countryName":"Papua New Guinea","hotelRating":"1","latitude":"-2.6112","longitude":"149.713","state_id":null,"state_name":null,"country_id":null},{"active":false,"Giataid":"467384","cityId":81069,"cityName":"Kokopo","hotelId":10070970,"hotelName":"Gazelle International Hotel","address":"Makau Esplanade,PO Box 2348,Kokopo 411,Kokopo,Papua New Guinea","phones":"","fax":"","email":"","url":"","countryIso2":"PG","countryName":"Papua New Guinea","hotelRating":"3","latitude":"-4.32315","longitude":"152.24","state_id":4834,"state_name":"East New Britain","country_id":171},{"active":false,"Giataid":"510919","cityId":81069,"cityName":"Kokopo","hotelId":10104971,"hotelName":"Rapopo Plantation Resort","address":"Chanel College Road,489 Kokopo,Papua New Guinea","phones":"NULL","fax":"NULL","email":"NULL","url":"NULL","countryIso2":"PG","countryName":"Papua New Guinea","hotelRating":"4","latitude":"-4.33698","longitude":"152.312","state_id":4834,"state_name":"East New Britain","country_id":171},{"active":false,"Giataid":"514192","cityId":81101,"cityName":"Port Moresby","hotelId":10115079,"hotelName":"Citi Serviced Apartments & Motel Lagatoi Place","address":"30 Muniara Street Corner,Gavamani Road,Port Moresby,Papua New Guinea","phones":"+6753230543","fax":"NULL","email":"NULL","url":"NULL","countryIso2":"PG","countryName":"Papua New Guinea","hotelRating":"3","latitude":"-9.47273","longitude":"147.207","state_id":4837,"state_name":"Port Moresby","country_id":171},{"active":false,"Giataid":"91439","cityId":null,"cityName":"Milne Bay","hotelId":20002671,"hotelName":"Tawali Resort","address":"Alotau,Milne Bay Province,Papua New Guinea","phones":"+6756410922","fax":"","email":"reservations@tawali.com","url":"http://www.tawali.com","countryIso2":"PG","countryName":"Papua New Guinea","hotelRating":"4","latitude":"-10.2318","longitude":"150.873","state_id":null,"state_name":null,"country_id":null},{"active":false,"Giataid":"161932","cityId":81074,"cityName":"Lae","hotelId":20002911,"hotelName":"Melanesian Hotel & Apartments","address":"Second Street,Lae 411,Papua New Guinea","phones":"+6754723744","fax":"+6754723706","email":"melanesina@coralseahotels.com.pg","url":"http://www.coralseahotels.com.pg/index.php/locations/apartments","countryIso2":"PG","countryName":"Papua New Guinea","hotelRating":"3","latitude":"-6.73271","longitude":"147.003","state_id":4835,"state_name":"Morobe Province","country_id":171},{"active":false,"Giataid":"724795","cityId":81042,"cityName":"Goroka","hotelId":20003103,"hotelName":"Hotel Phoenix","address":"Airport Road 121,Goroka,Papua New Guinea","phones":"","fax":"","email":"","url":"http://www.hotels.com/ho596472640","countryIso2":"PG","countryName":"Papua New Guinea","hotelRating":"0","latitude":"-6.07343","longitude":"145.39","state_id":4845,"state_name":"Eastern Highlands Province","country_id":171},{"active":false,"Giataid":"91437","cityId":null,"cityName":"Kimbe Bay","hotelId":20003315,"hotelName":"Walindi Plantation Resort","address":"P.O. Box 4,Kimbe 621,Papua New Guinea","phones":"+6759835441","fax":"+6759835638","email":"resort@walindifebrina.com","url":"http://www.walindi.com","countryIso2":"PG","countryName":"Papua New Guinea","hotelRating":"3","latitude":"-5.44066","longitude":"150.089","state_id":null,"state_name":null,"country_id":null},{"active":false,"Giataid":"91440","cityId":81101,"cityName":"Port Moresby","hotelId":20003519,"hotelName":"Loloata Island Resort","address":"P.O. Box 5290,Boroko,Loloata Island,Papua New Guinea","phones":"+6753258590","fax":"+6753258933","email":"loloata@loloata.com","url":"http://www.loloata.com","countryIso2":"PG","countryName":"Papua New Guinea","hotelRating":"3","latitude":"-9.53459","longitude":"147.29","state_id":4837,"state_name":"Port Moresby","country_id":171},{"active":false,"Giataid":"725613","cityId":81101,"cityName":"Port Moresby","hotelId":20003708,"hotelName":"Ensisi Heights","address":"Lot 51,Section 375,Ensisi Valley,Waigani,Port Moresby,National Capital District,Papua New Guinea","phones":"","fax":"","email":"","url":"","countryIso2":"PG","countryName":"Papua New Guinea","hotelRating":"0","latitude":"-9.42067","longitude":"147.175","state_id":4837,"state_name":"Port Moresby","country_id":171},{"active":false,"Giataid":"627208","cityId":81086,"cityName":"Mount Hagen","hotelId":20004257,"hotelName":"McRoyal Hotel","address":"P.O. Box 1706,Western Highlands Province,Mount Hagen,Papua New Guinea","phones":"+67554519555451959","fax":"+6755451959","email":"reception@mcroyalhotelpng.com","url":"http://www.mcroyalhotelpng.com/","countryIso2":"PG","countryName":"Papua New Guinea","hotelRating":"3","latitude":"-5.83568","longitude":"144.298","state_id":4840,"state_name":"Western Highlands Province","country_id":171},{"active":false,"Giataid":"287735","cityId":81101,"cityName":"Port Moresby","hotelId":20004428,"hotelName":"Ela Beach Hotel & Apartments","address":"Ela Beach Road,P.O. Box 813,Port Moresby 121,Papua New Guinea","phones":"+6753212100","fax":"+6753212434","email":"elabeach@coralseahotels.com.pg","url":"http://www.coralseahotels.com.pg/index.php/locations/ela-beach-hotel","countryIso2":"PG","countryName":"Papua New Guinea","hotelRating":"4","latitude":"-9.47901","longitude":"147.155","state_id":4837,"state_name":"Port Moresby","country_id":171},{"active":false,"Giataid":"287736","cityId":81101,"cityName":"Port Moresby","hotelId":20004600,"hotelName":"Grand Papua Hotel","address":"Mary Street,,Port Moresby, NCD,,Papua New Guinea,Papua New Guinea","phones":"+6753040000","fax":"+6753202223","email":"info@grandpapuahotel.com.pg","url":"http://www.grandpapuahotel.com.pg","countryIso2":"PG","countryName":"Papua New Guinea","hotelRating":"4","latitude":"-9.47906","longitude":"147.15","state_id":4837,"state_name":"Port Moresby","country_id":171},{"active":false,"Giataid":"91438","cityId":null,"cityName":"Tufi","hotelId":20004745,"hotelName":"Tufi Dive Resort","address":"246,Tufi,PO Box 1845,Port Moresby,Oro Province,Papua New Guinea","phones":"+6753233462","fax":"+6753231303","email":"tufidive@datec.net.pg","url":"http://www.tufidive.com","countryIso2":"PG","countryName":"Papua New Guinea","hotelRating":"4","latitude":"-9.08042","longitude":"149.317","state_id":null,"state_name":null,"country_id":null},{"active":false,"Giataid":"245456","cityId":81102,"cityName":"Rabaul","hotelId":20004902,"hotelName":"Rabaul Hotel","address":"Rabaul,Papua New Guinea,Papua New Guinea","phones":"+6759821999","fax":"+6759821970","email":"rabaulhotel@global.net.pg","url":"http://www.rabaulhotel.com.pg/","countryIso2":"PG","countryName":"Papua New Guinea","hotelRating":"3","latitude":"-4.19949","longitude":"152.18","state_id":4834,"state_name":"East New Britain","country_id":171},{"active":false,"Giataid":"161930","cityId":81042,"cityName":"Goroka","hotelId":20005207,"hotelName":"Bird Of Paradise Hotel","address":"Elizabeth Street,Goroka 495,Papua New Guinea","phones":"+6755313100","fax":"+6755311007","email":"thebird_reservations@coralseahotels.com.pg","url":"http://www.coralseahotels.com.pg/index.php/locations/bird-of-paradise-hotel","countryIso2":"PG","countryName":"Papua New Guinea","hotelRating":"3","latitude":"-6.07263","longitude":"145.395","state_id":4845,"state_name":"Eastern Highlands Province","country_id":171},{"active":false,"Giataid":"610759","cityId":81074,"cityName":"Lae","hotelId":20005436,"hotelName":"Huon Gulf Hotel and Apartments","address":"Angau Drive,Lae,Papua New Guinea","phones":"+6754724844","fax":"+6754725023","email":"huongulf_reservations@coralseahotels.com.pg","url":"http://www.coralseahotels.com.pg/index.php/locations/huon-gulf-apartments","countryIso2":"PG","countryName":"Papua New Guinea","hotelRating":"3","latitude":"-6.72423","longitude":"146.994","state_id":4835,"state_name":"Morobe Province","country_id":171},{"active":false,"Giataid":"107090","cityId":81101,"cityName":"Port Moresby","hotelId":20005667,"hotelName":"Gateway Hotel & Apartments","address":"Jacksons Parade,Overlooking Jacksons Airport,Port Moresby 121,Papua New Guinea","phones":"+6753278255","fax":"+6753254585","email":"gateway_reservations@coralseahotels.com.pg","url":"http://www.coralseahotels.com.pg/index.php/locations/gateway-hotel/","countryIso2":"PG","countryName":"Papua New Guinea","hotelRating":"3","latitude":"-9.44715","longitude":"147.213","state_id":4837,"state_name":"Port Moresby","country_id":171},{"active":false,"Giataid":"422445","cityId":81101,"cityName":"Port Moresby","hotelId":20005830,"hotelName":"The Stanley Hotel & Suites","address":"Sir John Guise Drive,Waigani,Port Moresby,Papua New Guinea","phones":"+6753028888","fax":"+6753028899","email":"info@thestanleypng.com","url":"http://www.thestanleypng.com/","countryIso2":"PG","countryName":"Papua New Guinea","hotelRating":"0","latitude":"-9.4375","longitude":"147.182","state_id":4837,"state_name":"Port Moresby","country_id":171},{"active":false,"Giataid":"627206","cityId":81101,"cityName":"Port Moresby","hotelId":20005980,"hotelName":"The Sanctuary Hotel Resort and Spa","address":"Pitpit Street,North Waigani,121 Port Moresby,Papua New Guinea","phones":"+67570298532","fax":"+6753234020","email":"info@thesanctuaryhotelresortandspa.com","url":"http://www.thesanctuaryhotelresortandspa.com/the-sanctuary/","countryIso2":"PG","countryName":"Papua New Guinea","hotelRating":"0","latitude":"-9.41944","longitude":"147.187","state_id":4837,"state_name":"Port Moresby","country_id":171},{"active":false,"Giataid":"676704","cityId":81101,"cityName":"Port Moresby","hotelId":20006156,"hotelName":"Wellness Lodge","address":"Boroko,BKO,NCD,PNG 112,Port Moresby,PO Box 4651,Papua New Guinea","phones":"+6753238606","fax":"","email":"wellnesslodgepng@gmail.com","url":"http://www.thewellnesslodge.com/en/","countryIso2":"PG","countryName":"Papua New Guinea","hotelRating":"0","latitude":"-9.46764","longitude":"147.205","state_id":4837,"state_name":"Port Moresby","country_id":171},{"active":false,"Giataid":"627210","cityId":81074,"cityName":"Lae","hotelId":20006678,"hotelName":"Hotel Morobe","address":"Coronation Drive,Section 177 Lot 1&2,411 Lae,Papua New Guinea","phones":"+6754790100","fax":"+6754790500","email":"info@hotelmorobe.com","url":"http://www.hotelmorobe.com/","countryIso2":"PG","countryName":"Papua New Guinea","hotelRating":"0","latitude":"-6.72488","longitude":"146.997","state_id":4835,"state_name":"Morobe Province","country_id":171},{"active":false,"Giataid":"627203","cityId":81101,"cityName":"Port Moresby","hotelId":20006995,"hotelName":"The Hideaway Hotel","address":"459 Tamara Road,Port Moresby,Papua New Guinea","phones":"+6753236888","fax":"+6753255991","email":"hhgmanager@accommodationpng.com","url":"http://www.thehideawayhotel.com/","countryIso2":"PG","countryName":"Papua New Guinea","hotelRating":"3","latitude":"-9.45141","longitude":"147.206","state_id":4837,"state_name":"Port Moresby","country_id":171},{"active":false,"Giataid":"107092","cityId":81086,"cityName":"Mount Hagen","hotelId":20007158,"hotelName":"Highlander Hotel","address":"Waghi Parade,Mount Hagen 495,Papua New Guinea","phones":"+6755421355","fax":"+6755421216","email":"highlander_reservations@coralseahotels.com.pg","url":"http://www.coralseahotels.com.pg/index.php/locations/highlander-hotel","countryIso2":"PG","countryName":"Papua New Guinea","hotelRating":"3","latitude":"-5.86329","longitude":"144.224","state_id":4840,"state_name":"Western Highlands Province","country_id":171},{"active":false,"Giataid":"867378","cityId":81101,"cityName":"Port Moresby","hotelId":20358801,"hotelName":"Paddyï¿½s Hotel & Apartments","address":"PO Box 4516,Boroko,Port Moresby 111,NCD,Papua New Guinea","phones":"+6753233202","fax":"+6753257998","email":"","url":"http://www.paddyshotelpng.com","countryIso2":"PG","countryName":"Papua New Guinea","hotelRating":"0","latitude":"-9.46008","longitude":"147.189","state_id":4837,"state_name":"Port Moresby","country_id":171},{"active":false,"Giataid":"522644","cityId":81027,"cityName":"Alotau","hotelId":20358803,"hotelName":"Driftwood Resort","address":"Charles Abel Highway,PO Box 295,Alotau,Milne Bay Province,Papua New Guinea","phones":"+67573734288","fax":"+6756410176","email":"http://www.driftwoodresortpng.com/contact/index.php","url":"http://www.driftwoodresortpng.com/","countryIso2":"PG","countryName":"Papua New Guinea","hotelRating":"0","latitude":"-10.3104","longitude":"150.423","state_id":4849,"state_name":"Milne Bay Province","country_id":171},{"active":false,"Giataid":"889376","cityId":81086,"cityName":"Mount Hagen","hotelId":20358804,"hotelName":"Rondon Ridge Lodge","address":"Mount Hagen,Papua New Guinea","phones":"","fax":"","email":"","url":"","countryIso2":"PG","countryName":"Papua New Guinea","hotelRating":"0","latitude":"-5.84953","longitude":"144.261","state_id":4840,"state_name":"Western Highlands Province","country_id":171},{"active":false,"Giataid":"440019","cityId":81069,"cityName":"Kokopo","hotelId":20358806,"hotelName":"Kokopo Beach Bungalow Resort","address":"PO Box 1008 Kokopo,East New Britain Province,Papua New Guinea","phones":"+6759828788","fax":"","email":"reservations@kbb.com.pg","url":"http://www.kbb.com.pg","countryIso2":"PG","countryName":"Papua New Guinea","hotelRating":"3","latitude":"-4.34181","longitude":"152.271","state_id":4834,"state_name":"East New Britain","country_id":171},{"active":false,"Giataid":"861039","cityId":81101,"cityName":"Port Moresby","hotelId":20358807,"hotelName":"Hilton Port Moresby","address":"Wards Road,Hohola,Port Moresby 121,National Capital District,Papua New Guinea","phones":"","fax":"","email":"pomsm_hotel@hilton.com","url":"http://www3.hilton.com/en/hotels/papua-new-guinea/hilton-port-moresby-POMSMHI/index.html","countryIso2":"PG","countryName":"Papua New Guinea","hotelRating":"0","latitude":"-9.44915","longitude":"147.18","state_id":4837,"state_name":"Port Moresby","country_id":171},{"active":false,"Giataid":"918585","cityId":81101,"cityName":"Port Moresby","hotelId":20358808,"hotelName":"Sankamap Lodge","address":"Lot 18 Vaivai Avenue,Section 7,Port Moresby 111,Papua New Guinea","phones":"","fax":"","email":"","url":"","countryIso2":"PG","countryName":"Papua New Guinea","hotelRating":"0","latitude":"-9.46008","longitude":"147.189","state_id":4837,"state_name":"Port Moresby","country_id":171},{"active":false,"Giataid":"918582","cityId":81101,"cityName":"Port Moresby","hotelId":20358809,"hotelName":"Malolo Haven Bed & Breakfast","address":"Lot 48 Malolo Estate,Section 150,Gordons,PO Box 248,Port Moresby 111,National Capital District,Papua New Guinea","phones":"","fax":"","email":"","url":"","countryIso2":"PG","countryName":"Papua New Guinea","hotelRating":"0","latitude":"-9.46008","longitude":"147.189","state_id":4837,"state_name":"Port Moresby","country_id":171},{"active":false,"Giataid":"981987","cityId":81101,"cityName":"Port Moresby","hotelId":20415592,"hotelName":"Renaissance Lodge Plus","address":"Lot 12 Section 85,Geboso Place,Korobosea,Port Moresby,Papua New Guinea","phones":"","fax":"","email":"","url":"","countryIso2":"PG","countryName":"Papua New Guinea","hotelRating":"1","latitude":"-9.46008","longitude":"147.189","state_id":4837,"state_name":"Port Moresby","country_id":171},{"active":false,"Giataid":"1002565","cityId":81078,"cityName":"Madang","hotelId":20437698,"hotelName":"Nambis Inn","address":"Section 37 Allotment 1,Petrea Avenue Cor Coronation Drive,Madang 511,Papua New Guinea","phones":"","fax":"","email":"","url":"","countryIso2":"PG","countryName":"Papua New Guinea","hotelRating":"1","latitude":"-5.21667","longitude":"145.804","state_id":4843,"state_name":"Madang Province","country_id":171}]