[{"active":false,"Giataid":"239142","cityId":null,"cityName":"Ulan Bator","hotelId":239142,"hotelName":"Ramada Ulaanbaatar City Center","address":"Peace Avenue 35/1,Bayangol District,17th Khoroo Gandan,Ulaanbaatar,Mongolia","phones":"+97670135555","fax":"+97670135599","email":"","url":"http://www.ramada.com/Ramada/control/Booking/property_info?propertyId=38971","countryIso2":"MN","countryName":"Mongolia","hotelRating":"3","latitude":"47.9155","longitude":"106.892","state_id":null,"state_name":null,"country_id":null},{"active":false,"Giataid":"239978","cityId":null,"cityName":"Ulan Bator","hotelId":239978,"hotelName":"Kempinski Hotel Khan Palace","address":"East Cross Road,Peace Avenue,Bayanzurkh District,Ulaanbaatar,Mongolia","phones":"+97611463463","fax":"","email":"","url":"http://www.kempinski.com/de/ulaanbaatar/Seiten/Welcome.aspx","countryIso2":"MN","countryName":"Mongolia","hotelRating":"5","latitude":"47.9169","longitude":"106.915","state_id":null,"state_name":null,"country_id":null},{"active":false,"Giataid":"369093","cityId":null,"cityName":"Ulan Bator","hotelId":369093,"hotelName":"Best Western Gobi?s Kelso Hotel","address":"Bayangol 4th khoroo,Jasrai street 27/1,Ulaanbaatar,Mongolia","phones":"+97677363636","fax":"","email":"","url":"","countryIso2":"MN","countryName":"Mongolia","hotelRating":"3","latitude":"47.9103","longitude":"106.877","state_id":null,"state_name":null,"country_id":null},{"active":false,"Giataid":"381112","cityId":null,"cityName":"Ulan Bator","hotelId":381112,"hotelName":"Kaiser","address":"","phones":"","fax":"","email":"","url":"","countryIso2":"MN","countryName":"Mongolia","hotelRating":"3","latitude":"47.9163","longitude":"106.927","state_id":null,"state_name":null,"country_id":null},{"active":false,"Giataid":"408716","cityId":null,"cityName":"Ulan Bator","hotelId":408716,"hotelName":"Best Western Premier Tuushin Hotel","address":"Prime Minister Amar's street 15,Ulaanbaatar142000,Mongolia","phones":"+97611323162","fax":"+97611325903","email":"info@bestwesternmongolia.mn","url":"http://bestwesternmongolia.mn","countryIso2":"MN","countryName":"Mongolia","hotelRating":"5","latitude":"47.9203","longitude":"106.921","state_id":null,"state_name":null,"country_id":null},{"active":false,"Giataid":"426988","cityId":null,"cityName":"Ulan Bator","hotelId":426988,"hotelName":"The Corporate Hotel Ulaanbaatar","address":"","phones":"+97611334411","fax":"","email":"","url":"","countryIso2":"MN","countryName":"Mongolia","hotelRating":"4","latitude":"47.9131","longitude":"106.914","state_id":null,"state_name":null,"country_id":null},{"active":false,"Giataid":"432248","cityId":null,"cityName":"Ulan Bator","hotelId":432248,"hotelName":"Shangri-La Ulaanbaatar","address":"Olympic Street 19,Sukhbaatar District-1,Ulaanbaatar 212513,Mongolia","phones":"","fax":"+97677027799","email":"slub@shangri-la.com","url":"http://www.shangri-la.com/ulaanbaatar/shangrila","countryIso2":"MN","countryName":"Mongolia","hotelRating":"5","latitude":"47.9134","longitude":"106.922","state_id":null,"state_name":null,"country_id":null},{"active":false,"Giataid":"454286","cityId":null,"cityName":"Ulan Bator","hotelId":454286,"hotelName":"Sunjin Grand Hotel","address":"","phones":"","fax":"","email":"","url":"","countryIso2":"MN","countryName":"Mongolia","hotelRating":"4","latitude":"47.9129","longitude":"106.973","state_id":null,"state_name":null,"country_id":null},{"active":false,"Giataid":"454902","cityId":null,"cityName":"Ulan Bator","hotelId":454902,"hotelName":"Puma Imperial Hotel","address":"University Street,Sukhbaatar District,Ulaanbaatar,Mongolia","phones":"","fax":"","email":"","url":"","countryIso2":"MN","countryName":"Mongolia","hotelRating":"3","latitude":"47.9214","longitude":"106.92","state_id":null,"state_name":null,"country_id":null},{"active":false,"Giataid":"455663","cityId":null,"cityName":"Ulan Bator","hotelId":455663,"hotelName":"New World Hotel","address":"","phones":"","fax":"","email":"","url":"","countryIso2":"MN","countryName":"Mongolia","hotelRating":"3","latitude":"47.9319","longitude":"106.925","state_id":null,"state_name":null,"country_id":null},{"active":false,"Giataid":"456082","cityId":null,"cityName":"Ulan Bator","hotelId":456082,"hotelName":"Royal House Hotel","address":"Nam Yan Ju Street,Bayanzurkh District,Ulaanbaatar 212513,Mongolia","phones":"+97611464088","fax":"","email":"","url":"","countryIso2":"MN","countryName":"Mongolia","hotelRating":"3","latitude":"47.9151","longitude":"106.945","state_id":null,"state_name":null,"country_id":null},{"active":false,"Giataid":"456437","cityId":null,"cityName":"Ulan Bator","hotelId":456437,"hotelName":"Amure Hotel","address":"","phones":"","fax":"","email":"","url":"","countryIso2":"MN","countryName":"Mongolia","hotelRating":"3","latitude":"47.9182","longitude":"106.883","state_id":null,"state_name":null,"country_id":null},{"active":false,"Giataid":"457881","cityId":null,"cityName":"Ulan Bator","hotelId":457881,"hotelName":"Naranbulag Hotel","address":"","phones":"","fax":"","email":"","url":"","countryIso2":"MN","countryName":"Mongolia","hotelRating":"3","latitude":"47.9099","longitude":"106.877","state_id":null,"state_name":null,"country_id":null},{"active":false,"Giataid":"458022","cityId":null,"cityName":"Ulan Bator","hotelId":458022,"hotelName":"TOTO Hotel","address":"","phones":"","fax":"","email":"","url":"","countryIso2":"MN","countryName":"Mongolia","hotelRating":"2","latitude":"47.9167","longitude":"106.908","state_id":null,"state_name":null,"country_id":null},{"active":false,"Giataid":"458416","cityId":null,"cityName":"Ulan Bator","hotelId":458416,"hotelName":"Zaluuchuud Hotel Ulaanbaatar","address":"Baga toiruu 43,Ulaanbaatar 212513,Mongolia","phones":"","fax":"","email":"","url":"","countryIso2":"MN","countryName":"Mongolia","hotelRating":"3","latitude":"47.9245","longitude":"106.922","state_id":null,"state_name":null,"country_id":null},{"active":false,"Giataid":"458514","cityId":null,"cityName":"Ulan Bator","hotelId":458514,"hotelName":"B & G Hotel","address":"","phones":"","fax":"","email":"","url":"","countryIso2":"MN","countryName":"Mongolia","hotelRating":"2","latitude":"47.9124","longitude":"106.972","state_id":null,"state_name":null,"country_id":null},{"active":false,"Giataid":"458526","cityId":null,"cityName":"Ulan Bator","hotelId":458526,"hotelName":"Khunnu Hotel","address":"","phones":"","fax":"","email":"","url":"","countryIso2":"MN","countryName":"Mongolia","hotelRating":"3","latitude":"47.9299","longitude":"106.93","state_id":null,"state_name":null,"country_id":null},{"active":false,"Giataid":"458547","cityId":null,"cityName":"Ulan Bator","hotelId":458547,"hotelName":"Guide Hotel","address":"","phones":"","fax":"","email":"","url":"","countryIso2":"MN","countryName":"Mongolia","hotelRating":"2","latitude":"47.9269","longitude":"106.919","state_id":null,"state_name":null,"country_id":null},{"active":false,"Giataid":"458556","cityId":null,"cityName":"Ulan Bator","hotelId":458556,"hotelName":"Narantuul Hotel","address":"Peace Avenue,West Cross Road,Ulaanbaatar 212513,Mongolia","phones":"","fax":"","email":"","url":"","countryIso2":"MN","countryName":"Mongolia","hotelRating":"3","latitude":"47.9156","longitude":"106.896","state_id":null,"state_name":null,"country_id":null},{"active":false,"Giataid":"459235","cityId":null,"cityName":"Ulan Bator","hotelId":459235,"hotelName":"San hotel","address":"","phones":"","fax":"","email":"","url":"","countryIso2":"MN","countryName":"Mongolia","hotelRating":"1","latitude":"47.9266","longitude":"106.911","state_id":null,"state_name":null,"country_id":null},{"active":false,"Giataid":"459245","cityId":null,"cityName":"Ulan Bator","hotelId":459245,"hotelName":"Sant Asar Hotel","address":"","phones":"","fax":"","email":"","url":"","countryIso2":"MN","countryName":"Mongolia","hotelRating":"1","latitude":"47.9142","longitude":"106.909","state_id":null,"state_name":null,"country_id":null},{"active":false,"Giataid":"475942","cityId":null,"cityName":"Ulan Bator","hotelId":475942,"hotelName":"Michid","address":"","phones":"","fax":"","email":"","url":"","countryIso2":"MN","countryName":"Mongolia","hotelRating":"1","latitude":"47.9183","longitude":"106.888","state_id":null,"state_name":null,"country_id":null},{"active":false,"Giataid":"623252","cityId":null,"cityName":"Darkhan","hotelId":623252,"hotelName":"Buudai Hotel","address":"5th District,10th Bag,Darkhan-Uul aimag,Darhan 210248,Mongolia","phones":"+97670377037","fax":"","email":"info@buudaihotel.mn","url":"http://buudai-mn.book.direct/rooms.htm","countryIso2":"MN","countryName":"Mongolia","hotelRating":"1","latitude":"0","longitude":"0","state_id":null,"state_name":null,"country_id":null},{"active":false,"Giataid":"625010","cityId":null,"cityName":"Ulan Bator","hotelId":625010,"hotelName":"Tsolmon Travel","address":"Nomun Hothon,Building 37,2nd Floor,Sukhbaatar District,Ulaanbaatar 210642,Mongolia","phones":"+97611322870","fax":"","email":"","url":"","countryIso2":"MN","countryName":"Mongolia","hotelRating":"1","latitude":"47.9113","longitude":"106.905","state_id":null,"state_name":null,"country_id":null},{"active":false,"Giataid":"727469","cityId":null,"cityName":"Ulan Bator","hotelId":727469,"hotelName":"Seoul hotel Mongolia","address":"Chingeltei District,Peace Avenue,Baruun,Ulaanbaatar,Mongolia","phones":"","fax":"","email":"","url":"","countryIso2":"MN","countryName":"Mongolia","hotelRating":"1","latitude":"47.9164","longitude":"106.902","state_id":null,"state_name":null,"country_id":null},{"active":false,"Giataid":"728209","cityId":null,"cityName":"Ulan Bator","hotelId":728209,"hotelName":"Blue Marmot Hostel&Tours","address":"Door 1B,20/2 Apartment,Selbe Khotkhon,1st Khoroo,Bayanzurkh District,Ulaanbaatar,Mongolia","phones":"","fax":"","email":"","url":"","countryIso2":"MN","countryName":"Mongolia","hotelRating":"1","latitude":"47.9167","longitude":"106.908","state_id":null,"state_name":null,"country_id":null},{"active":false,"Giataid":"730240","cityId":null,"cityName":"Ulan Bator","hotelId":730240,"hotelName":"UBINN Hotel & Gallery","address":"5th Khoroo,Sambuu Street 35/41,Chingeltei District,Ulaanbaatar 110000,Mongolia","phones":"+97677366666","fax":"","email":"info@ubinnhotel.com","url":"http://www.ubinnhotel.com/","countryIso2":"MN","countryName":"Mongolia","hotelRating":"1","latitude":"47.9217","longitude":"106.904","state_id":null,"state_name":null,"country_id":null},{"active":false,"Giataid":"733129","cityId":null,"cityName":"Ulan Bator","hotelId":733129,"hotelName":"Ichmon Hotel","address":"3rd Khoroo,Tokyo Street,Bayanzurkh District,Ulaanbaatar 13381,Mongolia","phones":"","fax":"","email":"ichmonhotel@gmail.com","url":"https://www.ichmonhotel.com","countryIso2":"MN","countryName":"Mongolia","hotelRating":"1","latitude":"47.9167","longitude":"106.908","state_id":null,"state_name":null,"country_id":null},{"active":false,"Giataid":"740570","cityId":null,"cityName":"Ulan Bator","hotelId":740570,"hotelName":"Royal House Hotel 2","address":"Khasbaatar Street 22,Bayangol,Ulaanbaatar 116065,Mongolia","phones":"","fax":"","email":"","url":"","countryIso2":"MN","countryName":"Mongolia","hotelRating":"1","latitude":"47.9167","longitude":"106.908","state_id":null,"state_name":null,"country_id":null},{"active":false,"Giataid":"758302","cityId":null,"cityName":"Ulan Bator","hotelId":758302,"hotelName":"Hotel Street63","address":"Building 63,Peace Avenue,6th Khoroo,Bayanzurkh District,Ulaanbaatar,Mongolia","phones":"","fax":"","email":"","url":"","countryIso2":"MN","countryName":"Mongolia","hotelRating":"1","latitude":"47.9167","longitude":"106.908","state_id":null,"state_name":null,"country_id":null},{"active":false,"Giataid":"797147","cityId":null,"cityName":"Ulan Bator","hotelId":797147,"hotelName":"Sunrise Hotel","address":"2nd Khoroo,Narnii Zam 25,5Th Sub District,Sukhbaatar District,Bayangol,Ulaanbaatar 142530,Mongolia","phones":"","fax":"","email":"","url":"","countryIso2":"MN","countryName":"Mongolia","hotelRating":"1","latitude":"47.9167","longitude":"106.908","state_id":null,"state_name":null,"country_id":null},{"active":false,"Giataid":"798007","cityId":null,"cityName":"Ulan Bator","hotelId":798007,"hotelName":"Lotus Guesthouse Mongolia","address":"Building-17,Entrance 2,Apartment 15,Baga Toiruu Street,Across from School 5,Chingeltei District,Ulaanbaatar 621535,Mongolia","phones":"+97611325967","fax":"","email":"lotusguest@gmail.com","url":"http://lotusguest.com/","countryIso2":"MN","countryName":"Mongolia","hotelRating":"1","latitude":"47.9167","longitude":"106.908","state_id":null,"state_name":null,"country_id":null},{"active":false,"Giataid":"798052","cityId":null,"cityName":"Ulan Bator","hotelId":798052,"hotelName":"Secret Garden","address":"Bayangol District,Damdinbazar Street 89/1,Ulaanbaatar,Mongolia","phones":"","fax":"","email":"","url":"","countryIso2":"MN","countryName":"Mongolia","hotelRating":"1","latitude":"47.9167","longitude":"106.908","state_id":null,"state_name":null,"country_id":null},{"active":false,"Giataid":"798213","cityId":null,"cityName":"Ulan Bator","hotelId":798213,"hotelName":"Diplomat Hotel","address":"Chingeltei,L.Laagan's Street,Ulaanbaatar 211238,Mongolia","phones":"","fax":"","email":"","url":"","countryIso2":"MN","countryName":"Mongolia","hotelRating":"1","latitude":"47.9167","longitude":"106.908","state_id":null,"state_name":null,"country_id":null},{"active":false,"Giataid":"798219","cityId":null,"cityName":"Ulan Bator","hotelId":798219,"hotelName":"Good Karma Hostel","address":"Inside Lamrim Monastery,Zanabazar Street,Bayangol,Ulaanbaatar 160401,Mongolia","phones":"","fax":"","email":"","url":"","countryIso2":"MN","countryName":"Mongolia","hotelRating":"1","latitude":"47.9167","longitude":"106.908","state_id":null,"state_name":null,"country_id":null},{"active":false,"Giataid":"798231","cityId":null,"cityName":"Ulan Bator","hotelId":798231,"hotelName":"Gobi And Mongolia","address":"N Sodnom Street 28,Ulaanbaatar 210620,Mongolia","phones":"","fax":"","email":"","url":"","countryIso2":"MN","countryName":"Mongolia","hotelRating":"1","latitude":"47.9167","longitude":"106.908","state_id":null,"state_name":null,"country_id":null},{"active":false,"Giataid":"798287","cityId":null,"cityName":"Ulan Bator","hotelId":798287,"hotelName":"Marco Polo Hotel","address":"Sukhbaatar,Jalan Batmunkh Street,Ulaanbaatar 141920,Mongolia","phones":"","fax":"","email":"","url":"","countryIso2":"MN","countryName":"Mongolia","hotelRating":"1","latitude":"47.9167","longitude":"106.908","state_id":null,"state_name":null,"country_id":null},{"active":false,"Giataid":"798290","cityId":null,"cityName":"Ulan Bator","hotelId":798290,"hotelName":"H7 Hostel","address":"Peace Avenue,Chingeltei,Ulaanbaatar 015172,Mongolia","phones":"","fax":"","email":"","url":"","countryIso2":"MN","countryName":"Mongolia","hotelRating":"1","latitude":"47.9167","longitude":"106.908","state_id":null,"state_name":null,"country_id":null},{"active":false,"Giataid":"798781","cityId":null,"cityName":"Ulan Bator","hotelId":798781,"hotelName":"Angel Ulaanbaatar","address":"Chingeltei,Choimbol Street 17/6,191111 Ulaanbaatar,Chingeltei District,Mongolia","phones":"","fax":"","email":"","url":"","countryIso2":"MN","countryName":"Mongolia","hotelRating":"1","latitude":"47.9167","longitude":"106.908","state_id":null,"state_name":null,"country_id":null},{"active":false,"Giataid":"798875","cityId":null,"cityName":"Ulan Bator","hotelId":798875,"hotelName":"G Hotel","address":"Nukht Road 14-15,Ulaanbaatar 171006,Mongolia","phones":"","fax":"","email":"","url":"","countryIso2":"MN","countryName":"Mongolia","hotelRating":"1","latitude":"47.9167","longitude":"106.908","state_id":null,"state_name":null,"country_id":null},{"active":false,"Giataid":"798912","cityId":null,"cityName":"Ulan Bator","hotelId":798912,"hotelName":"Great Empire Hotel","address":"Sun Road 435-3,Bayangol,Ulaanbaatar 160522,Mongolia","phones":"","fax":"","email":"","url":"","countryIso2":"MN","countryName":"Mongolia","hotelRating":"1","latitude":"47.9167","longitude":"106.908","state_id":null,"state_name":null,"country_id":null},{"active":false,"Giataid":"799020","cityId":null,"cityName":"Ulan Bator","hotelId":799020,"hotelName":"Handu Hotel","address":"6th Micro District,3th Khoroolol,Bayangol,Ulaanbaatar 000976,Mongolia","phones":"","fax":"","email":"","url":"","countryIso2":"MN","countryName":"Mongolia","hotelRating":"1","latitude":"47.9167","longitude":"106.908","state_id":null,"state_name":null,"country_id":null},{"active":false,"Giataid":"799066","cityId":null,"cityName":"Ulan Bator","hotelId":799066,"hotelName":"Erin Hotel","address":"Peace Avenue 34,Bayangol District,Ulaanbaatar 122123,Mongolia","phones":"","fax":"","email":"","url":"","countryIso2":"MN","countryName":"Mongolia","hotelRating":"1","latitude":"47.9167","longitude":"106.908","state_id":null,"state_name":null,"country_id":null},{"active":false,"Giataid":"800067","cityId":null,"cityName":"Ulan Bator","hotelId":800067,"hotelName":"Alpha Hotel Mongolia","address":"Left side Of The Traffic Police,Narny Zam 64,Khoroo 1,Sukhbaatar,Ulaanbaatar 210648,Mongolia","phones":"+97675750404","fax":"+97675776081","email":"reservation@alphahotel.mn","url":"http://www.alphahotel.mn/","countryIso2":"MN","countryName":"Mongolia","hotelRating":"2","latitude":"47.9167","longitude":"106.908","state_id":null,"state_name":null,"country_id":null},{"active":false,"Giataid":"800074","cityId":null,"cityName":"Ulan Bator","hotelId":800074,"hotelName":"Dulguun Nuur","address":"Ikh Toiruu,Sukhbaatar District,Ulaanbaatar 212055,Mongolia","phones":"","fax":"","email":"","url":"","countryIso2":"MN","countryName":"Mongolia","hotelRating":"1","latitude":"47.9167","longitude":"106.908","state_id":null,"state_name":null,"country_id":null},{"active":false,"Giataid":"800079","cityId":null,"cityName":"Ulan Bator","hotelId":800079,"hotelName":"Modern Mongol Hostel","address":"202 A Block,2nd Floor,Elite Tower,Chinggis Avenue 14,Sukhbaatar District,Ulaanbaatar 110000,Mongolia","phones":"","fax":"","email":"booking@hostel.mn","url":"http://www.hostel.mn","countryIso2":"MN","countryName":"Mongolia","hotelRating":"1","latitude":"47.9167","longitude":"106.908","state_id":null,"state_name":null,"country_id":null},{"active":false,"Giataid":"800137","cityId":null,"cityName":"Ulan Bator","hotelId":800137,"hotelName":"Voyage Plus Hotel","address":"North West of Arts College,Baga Toiruu Street,Ulaanbaatar 211213,Mongolia","phones":"+97611330600","fax":"","email":"voyageplus@voyagehotel.mn","url":"http://voyagehotel.mn/voyageplus/","countryIso2":"MN","countryName":"Mongolia","hotelRating":"1","latitude":"47.9167","longitude":"106.908","state_id":null,"state_name":null,"country_id":null},{"active":false,"Giataid":"800182","cityId":null,"cityName":"Ulan Bator","hotelId":800182,"hotelName":"Hawaii Guesthouse1","address":"Mongolia Baynzurh District 25Th Khoroo,476340 Ulaanbaatar,Mongolia","phones":"","fax":"","email":"","url":"","countryIso2":"MN","countryName":"Mongolia","hotelRating":"1","latitude":"47.9167","longitude":"106.908","state_id":null,"state_name":null,"country_id":null},{"active":false,"Giataid":"802212","cityId":null,"cityName":"Ulan Bator","hotelId":802212,"hotelName":"9n9 Hotel","address":"Bayangol,Khasbaatar Gudamj 37/1,Ulaanbaatar 160611,Mongolia","phones":"","fax":"","email":"","url":"","countryIso2":"MN","countryName":"Mongolia","hotelRating":"1","latitude":"47.9167","longitude":"106.908","state_id":null,"state_name":null,"country_id":null},{"active":false,"Giataid":"802231","cityId":null,"cityName":"Ulan Bator","hotelId":802231,"hotelName":"Etugen Hotel","address":"Magsarjav Street,4-Khoroo,Bayangol,Ulaanbaatar 210535,Bayangol District,Mongolia","phones":"","fax":"","email":"","url":"","countryIso2":"MN","countryName":"Mongolia","hotelRating":"1","latitude":"47.9167","longitude":"106.908","state_id":null,"state_name":null,"country_id":null},{"active":false,"Giataid":"803412","cityId":null,"cityName":"Ulan Bator","hotelId":803412,"hotelName":"Khabu Hotel","address":"1 Khoroo,Zamchin Street 48A,Ulaanbaatar,Bayangol District,Mongolia","phones":"+97621258844","fax":"","email":"info@khabu.mn","url":"http://www.khabu.mn","countryIso2":"MN","countryName":"Mongolia","hotelRating":"1","latitude":"47.9167","longitude":"106.908","state_id":null,"state_name":null,"country_id":null},{"active":false,"Giataid":"808101","cityId":null,"cityName":"Ulan Bator","hotelId":808101,"hotelName":"Topaz Hotel","address":"10th Khoroo,Sukhbaatar District,Ulaanbaatar 211239,Mongolia","phones":"","fax":"","email":"","url":"","countryIso2":"MN","countryName":"Mongolia","hotelRating":"1","latitude":"47.9167","longitude":"106.908","state_id":null,"state_name":null,"country_id":null},{"active":false,"Giataid":"808104","cityId":null,"cityName":"Ulan Bator","hotelId":808104,"hotelName":"Idre Hostel","address":"Building 22,Narnii Guur Street,Apartment 1,Byangol,Ulaanbaatar 210644,Mongolia","phones":"","fax":"","email":"","url":"","countryIso2":"MN","countryName":"Mongolia","hotelRating":"1","latitude":"47.9167","longitude":"106.908","state_id":null,"state_name":null,"country_id":null},{"active":false,"Giataid":"808110","cityId":null,"cityName":"Ulan Bator","hotelId":808110,"hotelName":"Voyage Hotel","address":"Bayangol District, 3rd khoroo, Narny Road,Teeverchid Street 2,Bayangol,Ulaanbaatar 211219,Mongolia","phones":"","fax":"","email":"","url":"","countryIso2":"MN","countryName":"Mongolia","hotelRating":"1","latitude":"47.9167","longitude":"106.908","state_id":null,"state_name":null,"country_id":null},{"active":false,"Giataid":"808268","cityId":null,"cityName":"Ulan Bator","hotelId":808268,"hotelName":"Hovsgol Travel Hotel","address":"Bayanzurkh District,Namiyanju Street 3,Ulaanbaatar 210351,Mongolia","phones":"","fax":"","email":"","url":"","countryIso2":"MN","countryName":"Mongolia","hotelRating":"1","latitude":"47.9167","longitude":"106.908","state_id":null,"state_name":null,"country_id":null},{"active":false,"Giataid":"808281","cityId":null,"cityName":"Ulan Bator","hotelId":808281,"hotelName":"Resort World Terelj Hotel","address":"The Right Side Of The Frog Reindeer Complex,The 6Th Khoroo Of Ulaanbaatar,Ulaanbaatar 130009,Nalaikh,Mongolia","phones":"","fax":"","email":"info@resortworldterelj.com","url":"http://www.resortworldterelj.com","countryIso2":"MN","countryName":"Mongolia","hotelRating":"1","latitude":"47.9167","longitude":"106.908","state_id":null,"state_name":null,"country_id":null},{"active":false,"Giataid":"809303","cityId":null,"cityName":"Ulan Bator","hotelId":809303,"hotelName":"Q Hotel","address":"Narnia Zam Street,4th Khoroo,Bayangol District,Ulaanbaatar 016050,Mongolia","phones":"","fax":"","email":"","url":"","countryIso2":"MN","countryName":"Mongolia","hotelRating":"1","latitude":"47.9167","longitude":"106.908","state_id":null,"state_name":null,"country_id":null},{"active":false,"Giataid":"809308","cityId":null,"cityName":"Ulan Bator","hotelId":809308,"hotelName":"Khaan Jims Tourist Camp","address":"Erdene Sum,Ulaanbaatar,Tuv Aimag,Mongolia","phones":"","fax":"","email":"Info@khaanjims.mn","url":"http://khaanjims.mn","countryIso2":"MN","countryName":"Mongolia","hotelRating":"1","latitude":"47.9167","longitude":"106.908","state_id":null,"state_name":null,"country_id":null},{"active":false,"Giataid":"809341","cityId":null,"cityName":"Ulan Bator","hotelId":809341,"hotelName":"The Voli Hostel And Tours","address":"Second Floor,Voli Apartment 17,Student Street,11st Khoroolol,Khoroo 8,Sukhbaatar District,Ulaanbaatar 123456,Mongolia","phones":"","fax":"","email":"","url":"","countryIso2":"MN","countryName":"Mongolia","hotelRating":"1","latitude":"47.9167","longitude":"106.908","state_id":null,"state_name":null,"country_id":null},{"active":false,"Giataid":"810734","cityId":null,"cityName":"Ulan Bator","hotelId":810734,"hotelName":"Khaan Hotel","address":"Ikh Toiruu 22,Sukhbaatar,Ulaanbaatar 214181,Mongolia","phones":"","fax":"","email":"","url":"","countryIso2":"MN","countryName":"Mongolia","hotelRating":"1","latitude":"47.9167","longitude":"106.908","state_id":null,"state_name":null,"country_id":null},{"active":false,"Giataid":"812055","cityId":null,"cityName":"Ulan Bator","hotelId":812055,"hotelName":"Negdelchin Hotel","address":"6th khoroo,Bayanzurkh District,Ulaanbaatar 212060,Mongolia","phones":"","fax":"","email":"","url":"","countryIso2":"MN","countryName":"Mongolia","hotelRating":"1","latitude":"47.9167","longitude":"106.908","state_id":null,"state_name":null,"country_id":null},{"active":false,"Giataid":"812062","cityId":null,"cityName":"Ulan Bator","hotelId":812062,"hotelName":"Legend Hills Mongolia Guest House","address":"Door 33 Building 35,1st Khoroo,Chingeltei District,Ulaanbaatar 210433,Mongolia","phones":"","fax":"","email":"contact@legendtourmongolia.com","url":"http://legendtourmongolia.com","countryIso2":"MN","countryName":"Mongolia","hotelRating":"1","latitude":"47.9167","longitude":"106.908","state_id":null,"state_name":null,"country_id":null},{"active":false,"Giataid":"812128","cityId":null,"cityName":"Ulan Bator","hotelId":812128,"hotelName":"Amar Hotel Ulaanbaatar","address":"Next to Kino Uildver Bus Stop South,Peace Avenue 13-1,Bayanzurh District,Ulaanbaatar 013330,Mongolia","phones":"","fax":"","email":"","url":"","countryIso2":"MN","countryName":"Mongolia","hotelRating":"1","latitude":"47.9167","longitude":"106.908","state_id":null,"state_name":null,"country_id":null},{"active":false,"Giataid":"816473","cityId":null,"cityName":"Ulan Bator","hotelId":816473,"hotelName":"Mongol Khatad Hostel","address":"5th Floor,Building 10B,Bayangol Apartment 38,Khoroo 6,Ulaanbaatar 160800,Bayangol,Mongolia","phones":"","fax":"","email":"","url":"","countryIso2":"MN","countryName":"Mongolia","hotelRating":"1","latitude":"47.9167","longitude":"106.908","state_id":null,"state_name":null,"country_id":null},{"active":false,"Giataid":"821242","cityId":null,"cityName":"Ulan Bator","hotelId":821242,"hotelName":"Camel Track","address":"Seoul Street,Building 14 B Apartment,Floor Number 1-4,Door Code 16,Khoroo 3,Sukhbaatar District,Ulaanbaatar 123456,Mongolia","phones":"+97699794114","fax":"","email":"info@camel-track.com","url":"http://camel-track.com","countryIso2":"MN","countryName":"Mongolia","hotelRating":"1","latitude":"47.9113","longitude":"106.905","state_id":null,"state_name":null,"country_id":null},{"active":false,"Giataid":"821275","cityId":null,"cityName":"Ulan Bator","hotelId":821275,"hotelName":"Adventure Rider Mongolia","address":"Avzaga Apart 18,Tourist street,Ulaanbaatar 15172,Ulaanbaatar 210000,Mongolia","phones":"","fax":"","email":"","url":"","countryIso2":"MN","countryName":"Mongolia","hotelRating":"1","latitude":"47.9167","longitude":"106.908","state_id":null,"state_name":null,"country_id":null},{"active":false,"Giataid":"823562","cityId":null,"cityName":"Ulan Bator","hotelId":823562,"hotelName":"X residence","address":"Peace Avenue Street,Bayanzurkh District 8th Khoroo,X Apartment,Bayanzurkh,Ulaanbaatar 133021,Mongolia","phones":"","fax":"","email":"","url":"","countryIso2":"MN","countryName":"Mongolia","hotelRating":"1","latitude":"47.9167","longitude":"106.908","state_id":null,"state_name":null,"country_id":null},{"active":false,"Giataid":"824576","cityId":null,"cityName":"Ulan Bator","hotelId":824576,"hotelName":"UB City Guest House","address":"Peace Avenue 3,Khoroo 15,Khoroolol 35,Bayanzurkh,Ulaanbaatar 011100,Mongolia","phones":"","fax":"","email":"","url":"","countryIso2":"MN","countryName":"Mongolia","hotelRating":"1","latitude":"47.9167","longitude":"106.908","state_id":null,"state_name":null,"country_id":null},{"active":false,"Giataid":"683193","cityId":null,"cityName":"Bayandelger","hotelId":10069227,"hotelName":"Steppe Nomads Eco Camp","address":"Galuut Bag,Bayandelger Soum,Tuv Province,Mongolia","phones":"","fax":"","email":"","url":"","countryIso2":"MN","countryName":"Mongolia","hotelRating":"1","latitude":"47.6056","longitude":"108.397","state_id":null,"state_name":null,"country_id":null},{"active":false,"Giataid":"657245","cityId":null,"cityName":"Ulan Bator","hotelId":10071181,"hotelName":"Hs Khaan Resort Hotel","address":"Khui doloon hudag,Argalant soum,Tov aimag,Ulaanbaatar,Mongolia","phones":"+97699085311","fax":"","email":"","url":"","countryIso2":"MN","countryName":"Mongolia","hotelRating":"3","latitude":"47.9707","longitude":"106.48","state_id":null,"state_name":null,"country_id":null},{"active":false,"Giataid":"457795","cityId":null,"cityName":"Ulan Bator","hotelId":20002178,"hotelName":"Springs Hotel Ulaanbaatar","address":"1st Khoroo,Olympic Street 2A,Ulaanbaatar 210648,Mongolia","phones":"+97611320738","fax":"","email":"reservations@springshotel.mn","url":"https://springshotel.mn","countryIso2":"MN","countryName":"Mongolia","hotelRating":"4","latitude":"47.9156","longitude":"106.921","state_id":null,"state_name":null,"country_id":null},{"active":false,"Giataid":"82325","cityId":null,"cityName":"Ulan Bator","hotelId":20002377,"hotelName":"Mika","address":"Foreign Embassys Street,1st Khoroo,PO Box 981,Ulaanbaatar 211213,Mongolia","phones":"+97611310903","fax":"+97611327704","email":"mika@mika.mn","url":"http://www.mika.mn/pages/eng/hotel/hotel.html","countryIso2":"MN","countryName":"Mongolia","hotelRating":"3","latitude":"47.915","longitude":"106.926","state_id":null,"state_name":null,"country_id":null},{"active":false,"Giataid":"726463","cityId":null,"cityName":"Ulan Bator","hotelId":20002628,"hotelName":"Royal Mountain Hotel","address":"Sharav Street 6,Chinggis Avenue,Khan-Uul District 3,Ulaanbaatar,Mongolia","phones":"","fax":"","email":"","url":"","countryIso2":"MN","countryName":"Mongolia","hotelRating":"0","latitude":"47.8987","longitude":"106.896","state_id":null,"state_name":null,"country_id":null},{"active":false,"Giataid":"622963","cityId":null,"cityName":"Ulan Bator","hotelId":20002858,"hotelName":"Sentii Hotel","address":"18th Khoroo,Songinokhairhan District,Ulaanbaatar 211137,Mongolia","phones":"","fax":"","email":"","url":"","countryIso2":"MN","countryName":"Mongolia","hotelRating":"0","latitude":"47.9113","longitude":"106.815","state_id":null,"state_name":null,"country_id":null},{"active":false,"Giataid":"475665","cityId":null,"cityName":"Ulan Bator","hotelId":20003068,"hotelName":"TnT Hotel","address":"Bayangol Duureg 20-r horoo,Ulaanbaatar 191111,Mongolia","phones":"","fax":"","email":"","url":"","countryIso2":"MN","countryName":"Mongolia","hotelRating":"0","latitude":"47.9125","longitude":"106.853","state_id":null,"state_name":null,"country_id":null},{"active":false,"Giataid":"676656","cityId":null,"cityName":"Ulan Bator","hotelId":20003283,"hotelName":"Top Hostel and Tours","address":"Tourist Street,Building 35-10 apartment (door code 3578),Khoroo 1,Chingeltei District,Ulaanbaatar,Mongolia","phones":"+97677037200","fax":"","email":"info@toptoursmongolia.com","url":"http://toptoursmongolia.com/?page_id=471","countryIso2":"MN","countryName":"Mongolia","hotelRating":"0","latitude":"47.9199","longitude":"106.907","state_id":null,"state_name":null,"country_id":null},{"active":false,"Giataid":"476648","cityId":null,"cityName":"Ulan Bator","hotelId":20003486,"hotelName":"H9 Hotel Nine Ulaanbaatar","address":"8th khoroo,Amar street 2,Ulaanbaatar 212513,Sukhbaatar district,Mongolia","phones":"+97611330330","fax":"+97611323847","email":"reservation@hotelnine.mn","url":"https://www.hotelnine.mn","countryIso2":"MN","countryName":"Mongolia","hotelRating":"3","latitude":"47.9203","longitude":"106.922","state_id":null,"state_name":null,"country_id":null},{"active":false,"Giataid":"622908","cityId":null,"cityName":"Ulan Bator","hotelId":20003671,"hotelName":"Ab Hotel","address":"Chin Van G.Chagdarjav Street,Ulaanbaatar,Mongolia","phones":"","fax":"","email":"info@abhotel.biz","url":"http://www.abhotel.biz/","countryIso2":"MN","countryName":"Mongolia","hotelRating":"0","latitude":"47.9162","longitude":"106.926","state_id":null,"state_name":null,"country_id":null},{"active":false,"Giataid":"474412","cityId":null,"cityName":"Ulan Bator","hotelId":20003881,"hotelName":"Mongol Imperial","address":"Peace Tower 18th floor,Street of Enkhtaivan 54,Ulaanbaatar 210524,Mongolia","phones":"","fax":"","email":"","url":"","countryIso2":"MN","countryName":"Mongolia","hotelRating":"0","latitude":"47.9163","longitude":"106.902","state_id":null,"state_name":null,"country_id":null},{"active":false,"Giataid":"474460","cityId":null,"cityName":"Ulan Bator","hotelId":20004119,"hotelName":"Urgoo hotel","address":"Number 6, M100 Building,Tourist Street, Khoroo-1,Chingeltei District,Ulaanbaatar city 260636,Mongolia,Mongolia","phones":"+97670116044","fax":"+97670112344","email":"info@urgoohotel.com","url":"http://www.urgoohotel.com","countryIso2":"MN","countryName":"Mongolia","hotelRating":"0","latitude":"47.92","longitude":"106.915","state_id":null,"state_name":null,"country_id":null},{"active":false,"Giataid":"622928","cityId":null,"cityName":"Ulan Bator","hotelId":20004231,"hotelName":"Great Hotel","address":"Seoul Street,2-R Khoroo,Byangol District,Ulaanbaatar,Mongolia","phones":"","fax":"","email":"","url":"","countryIso2":"MN","countryName":"Mongolia","hotelRating":"0","latitude":"47.9146","longitude":"106.892","state_id":null,"state_name":null,"country_id":null},{"active":false,"Giataid":"623279","cityId":null,"cityName":"Ulan Bator","hotelId":20004407,"hotelName":"Zolo Hotel","address":"Narnii Road Sukhbaatar,District 3th Khoroo,Ulaanbaatar,Mongolia","phones":"+97611331222","fax":"+97670111407","email":"info@zolostar.mn","url":"http://www.zolostar.mn/","countryIso2":"MN","countryName":"Mongolia","hotelRating":"0","latitude":"47.9066","longitude":"106.899","state_id":null,"state_name":null,"country_id":null},{"active":false,"Giataid":"622900","cityId":null,"cityName":"Ulan Bator","hotelId":20004576,"hotelName":"Good Day Hotel","address":"Bayangol-Distric,Dilav Khutagt Jamsranjav Street 14,Bayangol,Ulaanbaatar 131200,Mongolia","phones":"","fax":"","email":"","url":"","countryIso2":"MN","countryName":"Mongolia","hotelRating":"0","latitude":"47.9182","longitude":"106.872","state_id":null,"state_name":null,"country_id":null},{"active":false,"Giataid":"456916","cityId":null,"cityName":"Ulan Bator","hotelId":20004724,"hotelName":"White House Hotel","address":"Amarsanaa Street,210524 Ulaanbaatar,PO BOX 772,Mongolia","phones":"+97611369967","fax":"","email":"info@whitehousehotel.mn","url":"http://whitehousehotel.mn","countryIso2":"MN","countryName":"Mongolia","hotelRating":"3","latitude":"47.9184","longitude":"106.89","state_id":null,"state_name":null,"country_id":null},{"active":false,"Giataid":"82324","cityId":null,"cityName":"Ulan Bator","hotelId":20004913,"hotelName":"Ulaanbaatar","address":"Sukhbaatar Square 14,Ulaanbaatar 210645,Mongolia","phones":"+97611320620","fax":"+97611324485","email":"reservations@ubhotel.mn","url":"http://www.ubhotel.mn/","countryIso2":"MN","countryName":"Mongolia","hotelRating":"5","latitude":"47.9188","longitude":"106.923","state_id":null,"state_name":null,"country_id":null},{"active":false,"Giataid":"726270","cityId":null,"cityName":"Ulan Bator","hotelId":20005128,"hotelName":"UB Suites Hotel","address":"B Dorj Street,Suvdan Sondor,Bayanzurkh District,2nd Khoroo,Ulaanbaatar 13361,Mongolia","phones":"+97680808170","fax":"+97680808170","email":"info@ubsuiteshotel.mn","url":"http://www.ubsuiteshotel.mn","countryIso2":"MN","countryName":"Mongolia","hotelRating":"0","latitude":"47.9244","longitude":"106.948","state_id":null,"state_name":null,"country_id":null},{"active":false,"Giataid":"91802","cityId":null,"cityName":"Ulan Bator","hotelId":20005292,"hotelName":"Bayangol Hotel","address":"Chinggis Khan Avenue 5,Ulaanbaatar 14251,Mongolia","phones":"+97611312255","fax":"+97611326880","email":"info@bayangolhotel.mn","url":"https://bayangolhotel.mn","countryIso2":"MN","countryName":"Mongolia","hotelRating":"4","latitude":"47.9123","longitude":"106.914","state_id":null,"state_name":null,"country_id":null},{"active":false,"Giataid":"676596","cityId":null,"cityName":"Ulan Bator","hotelId":20005491,"hotelName":"Wonder Mongolia Guest House","address":"UB Town 38-85,On South West of State Department Store,In 2 Tall 17 Floor Building,SBD-4,Peace Avenue,Ulaanbaatar,Mongolia","phones":"+97699951333","fax":"","email":"info@wonder-mongolia.com","url":"http://www.wonder-mongolia.com/guesthouse.html","countryIso2":"MN","countryName":"Mongolia","hotelRating":"0","latitude":"47.9167","longitude":"106.908","state_id":null,"state_name":null,"country_id":null},{"active":false,"Giataid":"458150","cityId":null,"cityName":"Ulan Bator","hotelId":20005612,"hotelName":"The Corporate Hotel & Resort Nukht","address":"Khan-Uul District-5,Bogd Khan National Reserve,212513 Ulaanbaatar,Mongolia","phones":"+97688113601","fax":"+97611334422","email":"zolgerel@corporatehotel.mn","url":"http://corporatehotel.mn/index.php?page=pages&pid=222","countryIso2":"MN","countryName":"Mongolia","hotelRating":"4","latitude":"47.9167","longitude":"106.908","state_id":null,"state_name":null,"country_id":null},{"active":false,"Giataid":"726574","cityId":null,"cityName":"Ulan Bator","hotelId":20005837,"hotelName":"Khan's Guest House","address":"Chingeltei District 3-Khoroo 3-20,Ulaanbaatar,Mongolia","phones":"","fax":"","email":"","url":"","countryIso2":"MN","countryName":"Mongolia","hotelRating":"0","latitude":"47.9167","longitude":"106.908","state_id":null,"state_name":null,"country_id":null},{"active":false,"Giataid":"725969","cityId":null,"cityName":"Ulan Bator","hotelId":20006000,"hotelName":"Munkh Khustai Hotel","address":"Bayangol Disrtict 4,Peace Avenue 68,Khoroo,Ulaanbaatar 16052,Mongolia","phones":"","fax":"","email":"","url":"","countryIso2":"MN","countryName":"Mongolia","hotelRating":"0","latitude":"47.9131","longitude":"106.86","state_id":null,"state_name":null,"country_id":null},{"active":false,"Giataid":"409389","cityId":null,"cityName":"Ulan Bator","hotelId":20006164,"hotelName":"Park Hotel","address":"Ulaanbaatar,Mongolia","phones":"","fax":"","email":"","url":"http://www.park-hotel.mn/","countryIso2":"MN","countryName":"Mongolia","hotelRating":"4","latitude":"47.92","longitude":"106.922","state_id":null,"state_name":null,"country_id":null},{"active":false,"Giataid":"676921","cityId":null,"cityName":"Ulan Bator","hotelId":20006349,"hotelName":"Golden Gobi","address":"1st subdistrict,1st Khoroo Building 13,Chingeltei 1-40000,Oelan-Bator,Ulaanbaatar 210151,Mongolia","phones":"+97611322632","fax":"","email":"golden_gobi@yahoo.com","url":"http://www.goldengobi.com","countryIso2":"MN","countryName":"Mongolia","hotelRating":"0","latitude":"47.9167","longitude":"106.908","state_id":null,"state_name":null,"country_id":null},{"active":false,"Giataid":"622912","cityId":null,"cityName":"Ulan Bator","hotelId":20006541,"hotelName":"Flower Hotel","address":"Zaluuchuud Avenue 18,Bayanzurkh Duureg,P.O.Box 328,Ulaanbaatar 001334,Mongolia","phones":"+97611458330","fax":"+97611455652","email":"flowerhotel@magicnet.mn","url":"https://www.flower-hotel.mn","countryIso2":"MN","countryName":"Mongolia","hotelRating":"3","latitude":"47.9244","longitude":"106.938","state_id":null,"state_name":null,"country_id":null},{"active":false,"Giataid":"475885","cityId":null,"cityName":"Ulan Bator","hotelId":20006750,"hotelName":"Chandmani Hotel&Tour","address":"Songino Khairkhan district,15th Khoroo, 1-Khoroolol,Bldg 36,Ulaanbaatar 210031,Mongolia","phones":"","fax":"","email":"","url":"","countryIso2":"MN","countryName":"Mongolia","hotelRating":"1","latitude":"47.9152","longitude":"106.838","state_id":null,"state_name":null,"country_id":null},{"active":false,"Giataid":"689247","cityId":null,"cityName":"Ulan Bator","hotelId":20006916,"hotelName":"Ibis Styles Ulaanbaatar Polaris","address":"Chinggis Avenue 81,Khan Uul District 2nd Khooro,17040 Ulaanbaatar,Mongolia","phones":"+97670100707","fax":"+97670177701","email":"h9808-gm@accor.com","url":"http://www.ibis.com/gb/hotel-9808-ibis-styles-ulaanbaatar-polaris/index.shtml","countryIso2":"MN","countryName":"Mongolia","hotelRating":"0","latitude":"47.8955","longitude":"106.883","state_id":null,"state_name":null,"country_id":null},{"active":false,"Giataid":"725875","cityId":null,"cityName":"Ulan Bator","hotelId":20007130,"hotelName":"Sara's Guest House","address":"Unit 13,Sambuu Street 19A,Ulaanbaatar 15160,Mongolia","phones":"","fax":"","email":"","url":"","countryIso2":"MN","countryName":"Mongolia","hotelRating":"0","latitude":"47.9237","longitude":"106.911","state_id":null,"state_name":null,"country_id":null},{"active":false,"Giataid":"726111","cityId":null,"cityName":"Ulan Bator","hotelId":20007261,"hotelName":"Khuvsgul Lake Hotel & Hostel","address":"22 Floor City Tower,Baga Toiruu,Ikh Ezen,Chinggis Khan,Khoroo 8,Ulaanbaatar 210620,Mongolia","phones":"","fax":"","email":"reservation@khuvsgullakehotel.mn","url":"https://www.khuvsgullakehotel.mn","countryIso2":"MN","countryName":"Mongolia","hotelRating":"0","latitude":"47.9193","longitude":"106.921","state_id":null,"state_name":null,"country_id":null},{"active":false,"Giataid":"457771","cityId":null,"cityName":"Ulan Bator","hotelId":20007467,"hotelName":"Platinum Hotel","address":"1-r khoroo,Chagdarjav street 36,212513 Sukhbaatar,Ulaanbaatar,Mongolia","phones":"+97670128855","fax":"+97670128811","email":"info@platinum.mn","url":"http://www.platinum.mn","countryIso2":"MN","countryName":"Mongolia","hotelRating":"4","latitude":"47.9167","longitude":"106.927","state_id":null,"state_name":null,"country_id":null},{"active":false,"Giataid":"676593","cityId":null,"cityName":"Ulan Bator","hotelId":20007757,"hotelName":"Embassy Residence","address":"Sukhbaatar,Embassy Street 7,Ulaanbaat 211238,Mongolia","phones":"","fax":"","email":"","url":"","countryIso2":"MN","countryName":"Mongolia","hotelRating":"0","latitude":"47.9142","longitude":"106.924","state_id":null,"state_name":null,"country_id":null},{"active":false,"Giataid":"468257","cityId":null,"cityName":"Ulan Bator","hotelId":20007934,"hotelName":"UB City Hotel","address":"Chinggis avenue,Too Van Street,Ulaanbaatar 212513,Mongolia,Mongolia","phones":"+97670137778","fax":"","email":"reservation@ubcityhotel.com","url":"https://ubcityhotel.com","countryIso2":"MN","countryName":"Mongolia","hotelRating":"4","latitude":"47.9002","longitude":"106.902","state_id":null,"state_name":null,"country_id":null},{"active":false,"Giataid":"87013","cityId":null,"cityName":"Ulan Bator","hotelId":20008091,"hotelName":"Mongolia","address":"Bayanzurkh District,20th khoroo,Gachuurt Village,Ulaanbaatar,Mongolia","phones":"+97611490041","fax":"+97611490047","email":"info@hotel-mongolia.com","url":"http://www.hotel-mongolia.com/","countryIso2":"MN","countryName":"Mongolia","hotelRating":"4","latitude":"47.9246","longitude":"107.141","state_id":null,"state_name":null,"country_id":null},{"active":false,"Giataid":"556200","cityId":null,"cityName":"Ulan Bator","hotelId":20008210,"hotelName":"Holiday Inn Ulaanbaater","address":"Sambuu Street 24,Chingeltei District,5th Horoo,Ulaanbaatar 015141,Mongolia","phones":"+97611322323","fax":"","email":"tuvshintugs@maxgroup.mn","url":"http://www.ihg.com/holidayinn/hotels/de/de/ulnss/hoteldetail","countryIso2":"MN","countryName":"Mongolia","hotelRating":"4","latitude":"47.9221","longitude":"106.905","state_id":null,"state_name":null,"country_id":null},{"active":false,"Giataid":"623247","cityId":null,"cityName":"Ulan Bator","hotelId":20008413,"hotelName":"Zaisan Gate Hotel","address":"Zairean Street,Khoroo 11,Ulaanbaatar 161517,Mongolia","phones":"","fax":"","email":"","url":"","countryIso2":"MN","countryName":"Mongolia","hotelRating":"3","latitude":"47.887","longitude":"106.915","state_id":null,"state_name":null,"country_id":null},{"active":false,"Giataid":"475786","cityId":null,"cityName":"Ulan Bator","hotelId":20008503,"hotelName":"Royal Hotel","address":"Building #32, 10th khoroolol, 5th khoroo,Peace Avenue Road, Bayangol district,Ulaanbaatar 210526,Mongolia","phones":"+97670186999","fax":"+97670185999","email":"royalhotel_ub@yahoo.com","url":"http://royal-hotel.wix.com/ulaanbaatar","countryIso2":"MN","countryName":"Mongolia","hotelRating":"0","latitude":"47.9143","longitude":"106.867","state_id":null,"state_name":null,"country_id":null},{"active":false,"Giataid":"453979","cityId":null,"cityName":"Ulan Bator","hotelId":20008648,"hotelName":"New West Hotel","address":"Ard Ayush Street,Peace Avenue,5th Khoroo 10th Khoroolol,Building 91,Ulaanbaatar 210526,Mongolia","phones":"+97670183500","fax":"+97670183502","email":"info@newwesthotel.mn","url":"http://newwesthotel.mn","countryIso2":"MN","countryName":"Mongolia","hotelRating":"3","latitude":"47.9139","longitude":"106.862","state_id":null,"state_name":null,"country_id":null},{"active":false,"Giataid":"135218","cityId":null,"cityName":"Ulan Bator","hotelId":20008797,"hotelName":"Ger-Camp","address":"Ulaanbaatar,Mongolia","phones":"","fax":"","email":"","url":"","countryIso2":"MN","countryName":"Mongolia","hotelRating":"0","latitude":"47.8885","longitude":"106.907","state_id":null,"state_name":null,"country_id":null},{"active":false,"Giataid":"475651","cityId":null,"cityName":"Ulan Bator","hotelId":20009094,"hotelName":"Soyol Wellness Center","address":"Khan-Uul district,3rd khoroo Engels,Soyol center,Ulaanbaatar city 124555,Mongolia","phones":"+97677009966","fax":"+97677009967","email":"","url":"http://soyol.mn/","countryIso2":"MN","countryName":"Mongolia","hotelRating":"0","latitude":"47.8864","longitude":"106.906","state_id":null,"state_name":null,"country_id":null},{"active":false,"Giataid":"100672","cityId":null,"cityName":"Ulan Bator","hotelId":20009232,"hotelName":"Edelweiss Hotel","address":"Chagdarjav Street 20,Ulaanbaatar,Mongolia","phones":"+97611312186","fax":"+97611325252","email":"edelweis@mongol.net","url":"","countryIso2":"MN","countryName":"Mongolia","hotelRating":"3","latitude":"47.9152","longitude":"106.928","state_id":null,"state_name":null,"country_id":null},{"active":false,"Giataid":"392019","cityId":null,"cityName":"Ulan Bator","hotelId":20009371,"hotelName":"Tuul Riverside Lodge","address":"River Tuul,Ulaanbaatar,Mongolia","phones":"","fax":"","email":"info@tuulriverside.com","url":"http://www.tuulriverside.com","countryIso2":"MN","countryName":"Mongolia","hotelRating":"0","latitude":"47.8825","longitude":"106.822","state_id":null,"state_name":null,"country_id":null},{"active":false,"Giataid":"726192","cityId":null,"cityName":"Ulan Bator","hotelId":20009501,"hotelName":"Meg's Guesthouse & Tours","address":"3rd Khoroo,Building 1,Peace Avenue 40,Chingeltei District,Ulaanbaatar 15172,Mongolia","phones":"","fax":"","email":"info@megmongolia.com","url":"https://www.megmongolia.com","countryIso2":"MN","countryName":"Mongolia","hotelRating":"0","latitude":"47.9167","longitude":"106.908","state_id":null,"state_name":null,"country_id":null},{"active":false,"Giataid":"622940","cityId":null,"cityName":"Ulan Bator","hotelId":20009643,"hotelName":"Premium Hotel Ulaanbaatar","address":"Ikh Toiruu Street,Chingeltei District-5,Ulaanbaatar,Mongolia","phones":"+97677168888","fax":"+97677178888","email":"hotel@premium.mn","url":"http://www.premiumhotel.mn","countryIso2":"MN","countryName":"Mongolia","hotelRating":"4","latitude":"47.9247","longitude":"106.901","state_id":null,"state_name":null,"country_id":null},{"active":false,"Giataid":"476587","cityId":null,"cityName":"Ulan Bator","hotelId":20009807,"hotelName":"J Hotel","address":"Sukhbaatar District,1-r Khoroo,Street of Auto Zamchdiin Gudamj 34,Ulaanbaatar,Mongolia","phones":"+97677115677","fax":"","email":"info@","url":"http://www.jhotel.mn/en/","countryIso2":"MN","countryName":"Mongolia","hotelRating":"0","latitude":"47.9138","longitude":"106.929","state_id":null,"state_name":null,"country_id":null},{"active":false,"Giataid":"458061","cityId":null,"cityName":"Ulan Bator","hotelId":20009923,"hotelName":"The Continental Hotel","address":"Peace Avenue,Unesco Street 8,Olympic Street,Ulaanbaatar 210648,Mongolia","phones":"","fax":"","email":"","url":"","countryIso2":"MN","countryName":"Mongolia","hotelRating":"3","latitude":"47.9123","longitude":"106.925","state_id":null,"state_name":null,"country_id":null},{"active":false,"Giataid":"676599","cityId":null,"cityName":"Ulan Bator","hotelId":20010068,"hotelName":"City Guesthouse & Tours","address":"Building 11,1st khoroo,Bayanzurkh District,Micro District 12,Peace Avenue,Ulaanbaatar 210349,Mongolia","phones":"","fax":"","email":"","url":"","countryIso2":"MN","countryName":"Mongolia","hotelRating":"0","latitude":"47.9191","longitude":"106.932","state_id":null,"state_name":null,"country_id":null},{"active":false,"Giataid":"473623","cityId":null,"cityName":"Ulan Bator","hotelId":20010192,"hotelName":"Decor Hotel","address":"Peace Avenue-93, khoroo 4, Bayangol district, 831555 Ulaanbaatar,,Mongolia","phones":"+97670118520","fax":"+97670119718","email":"decor_hotel@yahoo.com","url":"http://www.decor-hotel.com","countryIso2":"MN","countryName":"Mongolia","hotelRating":"0","latitude":"47.9142","longitude":"106.879","state_id":null,"state_name":null,"country_id":null},{"active":false,"Giataid":"726906","cityId":null,"cityName":"Ulan Bator","hotelId":20010332,"hotelName":"Land Hotel","address":"khoroo 16,Amarsanaa Street 54,Bayngol District,Ulaanbaatar 210524,Mongolia","phones":"","fax":"","email":"","url":"","countryIso2":"MN","countryName":"Mongolia","hotelRating":"0","latitude":"47.9167","longitude":"106.908","state_id":null,"state_name":null,"country_id":null},{"active":false,"Giataid":"623249","cityId":null,"cityName":"Ulan Bator","hotelId":20010469,"hotelName":"The Grand Hill","address":"Bayangol District,Damdinbazar Street 52,Ulaanbaatar 212513,Mongolia","phones":"","fax":"","email":"","url":"","countryIso2":"MN","countryName":"Mongolia","hotelRating":"0","latitude":"47.9183","longitude":"106.884","state_id":null,"state_name":null,"country_id":null},{"active":false,"Giataid":"426986","cityId":null,"cityName":"Ulan Bator","hotelId":20010606,"hotelName":"The Corporate Hotel & Convention Centre","address":"Mahatma Gandhi Street 39,Khan-Uul District,15th khoroo,Ulaanbaatar,Mongolia","phones":"+97670002030","fax":"","email":"mail@corporatehotel.mn","url":"http://corporatehotel.mn/index.php?page=pages&pid=226","countryIso2":"MN","countryName":"Mongolia","hotelRating":"5","latitude":"47.9039","longitude":"106.923","state_id":null,"state_name":null,"country_id":null},{"active":false,"Giataid":"135219","cityId":null,"cityName":"Ulan Bator","hotelId":20010742,"hotelName":"Bishrelt","address":"Liberty Square,Sambuu Street,Ulaanbaatar 211238,Mongolia","phones":"","fax":"","email":"","url":"","countryIso2":"MN","countryName":"Mongolia","hotelRating":"3","latitude":"47.9237","longitude":"106.907","state_id":null,"state_name":null,"country_id":null},{"active":false,"Giataid":"622925","cityId":null,"cityName":"Ulan Bator","hotelId":20010888,"hotelName":"Ayanchin Hotel","address":"19-R Horoo,Modnii 2-Iin Zamd,Bayangol,Ulaanbaatar 111111,Mongolia","phones":"","fax":"","email":"","url":"","countryIso2":"MN","countryName":"Mongolia","hotelRating":"0","latitude":"47.9181","longitude":"106.882","state_id":null,"state_name":null,"country_id":null},{"active":false,"Giataid":"676145","cityId":null,"cityName":"Ulan Bator","hotelId":20011034,"hotelName":"Golden Vill Apartment","address":"Bayanzurkh,Denverstr 15,Ulaanbaatar 212115,Mongolia","phones":"","fax":"","email":"","url":"","countryIso2":"MN","countryName":"Mongolia","hotelRating":"0","latitude":"47.9167","longitude":"106.908","state_id":null,"state_name":null,"country_id":null},{"active":false,"Giataid":"613339","cityId":null,"cityName":"Ulan Bator","hotelId":20011131,"hotelName":"Travel Mongolia Guesthouse","address":"Seoul Street 46/48,Building #16,Sukhbaatar District,Ulaanbaatar 111111,Mongolia","phones":"","fax":"","email":"","url":"","countryIso2":"MN","countryName":"Mongolia","hotelRating":"2","latitude":"47.914","longitude":"106.908","state_id":null,"state_name":null,"country_id":null},{"active":false,"Giataid":"623284","cityId":null,"cityName":"Ulan Bator","hotelId":20011286,"hotelName":"Angara Hotel","address":"80 Zamchid Street,3rd Khoroo,Bayangol District,016051 Ulaanbaatar,Mongolia","phones":"+97621253993","fax":"+97621253839","email":"info@angara.mn","url":"http://www.angara.mn/","countryIso2":"MN","countryName":"Mongolia","hotelRating":"3","latitude":"47.9108","longitude":"106.892","state_id":null,"state_name":null,"country_id":null},{"active":false,"Giataid":"623290","cityId":null,"cityName":"Ulan Bator","hotelId":20011404,"hotelName":"Sod Hotel","address":"10th Khorooolol,Bayangol District,5 Khoroo,Ulaanbaatar 016010,Mongolia","phones":"","fax":"","email":"","url":"http://www.sodhotel.mn/","countryIso2":"MN","countryName":"Mongolia","hotelRating":"0","latitude":"47.9133","longitude":"106.867","state_id":null,"state_name":null,"country_id":null},{"active":false,"Giataid":"869817","cityId":null,"cityName":"Ulan Bator","hotelId":20351175,"hotelName":"Gana's Bed and Breakfast","address":"Tourist Street,3rd Khoroo,43rd Building 5th Floor,Chingeltei,Ulaanbaatar 123456,Mongolia","phones":"","fax":"","email":"","url":"","countryIso2":"MN","countryName":"Mongolia","hotelRating":"0","latitude":"47.9167","longitude":"106.908","state_id":null,"state_name":null,"country_id":null},{"active":false,"Giataid":"903574","cityId":null,"cityName":"Ulan Bator","hotelId":20351176,"hotelName":"Azara Bed And Breakfast","address":"Prime Minister Tserendorj Street 21A,Ulaanbaatar 14150,Mongolia","phones":"","fax":"","email":"","url":"","countryIso2":"MN","countryName":"Mongolia","hotelRating":"0","latitude":"47.9167","longitude":"106.908","state_id":null,"state_name":null,"country_id":null},{"active":false,"Giataid":"922639","cityId":null,"cityName":"Ulan Bator","hotelId":20351177,"hotelName":"Baigal Hotel","address":"18th Khoroo,Bayangol,Ulaanbaatar 211137,Mongolia","phones":"","fax":"","email":"","url":"","countryIso2":"MN","countryName":"Mongolia","hotelRating":"0","latitude":"47.9167","longitude":"106.908","state_id":null,"state_name":null,"country_id":null},{"active":false,"Giataid":"875179","cityId":null,"cityName":"Ulan Bator","hotelId":20351178,"hotelName":"Mount Bogd Apartment","address":"Ar Zaisan 91,Ulaanbaatar 11000,Mongolia","phones":"","fax":"","email":"","url":"","countryIso2":"MN","countryName":"Mongolia","hotelRating":"3","latitude":"47.9167","longitude":"106.908","state_id":null,"state_name":null,"country_id":null},{"active":false,"Giataid":"905704","cityId":null,"cityName":"Ulan Bator","hotelId":20351179,"hotelName":"Sunpath Mongolia Guest House","address":"4th Floor,Building 16,Bayangol 16060,Ulaanbaatar,Mongolia","phones":"","fax":"","email":"","url":"","countryIso2":"MN","countryName":"Mongolia","hotelRating":"0","latitude":"47.9167","longitude":"106.908","state_id":null,"state_name":null,"country_id":null},{"active":false,"Giataid":"936643","cityId":null,"cityName":"Ulan Bator","hotelId":20351180,"hotelName":"Central Hotel","address":"1st Khoroo,Hatanbaatar Magsarjav Street 16051 89,Ulaanbaatar 210535,Bayangol District,Mongolia","phones":"","fax":"","email":"","url":"http://central-mn.book.direct/en-gb","countryIso2":"MN","countryName":"Mongolia","hotelRating":"0","latitude":"47.9167","longitude":"106.908","state_id":null,"state_name":null,"country_id":null},{"active":false,"Giataid":"871681","cityId":null,"cityName":"Ulan Bator","hotelId":20351181,"hotelName":"Novotel Ulaanbaatar","address":"Baga Toiruu,6Th Khoroo,Ulaanbaatar 14201,Mongolia","phones":"+97670101188","fax":"+97670101188","email":"hb1d8-re@accor.com","url":"https://www.accorhotels.com/de/hotel-B1D8-novotel-ulaanbaatar/index.shtml","countryIso2":"MN","countryName":"Mongolia","hotelRating":"0","latitude":"47.9265","longitude":"106.917","state_id":null,"state_name":null,"country_id":null},{"active":false,"Giataid":"905559","cityId":null,"cityName":"Ulan Bator","hotelId":20351182,"hotelName":"Maligu","address":"Bayanzurkh,8th Khorooo,Apartmentt 50,Ulaanbaatar,Mongolia","phones":"","fax":"","email":"","url":"","countryIso2":"MN","countryName":"Mongolia","hotelRating":"0","latitude":"47.9167","longitude":"106.908","state_id":null,"state_name":null,"country_id":null},{"active":false,"Giataid":"936628","cityId":null,"cityName":"Ulan Bator","hotelId":20351183,"hotelName":"Ovootel Hotel","address":"19th horoo L.,Enebish Street 71,Bayangol District,Ulaanbaatar 016066,Mongolia","phones":"","fax":"","email":"","url":"","countryIso2":"MN","countryName":"Mongolia","hotelRating":"0","latitude":"47.9167","longitude":"106.908","state_id":null,"state_name":null,"country_id":null},{"active":false,"Giataid":"876148","cityId":null,"cityName":"Ulan Bator","hotelId":20351184,"hotelName":"Tsetsen Khangai Hotel","address":"6th Khoroo,Peace Avenue,Tsetsenkhangai Hotel Building,Bayanzurkh,Ulaanbaatar 111006,Mongolia","phones":"+97611451145","fax":"","email":"http://tskh-hotel.com","url":"http://www.tskh-hotel.com","countryIso2":"MN","countryName":"Mongolia","hotelRating":"0","latitude":"47.9167","longitude":"106.908","state_id":null,"state_name":null,"country_id":null},{"active":false,"Giataid":"905712","cityId":null,"cityName":"Ulan Bator","hotelId":20351185,"hotelName":"Bt Hotel","address":"Chinggis Avenue 9 Business Tayer 22,Sukhbaatar,Ulaanbaatar 140233,Mongolia","phones":"","fax":"","email":"","url":"","countryIso2":"MN","countryName":"Mongolia","hotelRating":"0","latitude":"47.9167","longitude":"106.908","state_id":null,"state_name":null,"country_id":null},{"active":false,"Giataid":"936650","cityId":null,"cityName":"Ulan Bator","hotelId":20351186,"hotelName":"Atlas Hotel","address":"Zuunmod Road 89,Ulaanbaatar 171350,Mongolia","phones":"","fax":"","email":"","url":"","countryIso2":"MN","countryName":"Mongolia","hotelRating":"0","latitude":"47.9167","longitude":"106.908","state_id":null,"state_name":null,"country_id":null},{"active":false,"Giataid":"888094","cityId":null,"cityName":"Ulan Bator","hotelId":20351188,"hotelName":"Okay Tours & Hostel","address":"1st Floor Avzaga's Apartment 19,2nd 40 Thousand Micro District,Khoroo-3,Chingiltei District,Ulaanbaatar 210045,Mongolia","phones":"","fax":"","email":"info@okaytours.mn","url":"http://okaytours.mn/hostel","countryIso2":"MN","countryName":"Mongolia","hotelRating":"0","latitude":"47.9167","longitude":"106.908","state_id":null,"state_name":null,"country_id":null},{"active":false,"Giataid":"922595","cityId":null,"cityName":"Ulan Bator","hotelId":20351189,"hotelName":"Era Hotel","address":"Sukhbaatar District,8th khoroo,Bayanzurkh,Ulaanbaatar 141910,Mongolia","phones":"","fax":"","email":"","url":"","countryIso2":"MN","countryName":"Mongolia","hotelRating":"0","latitude":"47.9167","longitude":"106.908","state_id":null,"state_name":null,"country_id":null},{"active":false,"Giataid":"943529","cityId":null,"cityName":"Ulan Bator","hotelId":20351190,"hotelName":"Office Hotel","address":"Khoroo,Gandan Monastery Street 16,Bayangol District,Ulaanbaatar 211238,Mongolia","phones":"","fax":"","email":"","url":"","countryIso2":"MN","countryName":"Mongolia","hotelRating":"0","latitude":"47.9167","longitude":"106.908","state_id":null,"state_name":null,"country_id":null},{"active":false,"Giataid":"876223","cityId":null,"cityName":"Ulan Bator","hotelId":20351192,"hotelName":"Ochir Titem Hotel","address":"Ard Ayush Street,Bayangol District,Ulaanbaatar 16092,Mongolia","phones":"","fax":"","email":"","url":"","countryIso2":"MN","countryName":"Mongolia","hotelRating":"0","latitude":"47.9167","longitude":"106.908","state_id":null,"state_name":null,"country_id":null},{"active":false,"Giataid":"922212","cityId":null,"cityName":"Ulan Bator","hotelId":20351193,"hotelName":"Progress Hotel","address":"10th Microdistrict,Peace Avenue 58,5th Khoroo Bayangol District,Bayangol,Ulaanbaatar 210526,Mongolia","phones":"","fax":"","email":"","url":"","countryIso2":"MN","countryName":"Mongolia","hotelRating":"0","latitude":"47.9149","longitude":"106.865","state_id":null,"state_name":null,"country_id":null},{"active":false,"Giataid":"942654","cityId":null,"cityName":"Ulan Bator","hotelId":20351194,"hotelName":"Elegance Hotel","address":"Sambuu Street 16-3,Chingeltei District,212513 Ulaanbaatar,Mongolia","phones":"","fax":"","email":"","url":"","countryIso2":"MN","countryName":"Mongolia","hotelRating":"0","latitude":"47.9167","longitude":"106.908","state_id":null,"state_name":null,"country_id":null},{"active":false,"Giataid":"888115","cityId":null,"cityName":"Ulan Bator","hotelId":20351197,"hotelName":"KTMS Guesthouse","address":"BZD 2 Khoroo Erdem Khotkhon,10B Building 49 Apartment,Ulaanbaatar 10001,Mongolia","phones":"","fax":"","email":"","url":"","countryIso2":"MN","countryName":"Mongolia","hotelRating":"0","latitude":"47.9167","longitude":"106.908","state_id":null,"state_name":null,"country_id":null},{"active":false,"Giataid":"922609","cityId":null,"cityName":"Ulan Bator","hotelId":20351198,"hotelName":"Mandarin Hotel","address":"Bayanzurkh District,Ulaanbaatar 113000,Mongolia","phones":"","fax":"","email":"","url":"","countryIso2":"MN","countryName":"Mongolia","hotelRating":"0","latitude":"47.9167","longitude":"106.908","state_id":null,"state_name":null,"country_id":null},{"active":false,"Giataid":"943577","cityId":null,"cityName":"Ulan Bator","hotelId":20351199,"hotelName":"Az Hotel","address":"3th Khoroo,Naiman Sharga Road,Chingeltei District,Ulaanbaatar 200000,Mongolia","phones":"","fax":"","email":"","url":"","countryIso2":"MN","countryName":"Mongolia","hotelRating":"0","latitude":"47.9167","longitude":"106.908","state_id":null,"state_name":null,"country_id":null},{"active":false,"Giataid":"893600","cityId":null,"cityName":"Ulan Bator","hotelId":20351201,"hotelName":"Tanan Center","address":"Oyutnii 33,8 Horoo,Sukhbaatar District,Ulaanbaatar 14192,Mongolia","phones":"+97611311487","fax":"","email":"hanu_24@yahoo.com","url":"http://www.otana.mn","countryIso2":"MN","countryName":"Mongolia","hotelRating":"4","latitude":"47.9206","longitude":"106.927","state_id":null,"state_name":null,"country_id":null},{"active":false,"Giataid":"922624","cityId":null,"cityName":"Ulan Bator","hotelId":20351202,"hotelName":"Ebo Hotel","address":"Doloon Buudal Road 3-43/B,Ulaanbaatar 150000,Mongolia","phones":"","fax":"","email":"","url":"","countryIso2":"MN","countryName":"Mongolia","hotelRating":"0","latitude":"47.9167","longitude":"106.908","state_id":null,"state_name":null,"country_id":null},{"active":false,"Giataid":"956768","cityId":null,"cityName":"Ulan Bator","hotelId":20413031,"hotelName":"The Garage","address":"Aos 2,9 St Khoroo,Bayangol District,Ulaanbaatar 160692,Mongolia","phones":"","fax":"","email":"","url":"","countryIso2":"MN","countryName":"Mongolia","hotelRating":"1","latitude":"47.9167","longitude":"106.908","state_id":null,"state_name":null,"country_id":null},{"active":false,"Giataid":"956748","cityId":null,"cityName":"Ulan Bator","hotelId":20413033,"hotelName":"Life Ulaanbaatar","address":"Bayangol Duureg 6-r Horoo,10-r Horoolol,65-r Bair,Ulaanbaatar 111111,Mongolia","phones":"","fax":"","email":"mongolzuuch@yahoo.com","url":"http://life-ulaanbaatar-mn.book.direct","countryIso2":"MN","countryName":"Mongolia","hotelRating":"1","latitude":"47.9151","longitude":"106.871","state_id":null,"state_name":null,"country_id":null},{"active":false,"Giataid":"956818","cityId":null,"cityName":"Ulan Bator","hotelId":20413034,"hotelName":"Kyokushu Hotel","address":"5th Khoroo,Enkhtaivan Street,Bayangol District,UB Kyokushu Tower,Ulaanbaatar 210111,Mongolia","phones":"","fax":"","email":"","url":"","countryIso2":"MN","countryName":"Mongolia","hotelRating":"1","latitude":"47.9167","longitude":"106.908","state_id":null,"state_name":null,"country_id":null},{"active":false,"Giataid":"956812","cityId":null,"cityName":"Ulan Bator","hotelId":20413036,"hotelName":"Margad Hotel","address":"Margad Center,5th Khoroo,Chingeltei District,PO Box 38-398,Ulaanbaatar 211238,Mongolia","phones":"","fax":"","email":"","url":"","countryIso2":"MN","countryName":"Mongolia","hotelRating":"1","latitude":"47.9167","longitude":"106.908","state_id":null,"state_name":null,"country_id":null},{"active":false,"Giataid":"956772","cityId":null,"cityName":"Ulan Bator","hotelId":20413037,"hotelName":"Red Rock Hotel and Resort","address":"6th Khoroo,Terelj Road,Terelj,Terelj National Park,612790 Ulaanbaatar,Mongolia","phones":"","fax":"","email":"","url":"","countryIso2":"MN","countryName":"Mongolia","hotelRating":"1","latitude":"47.9167","longitude":"106.908","state_id":null,"state_name":null,"country_id":null},{"active":false,"Giataid":"956802","cityId":null,"cityName":"Ulan Bator","hotelId":20413038,"hotelName":"Gorkhi Eco Family Resort","address":"2 Km From Terelj Bridge,Terelj Road,Ulan Bator 212600,Mongolia","phones":"","fax":"","email":"","url":"","countryIso2":"MN","countryName":"Mongolia","hotelRating":"1","latitude":"47.9167","longitude":"106.908","state_id":null,"state_name":null,"country_id":null},{"active":false,"Giataid":"956787","cityId":null,"cityName":"Ulan Bator","hotelId":20413039,"hotelName":"M&M Guesthouse","address":"37 Apartment,10th Level,B Block,20th Building,Narnii Road,2nd Khoroo,Sukhbaatar District,Ulaanbaatar 014251,Mongolia","phones":"","fax":"","email":"","url":"","countryIso2":"MN","countryName":"Mongolia","hotelRating":"1","latitude":"47.9167","longitude":"106.908","state_id":null,"state_name":null,"country_id":null},{"active":false,"Giataid":"956760","cityId":null,"cityName":"Ulan Bator","hotelId":20413040,"hotelName":"UB Guesthouse","address":"Building 41,Door 21,1 Horoo 2-40.000,Baga Touruu Street,Chingeltei,Ulaanbaatar 210620,Mongolia","phones":"","fax":"","email":"ubguest@hotmail.com","url":"https://www.ub-guesthouse.com/en-us/","countryIso2":"MN","countryName":"Mongolia","hotelRating":"1","latitude":"47.9195","longitude":"106.911","state_id":null,"state_name":null,"country_id":null},{"active":false,"Giataid":"979046","cityId":null,"cityName":"Ulan Bator","hotelId":20413041,"hotelName":"Zuchi Hotel","address":"Khoroo 1,Ulaanbaatar,Mongolia","phones":"","fax":"","email":"","url":"","countryIso2":"MN","countryName":"Mongolia","hotelRating":"1","latitude":"47.9167","longitude":"106.908","state_id":null,"state_name":null,"country_id":null},{"active":false,"Giataid":"956764","cityId":null,"cityName":"Ulan Bator","hotelId":20413042,"hotelName":"Woodpecker's Inn","address":"Negdsen Undestnii Gudamj,Bayanzurkh,Ulaanbaatar 133180,Mongolia","phones":"","fax":"","email":"","url":"","countryIso2":"MN","countryName":"Mongolia","hotelRating":"1","latitude":"47.9167","longitude":"106.908","state_id":null,"state_name":null,"country_id":null},{"active":false,"Giataid":"979069","cityId":null,"cityName":"Ulan Bator","hotelId":20413043,"hotelName":"Town Yard Guesthouse And Tour","address":"Door 4,Orkhon Street 5,Gandan,16th Khoroo,Ulaanbaatar,Mongolia","phones":"","fax":"","email":"","url":"","countryIso2":"MN","countryName":"Mongolia","hotelRating":"1","latitude":"47.92","longitude":"106.894","state_id":null,"state_name":null,"country_id":null},{"active":false,"Giataid":"986651","cityId":null,"cityName":"Ulan Bator","hotelId":20436761,"hotelName":"Mongolian Vision Tours","address":"Building 33,Sukhbaatar District,Ulan Bator,Mongolia","phones":"","fax":"","email":"","url":"http://mongolian-vision-tours-guesthouse.business.site","countryIso2":"MN","countryName":"Mongolia","hotelRating":"2","latitude":"47.9167","longitude":"106.908","state_id":null,"state_name":null,"country_id":null},{"active":false,"Giataid":"1003939","cityId":null,"cityName":"Ulan Bator","hotelId":20436762,"hotelName":"Ezent Guren Hotel","address":"Hentii Aimag Herlen Sum,Baatar Street,Ulaanbaatar 023110,Mongolia","phones":"","fax":"","email":"","url":"","countryIso2":"MN","countryName":"Mongolia","hotelRating":"1","latitude":"47.9167","longitude":"106.908","state_id":null,"state_name":null,"country_id":null}]