[{"active":false,"Giataid":"7622","cityId":13200,"cityName":"Monte Carlo","hotelId":7622,"hotelName":"Ambassador","address":"Avenue Prince Pierre 10,98000 Monte Carlo,Monaco","phones":"+37797979696","fax":"+37797979699","email":"info@ambassadormonaco.com","url":"http://www.ambassadormonaco.com/","countryIso2":"MC","countryName":"Monaco","hotelRating":"3","latitude":"43.7328","longitude":"7.41826","state_id":2014,"state_name":"Santa Catarina","country_id":31},{"active":false,"Giataid":"11244","cityId":13200,"cityName":"Monte Carlo","hotelId":11244,"hotelName":"De Paris","address":"Place du Casino,MC 98000,Principality of Monaco,Monaco","phones":"+37798063000","fax":"+37798065956","email":"resort@sbm.mc","url":"http://en.hoteldeparismontecarlo.com/","countryIso2":"MC","countryName":"Monaco","hotelRating":"5","latitude":"43.7387","longitude":"7.42759","state_id":2014,"state_name":"Santa Catarina","country_id":31},{"active":false,"Giataid":"16093","cityId":13200,"cityName":"Monte Carlo","hotelId":16093,"hotelName":"Le Meridien Beach Plaza","address":"22 Avenue Princesse Grace,98000 Monte Carlo,Monaco,Monaco","phones":"+37793309880","fax":"+37793157946","email":"reservations.montecarlo@lemeridien.com","url":"http://www.galahotels.com/detail.aspx?hotelid=142706&amp;sr=gg&amp;gclid=CPnP1beH9qYCFUS_zAodgFCgFg","countryIso2":"MC","countryName":"Monaco","hotelRating":"4","latitude":"43.7482","longitude":"7.4357","state_id":2014,"state_name":"Santa Catarina","country_id":31},{"active":false,"Giataid":"16118","cityId":13200,"cityName":"Monte Carlo","hotelId":16118,"hotelName":"Hotel Metropole Monte Carlo","address":"4 Avenue de la Madone,BP 19,98007 Monte Carlo,Monaco","phones":"+37793151515","fax":"+37793252444","email":"metropole@metropole.com","url":"http://www.metropole.com","countryIso2":"MC","countryName":"Monaco","hotelRating":"5","latitude":"43.7409","longitude":"7.42794","state_id":2014,"state_name":"Santa Catarina","country_id":31},{"active":false,"Giataid":"17505","cityId":13200,"cityName":"Monte Carlo","hotelId":17505,"hotelName":"Mirabeau Monte Carlo","address":"1 Avenue Princesse Grace,98007 Monte Carlo,Monaco","phones":"+37792166565","fax":"+37793508485","email":"","url":"http://www.trivago.de/monaco-monte-carlo-42647/hotel/mirabeau-42325","countryIso2":"MC","countryName":"Monaco","hotelRating":"4","latitude":"43.7413","longitude":"7.4295","state_id":2014,"state_name":"Santa Catarina","country_id":31},{"active":false,"Giataid":"17657","cityId":13200,"cityName":"Monte Carlo","hotelId":17657,"hotelName":"Fairmont Monte Carlo","address":"Avenue des Sp?lugues 12,98000 Monte Carlo,Monaco","phones":"+37793506500","fax":"+37793300157","email":"montecarlo@fairmont.com","url":"http://www.fairmont.com/montecarlo","countryIso2":"MC","countryName":"Monaco","hotelRating":"4","latitude":"43.7401","longitude":"7.42995","state_id":2014,"state_name":"Santa Catarina","country_id":31},{"active":false,"Giataid":"30435","cityId":13200,"cityName":"Monte Carlo","hotelId":30435,"hotelName":"Columbus MontE-Carlo","address":"23 Avenue des Papalins,98000 Monaco,Monaco","phones":"+37792059000","fax":"+37792059167","email":"columbus-hotel@columbus.mc","url":"http://www.columbushotels.com/","countryIso2":"MC","countryName":"Monaco","hotelRating":"3","latitude":"43.7274","longitude":"7.42012","state_id":2014,"state_name":"Santa Catarina","country_id":31},{"active":false,"Giataid":"38062","cityId":13200,"cityName":"Monte Carlo","hotelId":38062,"hotelName":"Hotel Hermitage","address":"Square Beaumarchais,98000 Monte Carlo,Monaco","phones":"+37798064000","fax":"+37798065970","email":"montecarloresort.com","url":"http://www.hotelhermitagemontecarlo.com","countryIso2":"MC","countryName":"Monaco","hotelRating":"5","latitude":"43.7385","longitude":"7.42603","state_id":2014,"state_name":"Santa Catarina","country_id":31},{"active":false,"Giataid":"51451","cityId":null,"cityName":"Monaco","hotelId":374255,"hotelName":"MontE-Carlo Beach","address":"Avenue Princesse Grace,98000 Principaut? de Monaco,Monaco","phones":"","fax":"","email":"","url":"","countryIso2":"MC","countryName":"Monaco","hotelRating":"5","latitude":"43.7516","longitude":"7.44231","state_id":null,"state_name":null,"country_id":null},{"active":false,"Giataid":"727447","cityId":13200,"cityName":"Monte Carlo","hotelId":727447,"hotelName":"Monte Carlo Center","address":"6 Rue Des Roses,Monte Carlo City Centre,98000 Monte Carlo,Monaco","phones":"","fax":"","email":"","url":"","countryIso2":"MC","countryName":"Monaco","hotelRating":"1","latitude":"43.7408","longitude":"7.42244","state_id":2014,"state_name":"Santa Catarina","country_id":31},{"active":false,"Giataid":"11772","cityId":13200,"cityName":"Monte Carlo","hotelId":20001360,"hotelName":"Du Louvre","address":"Monte Carlo,Monaco","phones":"","fax":"","email":"","url":"","countryIso2":"MC","countryName":"Monaco","hotelRating":"0","latitude":"43.738","longitude":"7.42453","state_id":2014,"state_name":"Santa Catarina","country_id":31},{"active":false,"Giataid":"451812","cityId":13200,"cityName":"Monte Carlo","hotelId":20001555,"hotelName":"Miramar","address":"1 Avenue John Fitzgerald Kennedy,La Condamine,98000 Monte Carlo,Monaco","phones":"","fax":"","email":"","url":"","countryIso2":"MC","countryName":"Monaco","hotelRating":"3","latitude":"43.737","longitude":"7.42298","state_id":2014,"state_name":"Santa Catarina","country_id":31},{"active":false,"Giataid":"606701","cityId":13200,"cityName":"Monte Carlo","hotelId":20001774,"hotelName":"Monte Carlo Center 2","address":"30 Boulevard de Belgique,98000 Monte Carlo,Monaco","phones":"","fax":"","email":"","url":"","countryIso2":"MC","countryName":"Monaco","hotelRating":"0","latitude":"43.738","longitude":"7.42453","state_id":2014,"state_name":"Santa Catarina","country_id":31},{"active":false,"Giataid":"262422","cityId":13200,"cityName":"Monte Carlo","hotelId":20001959,"hotelName":"Balmoral","address":"12 avenue de la Costa,98000 Monte Carlo,Monaco","phones":"+37793506237","fax":"+37793150869","email":"","url":"http://www.madagascar-consulate.org/embassies-world.html","countryIso2":"MC","countryName":"Monaco","hotelRating":"0","latitude":"43.738","longitude":"7.42453","state_id":2014,"state_name":"Santa Catarina","country_id":31},{"active":false,"Giataid":"262420","cityId":13200,"cityName":"Monte Carlo","hotelId":20002374,"hotelName":"Ni Hotel","address":"1 bis rue Grimaldi,98000 Monte Carlo,Monaco","phones":"+37797975151","fax":"+37797975152","email":"info@nihotel.com","url":"http://www.nihotel-nibar.com","countryIso2":"MC","countryName":"Monaco","hotelRating":"0","latitude":"43.7346","longitude":"7.41876","state_id":2014,"state_name":"Santa Catarina","country_id":31},{"active":false,"Giataid":"866789","cityId":13200,"cityName":"Monte Carlo","hotelId":20350241,"hotelName":"Apartments Monaco","address":"35 Avenue Du Marechal Foch,Monte Carlo City Centre,06240 Monte Carlo,Monaco","phones":"+377640627509","fax":"","email":"","url":"http://www.apartmentsmonacomontecarlo.com","countryIso2":"MC","countryName":"Monaco","hotelRating":"0","latitude":"43.7406","longitude":"7.42149","state_id":2014,"state_name":"Santa Catarina","country_id":31},{"active":false,"Giataid":"966089","cityId":null,"cityName":"Monaco","hotelId":20412855,"hotelName":"Residence Le Castel","address":"9 Avenue Crovetto Fr?res,Monte Carlo,98000 Monaco,Monaco","phones":"","fax":"","email":"","url":"","countryIso2":"MC","countryName":"Monaco","hotelRating":"1","latitude":"43.7341","longitude":"7.4183","state_id":null,"state_name":null,"country_id":null}]