[{"active":false,"Giataid":"34196","cityId":null,"cityName":"Lvov","hotelId":34196,"hotelName":"Lwow Grand","address":"Swodody  Prospect 13,Lwiw 79000,Oblast Lwiw,Ukraine","phones":"+380322724042","fax":"+380322769060","email":"grand@ghgroup.com.ua","url":"http://grandhotel.lviv.ua/de/","countryIso2":"UA","countryName":"Ukraine","hotelRating":"4","latitude":"49.8398","longitude":"24.0284","state_id":null,"state_name":null,"country_id":null},{"active":false,"Giataid":"34197","cityId":null,"cityName":"Kiev","hotelId":34197,"hotelName":"Dnipro","address":"1/2 Khreshchatyk,Kiev 01001,Ukraine","phones":"+380442546777","fax":"+380442546737","email":"reservation@dniprohotel.ua","url":"http://www.dniprohotel.ua/","countryIso2":"UA","countryName":"Ukraine","hotelRating":"3","latitude":"50.4515","longitude":"30.5275","state_id":null,"state_name":null,"country_id":null},{"active":false,"Giataid":"34198","cityId":null,"cityName":"Lvov","hotelId":34198,"hotelName":"Dnister","address":"Mateyka Street 6,Lwiw 79007,Oblast Lwiw,Ukraine","phones":"+380322974305","fax":"+380322971021","email":"","url":"http://www.dnister.lviv.ua/","countryIso2":"UA","countryName":"Ukraine","hotelRating":"4","latitude":"49.8373","longitude":"24.0166","state_id":null,"state_name":null,"country_id":null},{"active":false,"Giataid":"34199","cityId":null,"cityName":"Kiev","hotelId":34199,"hotelName":"Premier Hotel Lybid","address":"1 Peremohy Square,Kyiv 01135,Ukraine","phones":"+380443910098","fax":"+380442366336","email":"reception@hotellybid.com.ua","url":"http://www.hotellybid.com.ua/en/","countryIso2":"UA","countryName":"Ukraine","hotelRating":"3","latitude":"50.4462","longitude":"30.4938","state_id":null,"state_name":null,"country_id":null},{"active":false,"Giataid":"34200","cityId":null,"cityName":"Kiev","hotelId":34200,"hotelName":"Natsionalny","address":"5 Lypsï¿½ka St.,Kyiv 01021,Ukraine","phones":"+380442558888","fax":"+380442558997","email":"hotel@natsionalny.kiev.ua","url":"http://www.natsionalny.kiev.ua/start.php","countryIso2":"UA","countryName":"Ukraine","hotelRating":"4","latitude":"50.4449","longitude":"30.5366","state_id":null,"state_name":null,"country_id":null},{"active":false,"Giataid":"34201","cityId":null,"cityName":"Kiev","hotelId":34201,"hotelName":"Premier Palace","address":"5-7/29 Tarasa Shevchenka Blvd / Pushkinska street,Kiew 01004,Ukraine","phones":"+380445374500","fax":"+380442298772","email":"operator@premier-palace.com","url":"http://www.premier-palace.com/","countryIso2":"UA","countryName":"Ukraine","hotelRating":"5","latitude":"50.4425","longitude":"30.5174","state_id":null,"state_name":null,"country_id":null},{"active":false,"Giataid":"34202","cityId":null,"cityName":"Kiev","hotelId":34202,"hotelName":"Premier Hotel Rus","address":"Gospitalna str., 4,01601 Kiew,Ukraine,Ukraine","phones":"+380442564000","fax":"+380442894396","email":"info@hotelrus.kiev.ua","url":"http://www.hotelrus.kiev.ua/en/index.php","countryIso2":"UA","countryName":"Ukraine","hotelRating":"3","latitude":"50.4358","longitude":"30.5237","state_id":null,"state_name":null,"country_id":null},{"active":false,"Giataid":"34203","cityId":123358,"cityName":"Odessa","hotelId":34203,"hotelName":"Odessa Hotel","address":"6a Primorskaya Street,Odessa 65026,Ukraine","phones":"+380487294808","fax":"","email":"hotel@odessa-hotel.com.ua","url":"http://hotel@odessa-hotel.com.ua","countryIso2":"UA","countryName":"Ukraine","hotelRating":"4","latitude":"46.4916","longitude":"30.7469","state_id":1436,"state_name":"Florida","country_id":233},{"active":false,"Giataid":"34204","cityId":null,"cityName":"Dnepropetrovsk","hotelId":34204,"hotelName":"Hotel Astoria","address":"Dmytro Yavornytskyi Avenue 66,Dnipro 49000,Ukraine","phones":"+380563760300","fax":"+380563704271","email":"","url":"","countryIso2":"UA","countryName":"Ukraine","hotelRating":"3","latitude":"48.4684","longitude":"35.0396","state_id":null,"state_name":null,"country_id":null},{"active":false,"Giataid":"34205","cityId":98310,"cityName":"Donetsk","hotelId":34205,"hotelName":"Central","address":"Artyoma 87,Donetsk 83001,Ukraine","phones":"+38038623323332","fax":"","email":"reception@hotel-central.com.ua","url":"http://www.hotel-central.com.ua/en/","countryIso2":"UA","countryName":"Ukraine","hotelRating":"3","latitude":"47.9992","longitude":"37.8055","state_id":1837,"state_name":"Rostov Oblast","country_id":182},{"active":false,"Giataid":"34206","cityId":123358,"cityName":"Odessa","hotelId":34206,"hotelName":"Hotel Bristol","address":"Pushkinskaya 15,65026 Odessa,Ukraine","phones":"+380487965500","fax":"","email":"bristol@bristol-hotel.com.ua","url":"http://www.bristol-hotel.com.ua/en_page_home","countryIso2":"UA","countryName":"Ukraine","hotelRating":"5","latitude":"46.4811","longitude":"30.7429","state_id":1436,"state_name":"Florida","country_id":233},{"active":false,"Giataid":"34207","cityId":123358,"cityName":"Odessa","hotelId":34207,"hotelName":"Londonskaja","address":"Primorsky Boulevard 11,65026 Odessa,Ukraine","phones":"+380487380102","fax":"+380487380111","email":"hotel@londred.com","url":"http://www.londred.com/en/","countryIso2":"UA","countryName":"Ukraine","hotelRating":"4","latitude":"46.4869","longitude":"30.7421","state_id":1436,"state_name":"Florida","country_id":233},{"active":false,"Giataid":"34208","cityId":null,"cityName":"Jalta","hotelId":34208,"hotelName":"Oreanda","address":"Lenina Naberezhnaya 35/2,98635 Jalta,Republic of Crimea,Ukraine","phones":"+380654274274","fax":"+380654274307","email":"info@hotel-oreanda.com","url":"http://www.hotel-oreanda.com/","countryIso2":"UA","countryName":"Ukraine","hotelRating":"5","latitude":"44.4892","longitude":"34.162","state_id":null,"state_name":null,"country_id":null},{"active":false,"Giataid":"34209","cityId":null,"cityName":"Jalta","hotelId":34209,"hotelName":"Yalta Intourist","address":"Drazhinskogo street 50,Yalta 98600,Ukraine","phones":"+380654270260","fax":"+380654270100","email":"info@hotel-yalta.com","url":"http://hotel-yalta.com/en/","countryIso2":"UA","countryName":"Ukraine","hotelRating":"3","latitude":"44.5031","longitude":"34.1905","state_id":null,"state_name":null,"country_id":null},{"active":false,"Giataid":"34210","cityId":null,"cityName":"Jalta","hotelId":34210,"hotelName":"Eco-Hotel Levant","address":"Primorskiy Park 3a,Yalta 298635,Respublika Krym,Ukraine","phones":"+38073654231134","fax":"+380654231135","email":"reserv@krasotel.ru","url":"http://krasotel.ru/","countryIso2":"UA","countryName":"Ukraine","hotelRating":"3","latitude":"44.4846","longitude":"34.1592","state_id":null,"state_name":null,"country_id":null},{"active":false,"Giataid":"34211","cityId":null,"cityName":"Jalta","hotelId":34211,"hotelName":"Jahreszeiten","address":"NULL","phones":"+380652273388","fax":"+380652531222","email":"","url":"http://www.vremenagoda.com/","countryIso2":"UA","countryName":"Ukraine","hotelRating":"3","latitude":"44.5014","longitude":"34.1721","state_id":null,"state_name":null,"country_id":null},{"active":false,"Giataid":"40426","cityId":null,"cityName":"Charkow","hotelId":40426,"hotelName":"Charkov","address":"Svobody Square 7,Charkow 61022,Ukraine","phones":"+380636183573","fax":"+380577051963","email":"","url":"http://maps.google.de/maps/place?cid=3078987485173242809&amp;q=Kharkiv+Hotel&amp;hl=de&amp;cd=1&amp;cad=src:ppiwlink&amp;ei=_hSoTaGCDM-fsQarpsToDQ&amp;dtab=0","countryIso2":"UA","countryName":"Ukraine","hotelRating":"4","latitude":"50.0053","longitude":"36.2327","state_id":null,"state_name":null,"country_id":null},{"active":false,"Giataid":"40427","cityId":123358,"cityName":"Odessa","hotelId":40427,"hotelName":"Mozart","address":"Lanjeronovskaya Ulitsa 13,65026 Odessa,Ukraine","phones":"+380482377777","fax":"","email":"reservation@mozart-hotel.com","url":"http://mozart-hotel.com/en/","countryIso2":"UA","countryName":"Ukraine","hotelRating":"4","latitude":"46.4849","longitude":"30.7402","state_id":1436,"state_name":"Florida","country_id":233},{"active":false,"Giataid":"40428","cityId":null,"cityName":"Jalta","hotelId":40428,"hotelName":"Leto","address":"Primorsky Park imeni Gagarina 4,Jalta 298609,Krim,Ukraine","phones":"","fax":"","email":"","url":"","countryIso2":"UA","countryName":"Ukraine","hotelRating":"4","latitude":"44.4946","longitude":"34.1638","state_id":null,"state_name":null,"country_id":null},{"active":false,"Giataid":"40429","cityId":null,"cityName":"Jalta","hotelId":40429,"hotelName":"Massandra","address":"Drazhinskiy Street 46,Yalta 98600,Ukraine","phones":"+38079788900109","fax":"+380654272992","email":"info@hotel-massandra.com.ua","url":"http://www.hotel-massandra.com.ua/","countryIso2":"UA","countryName":"Ukraine","hotelRating":"3","latitude":"44.5013","longitude":"34.1859","state_id":null,"state_name":null,"country_id":null},{"active":false,"Giataid":"41231","cityId":null,"cityName":"Kiev","hotelId":41231,"hotelName":"Adria","address":"R. Okipnoistra?e 2,Kiew 02002,Ukraine","phones":"+380445684457","fax":"+380445178933","email":"hotel@adria.kiev.ua","url":"http://www.adria.kiev.ua","countryIso2":"UA","countryName":"Ukraine","hotelRating":"3","latitude":"50.4506","longitude":"30.5973","state_id":null,"state_name":null,"country_id":null},{"active":false,"Giataid":"133282","cityId":null,"cityName":"Kiev","hotelId":133282,"hotelName":"Khreschatyk","address":"Khreschatyk 14,01001 Kiev,Ukraine","phones":"+380445968004","fax":"+380445968001","email":"reservation@khreschatik.kiev.ua","url":"http://www.khreschatik.kiev.ua/eng/home/","countryIso2":"UA","countryName":"Ukraine","hotelRating":"4","latitude":"50.4513","longitude":"30.5253","state_id":null,"state_name":null,"country_id":null},{"active":false,"Giataid":"133283","cityId":null,"cityName":"Kiev","hotelId":133283,"hotelName":"Boutique Hotel Riviera On Podol","address":"15 Sagaydachnogo Street,Kiev 04070,Ukraine","phones":"+380445812828","fax":"+380445812868","email":"info@rivierahotel.com.ua","url":"http://www.rivierahotel.com.ua/en","countryIso2":"UA","countryName":"Ukraine","hotelRating":"4","latitude":"50.4591","longitude":"30.5243","state_id":null,"state_name":null,"country_id":null},{"active":false,"Giataid":"139980","cityId":null,"cityName":"Lvov","hotelId":139980,"hotelName":"Hotel Leopolis","address":"Teatralna Street 16,79008 Lviv,Ukraine","phones":"+380322959500","fax":"+380322959599","email":"hotel@leopolishotel.com","url":"http://www.leopolishotel.com","countryIso2":"UA","countryName":"Ukraine","hotelRating":"5","latitude":"49.842","longitude":"24.0293","state_id":null,"state_name":null,"country_id":null},{"active":false,"Giataid":"202402","cityId":123358,"cityName":"Odessa","hotelId":202402,"hotelName":"Black Sea Hotel - Rishelevskaya","address":"Rishelievskaya Street 59,Odessa 65014,Ukraine","phones":"+380487101010","fax":"+380487314723","email":"","url":"http://www.bs-hotel.com.ua/hotel/odessa-rishelevskaya","countryIso2":"UA","countryName":"Ukraine","hotelRating":"4","latitude":"46.4714","longitude":"30.7396","state_id":1436,"state_name":"Florida","country_id":233},{"active":false,"Giataid":"187467","cityId":123358,"cityName":"Odessa","hotelId":187467,"hotelName":"Grand Pettine","address":"8 Mayachny lane,65038 Odessa,Ukraine","phones":"+380487965050","fax":"+380487965041","email":"","url":"","countryIso2":"UA","countryName":"Ukraine","hotelRating":"4","latitude":"46.3788","longitude":"30.7495","state_id":1436,"state_name":"Florida","country_id":233},{"active":false,"Giataid":"187597","cityId":null,"cityName":"Kiev","hotelId":187597,"hotelName":"Attache","address":"Zhylianska Street 59,Kiev,Kyiv city,Ukraine","phones":"+38038445017700","fax":"","email":"","url":"","countryIso2":"UA","countryName":"Ukraine","hotelRating":"3","latitude":"50.4379","longitude":"30.4997","state_id":null,"state_name":null,"country_id":null},{"active":false,"Giataid":"187929","cityId":null,"cityName":"Kiev","hotelId":187929,"hotelName":"Faraon Floatel","address":"Naberezhno-Pecherskaya Road 2,Pechers'kyi District,01014 Kiev,Ukraine","phones":"","fax":"","email":"","url":"","countryIso2":"UA","countryName":"Ukraine","hotelRating":"3","latitude":"50.4413","longitude":"30.5225","state_id":null,"state_name":null,"country_id":null},{"active":false,"Giataid":"187942","cityId":null,"cityName":"Kiev","hotelId":187942,"hotelName":"Intercontinental Kiev","address":"2A Velyka Zhytomyrska Street,01025 Kiev,Ukraine","phones":"+380442191919","fax":"+380442191929","email":"","url":"http://www.intercontinental-kiev.com","countryIso2":"UA","countryName":"Ukraine","hotelRating":"5","latitude":"50.4556","longitude":"30.5192","state_id":null,"state_name":null,"country_id":null},{"active":false,"Giataid":"202402","cityId":123358,"cityName":"Odessa","hotelId":202402,"hotelName":"Black Sea Hotel - Rishelevskaya","address":"Rishelievskaya Street 59,Odessa 65014,Ukraine","phones":"+380487101010","fax":"+380487314723","email":"","url":"http://www.bs-hotel.com.ua/hotel/odessa-rishelevskaya","countryIso2":"UA","countryName":"Ukraine","hotelRating":"4","latitude":"46.4714","longitude":"30.7396","state_id":1436,"state_name":"Florida","country_id":233},{"active":false,"Giataid":"226688","cityId":null,"cityName":"Kiev","hotelId":226688,"hotelName":"Senator Apartments Executive","address":"62/20 Dmytrivska Street,Kyiv 01054,Ukraine","phones":"+380442200555","fax":"+380442200333","email":"executivecourt@senator-apartments.com","url":"http://www.senator-apartments.com/","countryIso2":"UA","countryName":"Ukraine","hotelRating":"4","latitude":"50.4526","longitude":"30.4892","state_id":null,"state_name":null,"country_id":null},{"active":false,"Giataid":"226888","cityId":null,"cityName":"Kiev","hotelId":226888,"hotelName":"Art Hotel Bakkara","address":"1 Venice Island,Hydropark Metro Station,Kiew 02002,Ukraine","phones":"+380443693232","fax":"+380443693434","email":"reservations@bakkara-hotel.com.ua","url":"http://www.bakkara-hotel.com.ua/en.html","countryIso2":"UA","countryName":"Ukraine","hotelRating":"3","latitude":"50.4452","longitude":"30.567","state_id":null,"state_name":null,"country_id":null},{"active":false,"Giataid":"227652","cityId":null,"cityName":"Lvov","hotelId":227652,"hotelName":"Citadel Inn","address":"11 Grabovskiy street,Lviv 79000,Ukraine","phones":"+380322957777","fax":"+380322959000","email":"reservation@citadel-inn.com.ua","url":"http://www.citadel-inn.com/en/home.html","countryIso2":"UA","countryName":"Ukraine","hotelRating":"5","latitude":"49.8338","longitude":"24.0265","state_id":null,"state_name":null,"country_id":null},{"active":false,"Giataid":"227767","cityId":null,"cityName":"Kiev","hotelId":227767,"hotelName":"Senator's Park Hotel","address":"Borovkova Street 92,Podgortsy,Kiew 08710,Ukraine","phones":"+380983399979","fax":"","email":"reservation@senatorspark.com","url":"http://www.tripadvisor.de/Hotel_Review-g294474-d1532047-Reviews-Senators_Park_Hotel-Kiev.html","countryIso2":"UA","countryName":"Ukraine","hotelRating":"3","latitude":"50.2502","longitude":"30.556","state_id":null,"state_name":null,"country_id":null},{"active":false,"Giataid":"227766","cityId":null,"cityName":"Kiev","hotelId":227766,"hotelName":"City Park","address":"20-A Vorovsky Str.,Kiev 04053,Ukraine","phones":"+380444518701","fax":"+380444518727","email":"info@cityparkhotel.com.ua","url":"http://www.cityparkhotelkiev.com/","countryIso2":"UA","countryName":"Ukraine","hotelRating":"4","latitude":"50.4525","longitude":"30.5","state_id":null,"state_name":null,"country_id":null},{"active":false,"Giataid":"227768","cityId":null,"cityName":"Kiev","hotelId":227768,"hotelName":"Kozatskiy Hotel","address":"1/3 Myhailivska Street,Kiev 01001,Ukraine","phones":"+380442794925","fax":"+380442792709","email":"reservation@kozatskiy.kiev.ua","url":"http://www.kozatskiy.kiev.ua/eng.aspx","countryIso2":"UA","countryName":"Ukraine","hotelRating":"3","latitude":"50.4515","longitude":"30.5222","state_id":null,"state_name":null,"country_id":null},{"active":false,"Giataid":"228862","cityId":123358,"cityName":"Odessa","hotelId":228862,"hotelName":"Stella Residence Club","address":"Vanny Lane 3,Odessa 65016,Ukraine","phones":"+380487855000","fax":"+380487855000","email":"luxury@maristella-club.com","url":"http://www.maristella-club.com","countryIso2":"UA","countryName":"Ukraine","hotelRating":"5","latitude":"46.4129","longitude":"30.7597","state_id":1436,"state_name":"Florida","country_id":233},{"active":false,"Giataid":"229151","cityId":null,"cityName":"Lvov","hotelId":229151,"hotelName":"Reikartz Dworzec","address":"Ulitsa Gorodotskaya 107,L'vov 79016,Ukraine","phones":"+380322425126","fax":"","email":"dworzec.lviv@reikartz.com","url":"http://en.reikartz.com/dworzec.html","countryIso2":"UA","countryName":"Ukraine","hotelRating":"3","latitude":"49.8384","longitude":"24.0079","state_id":null,"state_name":null,"country_id":null},{"active":false,"Giataid":"232206","cityId":null,"cityName":"Lvov","hotelId":232206,"hotelName":"Lion's Castle","address":"Glinka str. 7,79012 Lviv,Ukraine","phones":"+380322971563","fax":"","email":"info@lioncastle.lviv(dot)ua","url":"http://www.lioncastlehotel.com/en/","countryIso2":"UA","countryName":"Ukraine","hotelRating":"3","latitude":"49.8385","longitude":"24.0236","state_id":null,"state_name":null,"country_id":null},{"active":false,"Giataid":"232205","cityId":98310,"cityName":"Donetsk","hotelId":232205,"hotelName":"Liverpool Art Hotel","address":"Vl. Artema 131-B,Donetsk,Ukraine","phones":"+380623125474","fax":"+380503646694","email":"hotel@liverpool.com.ua","url":"","countryIso2":"UA","countryName":"Ukraine","hotelRating":"3","latitude":"48.0123","longitude":"37.8043","state_id":1837,"state_name":"Rostov Oblast","country_id":182},{"active":false,"Giataid":"232806","cityId":98310,"cityName":"Donetsk","hotelId":232806,"hotelName":"Azania","address":"Teatralny Ave. 3,83055 Donetsk,Ukraine","phones":"+38038623493314","fax":"+38038623493315","email":"azaniahotel@list.ru","url":"http://www.azaniahotel.com/en/","countryIso2":"UA","countryName":"Ukraine","hotelRating":"3","latitude":"47.9892","longitude":"37.793","state_id":1837,"state_name":"Rostov Oblast","country_id":182},{"active":false,"Giataid":"232808","cityId":null,"cityName":"Kiev","hotelId":232808,"hotelName":"City Holiday Resort & Spa","address":"Velyka Koltseva Street 5,Petropavlivska Borshagivka,Kiev 08130,Kyivo-Svyatoshinsky,Ukraine","phones":"+38038443716888","fax":"+38038443716929","email":"","url":"","countryIso2":"UA","countryName":"Ukraine","hotelRating":"4","latitude":"50.4321","longitude":"30.3595","state_id":null,"state_name":null,"country_id":null},{"active":false,"Giataid":"232809","cityId":null,"cityName":"Sviatohirsk","hotelId":232809,"hotelName":"Roche Royal","address":"Ulitsa 60-letiya Oktyabrya 21,84130 Svyatogorsk,Ukraine","phones":"+380626253305","fax":"+380507017272","email":"reservation@rocheroyal.com.ua","url":"http://www.rocheroyal.com.ua/","countryIso2":"UA","countryName":"Ukraine","hotelRating":"4","latitude":"49.044","longitude":"37.5782","state_id":null,"state_name":null,"country_id":null},{"active":false,"Giataid":"233520","cityId":123358,"cityName":"Odessa","hotelId":233520,"hotelName":"Kapri","address":"Zentralnaya Str. 21,Odessa,Ukraine","phones":"+38038487124385","fax":"","email":"info@kapri-hotel.com","url":"http://kapri-hotel.com.ua/","countryIso2":"UA","countryName":"Ukraine","hotelRating":"3","latitude":"46.3461","longitude":"30.6843","state_id":1436,"state_name":"Florida","country_id":233},{"active":false,"Giataid":"233521","cityId":110820,"cityName":"Zaporizhia","hotelId":233521,"hotelName":"Dnipro","address":"Lenin Prospekt 202,69037 Saporischschja,Ukraine","phones":"+38038612330445","fax":"+38038612246340","email":"zap@7dney.com","url":"http://www.7dney.com/ru/hotels/zaporizhia/hotel/","countryIso2":"UA","countryName":"Ukraine","hotelRating":"3","latitude":"47.8503","longitude":"35.1195","state_id":4687,"state_name":"Zaporizka oblast","country_id":230},{"active":false,"Giataid":"233522","cityId":110820,"cityName":"Zaporizhia","hotelId":233522,"hotelName":"Soborniy","address":"Zaporozhye,Lenina avenue 28,Ukraine","phones":"+38038612271000","fax":"+38038612271022","email":"soborniy.zp@mail.ru","url":"http://www.soborniy.zp.ua/contact/?lang=en","countryIso2":"UA","countryName":"Ukraine","hotelRating":"3","latitude":"47.8092","longitude":"35.1864","state_id":4687,"state_name":"Zaporizka oblast","country_id":230},{"active":false,"Giataid":"234947","cityId":null,"cityName":"Charkow","hotelId":234947,"hotelName":"Hotel Mir","address":"27a Avenue Nauki,61072 Kharkiv/Harkov,Ukraine","phones":"+380573402330","fax":"+380573402217","email":"hotel-mir@mail.ru","url":"http://www.ukrainehotelsonline.com/en/Hotel-Mir-Kharkiv-Hotels/Mir-Hotel-Kharkiv.html","countryIso2":"UA","countryName":"Ukraine","hotelRating":"4","latitude":"50.0258","longitude":"36.2211","state_id":null,"state_name":null,"country_id":null},{"active":false,"Giataid":"234948","cityId":null,"cityName":"Charkow","hotelId":234948,"hotelName":"City Club Hotel","address":"Gagarina Avenue 145,Kharkov 61124,Ukraine","phones":"+380577301700","fax":"+380577639333","email":"reception@hotel-viva.com.ua","url":"http://www.hotel-viva.com.ua/en","countryIso2":"UA","countryName":"Ukraine","hotelRating":"4","latitude":"49.9596","longitude":"36.2599","state_id":null,"state_name":null,"country_id":null},{"active":false,"Giataid":"234949","cityId":null,"cityName":"Lvov","hotelId":234949,"hotelName":"George","address":"1 ?ickiewicz Square,Lviv 79000,Ukraine","phones":"+380322326236","fax":"+380322326252","email":"info@georgehotel.com.ua","url":"http://georgehotel.ukrbiz.net/","countryIso2":"UA","countryName":"Ukraine","hotelRating":"3","latitude":"49.8388","longitude":"24.0307","state_id":null,"state_name":null,"country_id":null},{"active":false,"Giataid":"234950","cityId":123358,"cityName":"Odessa","hotelId":234950,"hotelName":"Prominada","address":"Fontanskaya road 143,Odessa 65016,Ukraine","phones":"+380487054050","fax":"+380487054051","email":"sales@prominada.com","url":"http://prominada.com/","countryIso2":"UA","countryName":"Ukraine","hotelRating":"4","latitude":"46.411","longitude":"30.7561","state_id":1436,"state_name":"Florida","country_id":233},{"active":false,"Giataid":"234951","cityId":null,"cityName":"Dnepropetrovsk","hotelId":234951,"hotelName":"Axelhof Boutique","address":"14/44 Mechnikova str.,Dnepropetrovsk,Ukraine","phones":"+380567440707","fax":"","email":"","url":"http://www.axelhofhotel.com","countryIso2":"UA","countryName":"Ukraine","hotelRating":"4","latitude":"48.4664","longitude":"35.0378","state_id":null,"state_name":null,"country_id":null},{"active":false,"Giataid":"238324","cityId":109682,"cityName":"Ivano-Frankivsk","hotelId":238324,"hotelName":"Royal Village Resort","address":"Tract of the highest,S.Palyanytsa,Ivano-Frankivsk,Ukraine","phones":"+380445693030","fax":"","email":"book@rhg.com.ua","url":"http://royalvillage.net/","countryIso2":"UA","countryName":"Ukraine","hotelRating":"3","latitude":"48.9226","longitude":"24.7111","state_id":4682,"state_name":"Ivano-Frankivska oblast","country_id":230},{"active":false,"Giataid":"238328","cityId":null,"cityName":"Kiev","hotelId":238328,"hotelName":"Royal City Apartments Kiev","address":"Dmitrievskaya str 13-a,Kiev 01054,Ukraine","phones":"","fax":"","email":"","url":"","countryIso2":"UA","countryName":"Ukraine","hotelRating":"4","latitude":"50.4494","longitude":"30.4917","state_id":null,"state_name":null,"country_id":null},{"active":false,"Giataid":"238331","cityId":null,"cityName":"Truskavets","hotelId":238331,"hotelName":"Royal Sun Geneva","address":"Ulitsa Sukhovolya 61-63,Truskavets 82200,L'vovskaya Oblast,Ukraine","phones":"+380324773737","fax":"","email":"","url":"","countryIso2":"UA","countryName":"Ukraine","hotelRating":"4","latitude":"49.2767","longitude":"23.497","state_id":null,"state_name":null,"country_id":null},{"active":false,"Giataid":"238963","cityId":105924,"cityName":"Sevastopol","hotelId":238963,"hotelName":"Aquamarine Resort & Spa","address":"Parkovaya Street 11,Sewastopol 99057,Ukraine","phones":"+380692539494","fax":"","email":"reservation@a.crimea.ua","url":"http://a.crimea.ua/en","countryIso2":"UA","countryName":"Ukraine","hotelRating":"5","latitude":"44.6063","longitude":"33.4605","state_id":1912,"state_name":"Sevastopol","country_id":182},{"active":false,"Giataid":"238964","cityId":null,"cityName":"Kiev","hotelId":238964,"hotelName":"Royal Hotel De Paris","address":"Bolshaya Vasylkivska 5,Kiev 01004,Ukraine","phones":"+38038632378889","fax":"","email":"agent@rhg.com.ua","url":"http://www.royaldeparis.com","countryIso2":"UA","countryName":"Ukraine","hotelRating":"4","latitude":"50.4412","longitude":"30.5203","state_id":null,"state_name":null,"country_id":null},{"active":false,"Giataid":"240282","cityId":null,"cityName":"Jalta","hotelId":240282,"hotelName":"Royal Park Hotel","address":"57 Naberezhnaya Nikitskovo Bot,Nikita Botanic Gargen - 0.2 K,Yalta 98648,Krim,Ukraine","phones":"","fax":"","email":"","url":"","countryIso2":"UA","countryName":"Ukraine","hotelRating":"4","latitude":"44.4976","longitude":"34.1699","state_id":null,"state_name":null,"country_id":null},{"active":false,"Giataid":"240284","cityId":123358,"cityName":"Odessa","hotelId":240284,"hotelName":"Frederic Koklen Boutique","address":"7, Nekrasova lane,65082 Odessa,Ukraine","phones":"","fax":"","email":"","url":"","countryIso2":"UA","countryName":"Ukraine","hotelRating":"4","latitude":"46.489","longitude":"30.7337","state_id":1436,"state_name":"Florida","country_id":233},{"active":false,"Giataid":"240286","cityId":105924,"cityName":"Sevastopol","hotelId":240286,"hotelName":"Atrium - Kings Way","address":"Sewastopol,Krim,Ukraine","phones":"","fax":"","email":"","url":"","countryIso2":"UA","countryName":"Ukraine","hotelRating":"3","latitude":"44.6166","longitude":"33.5254","state_id":1912,"state_name":"Sevastopol","country_id":182},{"active":false,"Giataid":"240288","cityId":null,"cityName":"Truskavets","hotelId":240288,"hotelName":"Royal Medical Cezar","address":"Ulitsa Sukhovolya 61-63,Truskavets 82200,L'vovskaya Oblast,Ukraine","phones":"+380324773737","fax":"","email":"","url":"","countryIso2":"UA","countryName":"Ukraine","hotelRating":"4","latitude":"49.2766","longitude":"23.4966","state_id":null,"state_name":null,"country_id":null},{"active":false,"Giataid":"242383","cityId":null,"cityName":"Dnepropetrovsk","hotelId":242383,"hotelName":"GoodZone Business & Relax Hotel","address":"70 Chkalova Street,52183 Peschanka,Ukraine","phones":"","fax":"","email":"","url":"","countryIso2":"UA","countryName":"Ukraine","hotelRating":"3","latitude":"48.5966","longitude":"35.2723","state_id":null,"state_name":null,"country_id":null},{"active":false,"Giataid":"242384","cityId":null,"cityName":"Charkow","hotelId":242384,"hotelName":"Sun Light","address":"Kirgizskaya Street 19B,Kharkov 61105,Ukraine","phones":"+38038577031685","fax":"+38038577138976","email":"hotel_sunlight@mail.ru","url":"http://www.trivago.de/charkiw-87175/hotel/sun-light-1833149","countryIso2":"UA","countryName":"Ukraine","hotelRating":"4","latitude":"49.9465","longitude":"36.2831","state_id":null,"state_name":null,"country_id":null},{"active":false,"Giataid":"242385","cityId":123358,"cityName":"Odessa","hotelId":242385,"hotelName":"Black Sea Otrada","address":"Vice Admiral Azarova Street 1,65012 Odessa,Ukraine","phones":"","fax":"","email":"","url":"","countryIso2":"UA","countryName":"Ukraine","hotelRating":"3","latitude":"46.4659","longitude":"30.7589","state_id":1436,"state_name":"Florida","country_id":233},{"active":false,"Giataid":"243157","cityId":null,"cityName":"Charkow","hotelId":243157,"hotelName":"Park Hotel","address":"79 Schevchenko str,61070 Kharkov,Ukraine","phones":"+38038577301717","fax":"+38038577301718","email":"info@park-hotel.com.ua","url":"http://www.park-hotel.com.ua","countryIso2":"UA","countryName":"Ukraine","hotelRating":"4","latitude":"49.9994","longitude":"36.2555","state_id":null,"state_name":null,"country_id":null},{"active":false,"Giataid":"245897","cityId":null,"cityName":"Dniprodzerzhynsk","hotelId":245897,"hotelName":"Reikartz Dnipro","address":"12A Troitskaya St. (Chervona St.),Dnipro, 49000,Ukraine","phones":"+380567907400","fax":"","email":"dnipropetrovsk.hotel@reikartz.com","url":"http://en.reikartz.com/hotels/dneprop-descabouthotel.html","countryIso2":"UA","countryName":"Ukraine","hotelRating":"4","latitude":"48.4615","longitude":"35.0421","state_id":null,"state_name":null,"country_id":null},{"active":false,"Giataid":"245901","cityId":null,"cityName":"Dnepropetrovsk","hotelId":245901,"hotelName":"Tsunami Spa","address":"Oktyabrskaya Square, 12a,49000 Dnipropetrovsk,Ukraine","phones":"+380567402047","fax":"","email":"manager@tsunami.com.ua","url":"http://www.hotel.de/de/tsunami-spa-hotel/hotel-307671/","countryIso2":"UA","countryName":"Ukraine","hotelRating":"4","latitude":"48.4574","longitude":"35.069","state_id":null,"state_name":null,"country_id":null},{"active":false,"Giataid":"246356","cityId":null,"cityName":"Lvov","hotelId":246356,"hotelName":"Reikartz Medievale Lviv","address":"Drukarska street 9,Lviv 79009,Ukraine","phones":"+380322425133","fax":"","email":"medievale.lviv@reikartz.com","url":"http://en.reikartz.com/hotels/lvov-contacts.html","countryIso2":"UA","countryName":"Ukraine","hotelRating":"4","latitude":"49.8436","longitude":"24.0318","state_id":null,"state_name":null,"country_id":null},{"active":false,"Giataid":"246363","cityId":105924,"cityName":"Sevastopol","hotelId":246363,"hotelName":"Hotel Optima by Reikartz","address":"22 Geroev Stalingrada street,Sevastopol 99014,Crimea,Ukraine","phones":"+38078692410999","fax":"","email":"sevastopol.hotel@reikartz.com","url":"http://en.reikartz.com/hotels/sevastopol-contacts.html","countryIso2":"UA","countryName":"Ukraine","hotelRating":"3","latitude":"44.582","longitude":"33.435","state_id":1912,"state_name":"Sevastopol","country_id":182},{"active":false,"Giataid":"248424","cityId":110820,"cityName":"Zaporizhia","hotelId":248424,"hotelName":"Khortitsa Palace","address":"Shevchenko Boulevard 71A,Zaporozhye 69001,Ukraine","phones":"+380617660000","fax":"+380617660001","email":"","url":"http://www.starwoodhotels.com/fourpoints/property/overview/index.html?propertyID=3604&amp;language=de_DE","countryIso2":"UA","countryName":"Ukraine","hotelRating":"4","latitude":"47.8391","longitude":"35.1017","state_id":4687,"state_name":"Zaporizka oblast","country_id":230},{"active":false,"Giataid":"249346","cityId":null,"cityName":"Charkow","hotelId":249346,"hotelName":"Premier Palace Hotel Kharkiv","address":"Nezalezhnosti Avenue 2,Kharkiv 61058,Ukraine","phones":"+380577664400","fax":"","email":"sales@kharkiv-palace.com","url":"http://www.premier-hotels.com.ua/de/hotels/kharkiv_palace","countryIso2":"UA","countryName":"Ukraine","hotelRating":"5","latitude":"50.0066","longitude":"36.2328","state_id":null,"state_name":null,"country_id":null},{"active":false,"Giataid":"249347","cityId":123358,"cityName":"Odessa","hotelId":249347,"hotelName":"Compass","address":"32 Varlamova / Pionerska Str.,65009 Odessa,Ukraine","phones":"+38038487380412","fax":"+38038487380417","email":"reserve@hotel-yunost.com","url":"http://www.hotel-yunost.com/en.html","countryIso2":"UA","countryName":"Ukraine","hotelRating":"3","latitude":"46.4421","longitude":"30.7655","state_id":1436,"state_name":"Florida","country_id":233},{"active":false,"Giataid":"249349","cityId":null,"cityName":"Lvov","hotelId":249349,"hotelName":"Nobilis","address":"Fredra Street 5,79005 Lviv,Ukraine","phones":"+38038322952595","fax":"","email":"reservations@nobilis-hotel.com.ua","url":"http://nobilis-hotel.com.ua/en","countryIso2":"UA","countryName":"Ukraine","hotelRating":"5","latitude":"49.8361","longitude":"24.033","state_id":null,"state_name":null,"country_id":null},{"active":false,"Giataid":"292789","cityId":null,"cityName":"Boryspil","hotelId":292789,"hotelName":"Old Port","address":"Ulitsa Kiyevskiy Shlyakh 2,Borispol 08300,Ukraine","phones":"+380442817957","fax":"","email":"","url":"","countryIso2":"UA","countryName":"Ukraine","hotelRating":"2","latitude":"50.3662","longitude":"30.9177","state_id":null,"state_name":null,"country_id":null},{"active":false,"Giataid":"292790","cityId":null,"cityName":"Chubinske","hotelId":292790,"hotelName":"Hotel Edem","address":"Vystavkova street,1","phones":"","fax":"","email":"","url":"","countryIso2":"UA","countryName":"Ukraine","hotelRating":"3","latitude":"50.3861","longitude":"30.8358","state_id":null,"state_name":null,"country_id":null},{"active":false,"Giataid":"292791","cityId":null,"cityName":"Chubinske","hotelId":292791,"hotelName":"Korona Hotel","address":"Borispolskaya Street 5,Chubynske 08321,Boryspil District,Ukraine","phones":"+380664507733","fax":"","email":"","url":"","countryIso2":"UA","countryName":"Ukraine","hotelRating":"3","latitude":"50.3811","longitude":"30.8551","state_id":null,"state_name":null,"country_id":null},{"active":false,"Giataid":"292792","cityId":null,"cityName":"Chubinske","hotelId":292792,"hotelName":"Park-Hotel Kidev","address":"Kievskaya Street 5,Chubynske 08321,Kiev,Ukraine","phones":"","fax":"","email":"","url":"","countryIso2":"UA","countryName":"Ukraine","hotelRating":"4","latitude":"50.3792","longitude":"30.859","state_id":null,"state_name":null,"country_id":null},{"active":false,"Giataid":"292793","cityId":110763,"cityName":"Vyshhorod","hotelId":292793,"hotelName":"Residence Vyshegrad","address":"ul. Spasskaya 25,07300 Vyshhorod,Kiev Oblast,Ukraine","phones":"+380443317575","fax":"","email":"","url":"","countryIso2":"UA","countryName":"Ukraine","hotelRating":"3","latitude":"50.5999","longitude":"30.4546","state_id":4671,"state_name":"Kyivska oblast","country_id":230},{"active":false,"Giataid":"292795","cityId":109477,"cityName":"Cherkasy","hotelId":292795,"hotelName":"Orange Hotel","address":"Frunze street 145,Cherkasy 18000,Ukraine","phones":"+380472377461","fax":"","email":"","url":"","countryIso2":"UA","countryName":"Ukraine","hotelRating":"3","latitude":"49.4349","longitude":"32.0814","state_id":4680,"state_name":"Cherkaska oblast","country_id":230},{"active":false,"Giataid":"323216","cityId":null,"cityName":"Kiev","hotelId":323216,"hotelName":"Apartments Kyiv Hotel Service","address":"","phones":"","fax":"","email":"","url":"","countryIso2":"UA","countryName":"Ukraine","hotelRating":"1","latitude":"50.4422","longitude":"30.5187","state_id":null,"state_name":null,"country_id":null},{"active":false,"Giataid":"323217","cityId":null,"cityName":"Kiev","hotelId":323217,"hotelName":"Zolotyi Bereg","address":"","phones":"","fax":"","email":"","url":"","countryIso2":"UA","countryName":"Ukraine","hotelRating":"1","latitude":"50.4422","longitude":"30.5187","state_id":null,"state_name":null,"country_id":null},{"active":false,"Giataid":"323219","cityId":null,"cityName":"Kiev","hotelId":323219,"hotelName":"Puscha Lesnaya","address":"Lesnaya 1,Kiev 08106,Ukraine","phones":"","fax":"","email":"","url":"","countryIso2":"UA","countryName":"Ukraine","hotelRating":"3","latitude":"50.6005","longitude":"30.3329","state_id":null,"state_name":null,"country_id":null},{"active":false,"Giataid":"359727","cityId":98310,"cityName":"Donetsk","hotelId":359727,"hotelName":"Reikartz Donetsk Europe","address":"86A Panfilov Ave.,Donetsk 83087,Ukraine","phones":"+38038622060400","fax":"","email":"donetsk.hotel@reikartz.com","url":"http://www.reikartz.com/en/hotels/donetsk","countryIso2":"UA","countryName":"Ukraine","hotelRating":"4","latitude":"48.0049","longitude":"37.7686","state_id":1837,"state_name":"Rostov Oblast","country_id":182},{"active":false,"Giataid":"363285","cityId":null,"cityName":"Charkow","hotelId":363285,"hotelName":"Ovis","address":"201B Gagarin Ave.,Kharkov,Ukraine","phones":"+3803857170633","fax":"","email":"admin@ovis-hotel.com","url":"http://en.ovis-hotel.com/","countryIso2":"UA","countryName":"Ukraine","hotelRating":"4","latitude":"49.9264","longitude":"36.2674","state_id":null,"state_name":null,"country_id":null},{"active":false,"Giataid":"363286","cityId":null,"cityName":"Charkow","hotelId":363286,"hotelName":"De Gaulle Boutique","address":"17-a Vosstaniya sq.,Kharkov 61001,Ukraine","phones":"+38038577545154","fax":"+38038675786638","email":"info@degaulle.com.ua","url":"http://degaulle.com.ua/en","countryIso2":"UA","countryName":"Ukraine","hotelRating":"4","latitude":"49.9841","longitude":"36.2625","state_id":null,"state_name":null,"country_id":null},{"active":false,"Giataid":"363343","cityId":null,"cityName":"Kiev","hotelId":363343,"hotelName":"Pirosmani","address":"Stecenko Street 44,01001 Kiev,Ukraine","phones":"+380443836261","fax":"","email":"hotel@pirosmani-r.com.ua","url":"http://www.booking.com/hotel/ua/pirosmani.de.html","countryIso2":"UA","countryName":"Ukraine","hotelRating":"4","latitude":"50.4981","longitude":"30.3675","state_id":null,"state_name":null,"country_id":null},{"active":false,"Giataid":"363344","cityId":null,"cityName":"Kiev","hotelId":363344,"hotelName":"Hotel Bontiak","address":"Irininska Street 5/24,Block B,Kiew 01034,Ukraine","phones":"+380949282131","fax":"+380442840476","email":"office@bontiak.com","url":"http://www.bontiak.com/en/home","countryIso2":"UA","countryName":"Ukraine","hotelRating":"3","latitude":"50.4515","longitude":"30.517","state_id":null,"state_name":null,"country_id":null},{"active":false,"Giataid":"363345","cityId":null,"cityName":"Kiev","hotelId":363345,"hotelName":"Seasons Spa","address":"Obykhovskoye Highway 3,29 km of Stolichnoye Highway,Kozin,Kyiv Oblast,Ukraine","phones":"+380445208910","fax":"+380445208940","email":"reservation@seasons-spa.com","url":"http://www.booking.com/hotel/ua/boutique-spa.de.html","countryIso2":"UA","countryName":"Ukraine","hotelRating":"3","latitude":"50.2334","longitude":"30.6427","state_id":null,"state_name":null,"country_id":null},{"active":false,"Giataid":"363346","cityId":null,"cityName":"Kiev","hotelId":363346,"hotelName":"Alexandria Hotel","address":"Victory Avenue 62a,03113 Kiev,Ukraine","phones":"+380444562135","fax":"","email":"alexandriya@ua.fm","url":"http://aleksandria.kiev.ua/","countryIso2":"UA","countryName":"Ukraine","hotelRating":"3","latitude":"50.4577","longitude":"30.4335","state_id":null,"state_name":null,"country_id":null},{"active":false,"Giataid":"363347","cityId":null,"cityName":"Kiev","hotelId":363347,"hotelName":"Radisson Blu Kyiv Podil","address":"17-19 Bratska Street,Podil,04070 Kiev,Ukraine","phones":"+380443931373","fax":"+380443931377","email":"info.podil.kiev@radissonblu.com","url":"http://www.radissonblu.com/hotel-kyiv-podil","countryIso2":"UA","countryName":"Ukraine","hotelRating":"4","latitude":"50.4638","longitude":"30.5206","state_id":null,"state_name":null,"country_id":null},{"active":false,"Giataid":"363348","cityId":null,"cityName":"Kiev","hotelId":363348,"hotelName":"Amarant","address":"71-D Konstantinovskaya Str.,Kiev 04080,Ukraine","phones":"+380445001145","fax":"+380445001149","email":"reservation@amaranthotel.com","url":"http://www.amaranthotel.com/","countryIso2":"UA","countryName":"Ukraine","hotelRating":"3","latitude":"50.4735","longitude":"30.4993","state_id":null,"state_name":null,"country_id":null},{"active":false,"Giataid":"363427","cityId":123358,"cityName":"Odessa","hotelId":363427,"hotelName":"Hotel California","address":"Evreyskaya Street 27,Odessa 65045,Ukraine","phones":"+380487376333","fax":"","email":"","url":"","countryIso2":"UA","countryName":"Ukraine","hotelRating":"5","latitude":"46.4782","longitude":"30.7389","state_id":1436,"state_name":"Florida","country_id":233},{"active":false,"Giataid":"365042","cityId":null,"cityName":"Uzhhorod","hotelId":365042,"hotelName":"Old Continent","address":"S. Petefi Sq. 4,Uzhgorod 88000,Ukraine","phones":"+380312669366","fax":"+380312669366","email":"info@hotel-oldcontinent.com","url":"http://www.hotel-oldcontinent.com/en","countryIso2":"UA","countryName":"Ukraine","hotelRating":"4","latitude":"48.6209","longitude":"22.2972","state_id":null,"state_name":null,"country_id":null},{"active":false,"Giataid":"363345","cityId":null,"cityName":"Kiev","hotelId":368936,"hotelName":"Boutique Hotel Seasons Spa","address":"Obykhovskoye Highway 3,29 km of Stolichnoye Highway,Kozin,Kyiv Oblast,Ukraine","phones":"+380445208910","fax":"","email":"","url":"","countryIso2":"UA","countryName":"Ukraine","hotelRating":"4","latitude":"50.2345","longitude":"30.6391","state_id":null,"state_name":null,"country_id":null},{"active":false,"Giataid":"368937","cityId":null,"cityName":"Kiev","hotelId":368937,"hotelName":"Iq Hotel","address":"Vadyma Hetmana Street, 6,Kyyiv,Kyiv city,Ukraine","phones":"","fax":"","email":"","url":"","countryIso2":"UA","countryName":"Ukraine","hotelRating":"3","latitude":"50.4508","longitude":"30.4416","state_id":null,"state_name":null,"country_id":null},{"active":false,"Giataid":"368938","cityId":null,"cityName":"Kiev","hotelId":368938,"hotelName":"Old Tower-","address":"","phones":"","fax":"","email":"","url":"","countryIso2":"UA","countryName":"Ukraine","hotelRating":"1","latitude":"50.4422","longitude":"30.5187","state_id":null,"state_name":null,"country_id":null},{"active":false,"Giataid":"369094","cityId":null,"cityName":"Lvov","hotelId":369094,"hotelName":"Angel Hotel","address":"","phones":"","fax":"","email":"","url":"","countryIso2":"UA","countryName":"Ukraine","hotelRating":"3","latitude":"49.8401","longitude":"24.0279","state_id":null,"state_name":null,"country_id":null},{"active":false,"Giataid":"369095","cityId":null,"cityName":"Lvov","hotelId":369095,"hotelName":"Astoria Hotel","address":"Horodotska Street, 15,Lviv,Lviv Oblast,Ukraine","phones":"","fax":"","email":"","url":"","countryIso2":"UA","countryName":"Ukraine","hotelRating":"4","latitude":"49.8437","longitude":"24.024","state_id":null,"state_name":null,"country_id":null},{"active":false,"Giataid":"369096","cityId":null,"cityName":"Lvov","hotelId":369096,"hotelName":"Saint Feder Hotel","address":"Zvenyhorods'ka street, 3,Lviv,Ukraine","phones":"","fax":"","email":"","url":"","countryIso2":"UA","countryName":"Ukraine","hotelRating":"4","latitude":"49.8044","longitude":"24.1439","state_id":null,"state_name":null,"country_id":null},{"active":false,"Giataid":"369098","cityId":123358,"cityName":"Odessa","hotelId":369098,"hotelName":"Continental 2 Hotel","address":"Tiraspolskaya Street 1,Odessa 65001,Ukraine","phones":"","fax":"","email":"","url":"","countryIso2":"UA","countryName":"Ukraine","hotelRating":"3","latitude":"46.4797","longitude":"30.7313","state_id":1436,"state_name":"Florida","country_id":233},{"active":false,"Giataid":"369099","cityId":123358,"cityName":"Odessa","hotelId":369099,"hotelName":"Deribas Hotel","address":"","phones":"","fax":"","email":"","url":"","countryIso2":"UA","countryName":"Ukraine","hotelRating":"3","latitude":"46.4842","longitude":"30.7357","state_id":1436,"state_name":"Florida","country_id":233},{"active":false,"Giataid":"381136","cityId":123358,"cityName":"Odessa","hotelId":369100,"hotelName":"Dom Aktera Hotel","address":"Fontanska Road 74/10,Odessa 65016,Ukraine","phones":"+380487700002","fax":"","email":"","url":"","countryIso2":"UA","countryName":"Ukraine","hotelRating":"3","latitude":"46.4103","longitude":"30.7556","state_id":1436,"state_name":"Florida","country_id":233},{"active":false,"Giataid":"369101","cityId":123358,"cityName":"Odessa","hotelId":369101,"hotelName":"Geneva Resort Hotel","address":"TINISTA VUL. 10","phones":"","fax":"","email":"","url":"","countryIso2":"UA","countryName":"Ukraine","hotelRating":"3","latitude":"46.4352","longitude":"30.7553","state_id":1436,"state_name":"Florida","country_id":233},{"active":false,"Giataid":"369102","cityId":98310,"cityName":"Donetsk","hotelId":369102,"hotelName":"Europe Hotel Complex","address":"Panfilova avenue, 86,Donetsk,Donetsk Oblast,Ukraine","phones":"","fax":"","email":"","url":"","countryIso2":"UA","countryName":"Ukraine","hotelRating":"4","latitude":"48.0117","longitude":"37.771","state_id":1837,"state_name":"Rostov Oblast","country_id":182},{"active":false,"Giataid":"369103","cityId":98310,"cityName":"Donetsk","hotelId":369103,"hotelName":"Stolichniy Hotel","address":"Bogdan Khmelnitsky Avenue 102,Donetsk,Ukraine","phones":"+380623349800","fax":"","email":"","url":"","countryIso2":"UA","countryName":"Ukraine","hotelRating":"4","latitude":"48.0116","longitude":"37.8056","state_id":1837,"state_name":"Rostov Oblast","country_id":182},{"active":false,"Giataid":"369104","cityId":null,"cityName":"Dnepropetrovsk","hotelId":369104,"hotelName":"Menorah Hotel","address":"Sholom Aleyhem street 4/26,Dnipropetrovsk 49000,Ukraine","phones":"+380567177001","fax":"","email":"","url":"","countryIso2":"UA","countryName":"Ukraine","hotelRating":"4","latitude":"48.4636","longitude":"35.0528","state_id":null,"state_name":null,"country_id":null},{"active":false,"Giataid":"369318","cityId":null,"cityName":"Charkow","hotelId":369318,"hotelName":"Guest House Nasha Dacha","address":"Batums'ka street, 4,Kharkiv,Kharkiv Oblast,Ukraine","phones":"","fax":"","email":"","url":"","countryIso2":"UA","countryName":"Ukraine","hotelRating":"4","latitude":"50.052","longitude":"36.2655","state_id":null,"state_name":null,"country_id":null},{"active":false,"Giataid":"369319","cityId":null,"cityName":"Charkow","hotelId":369319,"hotelName":"Hotel 19","address":"Sumska Street 19,Kharkiv,Ukraine","phones":"","fax":"","email":"","url":"","countryIso2":"UA","countryName":"Ukraine","hotelRating":"4","latitude":"49.9973","longitude":"36.2332","state_id":null,"state_name":null,"country_id":null},{"active":false,"Giataid":"369320","cityId":null,"cityName":"Charkow","hotelId":369320,"hotelName":"Viva Hotel","address":"10/2 Gagarina Avenue,Charkiw,Ukraine","phones":"+380577840790","fax":"","email":"","url":"","countryIso2":"UA","countryName":"Ukraine","hotelRating":"4","latitude":"49.9827","longitude":"36.2456","state_id":null,"state_name":null,"country_id":null},{"active":false,"Giataid":"370337","cityId":null,"cityName":"Truskavets","hotelId":370337,"hotelName":"Mirotel Resort And Spa","address":"1 Kobzar Sq","phones":"","fax":"","email":"","url":"","countryIso2":"UA","countryName":"Ukraine","hotelRating":"5","latitude":"49.2798","longitude":"23.5049","state_id":null,"state_name":null,"country_id":null},{"active":false,"Giataid":"372191","cityId":null,"cityName":"Polianycia (Bukowel), Jaremcze","hotelId":372191,"hotelName":"Royal Village Resort Bukovel","address":"","phones":"","fax":"","email":"","url":"","countryIso2":"UA","countryName":"Ukraine","hotelRating":"1","latitude":"48.3558","longitude":"24.4108","state_id":null,"state_name":null,"country_id":null},{"active":false,"Giataid":"372198","cityId":null,"cityName":"Uzhhorod","hotelId":372198,"hotelName":"Duet Plus","address":"Koshitska Street 6,Uzhgorod 88000,Ukraine","phones":"+38038312640909","fax":"+38038312640909","email":"administrator@hotel-duet.com","url":"http://www.hotel-duet.com","countryIso2":"UA","countryName":"Ukraine","hotelRating":"4","latitude":"48.6281","longitude":"22.2917","state_id":null,"state_name":null,"country_id":null},{"active":false,"Giataid":"372373","cityId":109393,"cityName":"Bila Tserkva","hotelId":372373,"hotelName":"City Park Hotel Bila Tserva","address":"Yaroslava Mudroho Street 14,Bila Tserkva 09100,Ukraine","phones":"+38038445001140","fax":"","email":"","url":"","countryIso2":"UA","countryName":"Ukraine","hotelRating":"4","latitude":"49.7959","longitude":"30.1174","state_id":4671,"state_name":"Kyivska oblast","country_id":230},{"active":false,"Giataid":"380683","cityId":null,"cityName":"Kiev","hotelId":380683,"hotelName":"Uavoyage Business Apartments","address":"Mala Zhytomirska Street 5,Kiev 01001,Ukraine","phones":"","fax":"","email":"","url":"","countryIso2":"UA","countryName":"Ukraine","hotelRating":"3","latitude":"50.4523","longitude":"30.521","state_id":null,"state_name":null,"country_id":null},{"active":false,"Giataid":"380684","cityId":null,"cityName":"Kiev","hotelId":380684,"hotelName":"Apartments On Basseinaya","address":"NULL","phones":"+380672497967","fax":"+380442467663","email":"","url":"http://aptservice.kiev.ua/epartments/basseyna-3.html","countryIso2":"UA","countryName":"Ukraine","hotelRating":"1","latitude":"50.4416","longitude":"30.5227","state_id":null,"state_name":null,"country_id":null},{"active":false,"Giataid":"380689","cityId":null,"cityName":"Kiev","hotelId":380689,"hotelName":"Comfort","address":"32b Molodohvardiiska Street    ","phones":"","fax":"","email":"","url":"","countryIso2":"UA","countryName":"Ukraine","hotelRating":"3","latitude":"50.4503","longitude":"30.5955","state_id":null,"state_name":null,"country_id":null},{"active":false,"Giataid":"380690","cityId":null,"cityName":"Kiev","hotelId":380690,"hotelName":"Ekos On Tampere","address":"Tampere Str. 8A,8A","phones":"","fax":"","email":"","url":"","countryIso2":"UA","countryName":"Ukraine","hotelRating":"2","latitude":"50.4419","longitude":"30.615","state_id":null,"state_name":null,"country_id":null},{"active":false,"Giataid":"380691","cityId":null,"cityName":"Kiev","hotelId":380691,"hotelName":"Ekos On Mikitenko","address":"MYKYTENKA STR 9,9","phones":"","fax":"","email":"","url":"","countryIso2":"UA","countryName":"Ukraine","hotelRating":"2","latitude":"50.4863","longitude":"30.5982","state_id":null,"state_name":null,"country_id":null},{"active":false,"Giataid":"380693","cityId":null,"cityName":"Kiev","hotelId":380693,"hotelName":"Rock Wall Hotel","address":"Malokytaivs'ka Street 84,Kiev 03139,Ukraine","phones":"","fax":"","email":"","url":"","countryIso2":"UA","countryName":"Ukraine","hotelRating":"1","latitude":"50.3937","longitude":"30.5303","state_id":null,"state_name":null,"country_id":null},{"active":false,"Giataid":"380694","cityId":null,"cityName":"Kiev","hotelId":380694,"hotelName":"Alexandra","address":"Oleksandra Pyrohovs'koho street, 19,Kyyiv,Kyiv city,Ukraine","phones":"","fax":"","email":"","url":"","countryIso2":"UA","countryName":"Ukraine","hotelRating":"1","latitude":"50.4192","longitude":"30.4778","state_id":null,"state_name":null,"country_id":null},{"active":false,"Giataid":"380695","cityId":null,"cityName":"Kiev","hotelId":380695,"hotelName":"Vlada","address":"Brodovskaya 79A,Kiew 03026,Ukraine","phones":"","fax":"","email":"","url":"","countryIso2":"UA","countryName":"Ukraine","hotelRating":"3","latitude":"50.3191","longitude":"30.5489","state_id":null,"state_name":null,"country_id":null},{"active":false,"Giataid":"380701","cityId":null,"cityName":"Kiev","hotelId":380701,"hotelName":"Puscha Congress Hotel","address":"20 N.Yunkerova Street,Puscha-Voditsa,Kiev 04075,Ukraine","phones":"+380443649000","fax":"","email":"","url":"","countryIso2":"UA","countryName":"Ukraine","hotelRating":"3","latitude":"50.533","longitude":"30.3631","state_id":null,"state_name":null,"country_id":null},{"active":false,"Giataid":"380706","cityId":null,"cityName":"Boryspil","hotelId":380706,"hotelName":"Stara Vesha","address":"Botanicheskaya Street 1/7,Boryspil 08300,Ukraine","phones":"+380445920398","fax":"","email":"","url":"","countryIso2":"UA","countryName":"Ukraine","hotelRating":"3","latitude":"50.3521","longitude":"30.9379","state_id":null,"state_name":null,"country_id":null},{"active":false,"Giataid":"380708","cityId":null,"cityName":"Kiev","hotelId":380708,"hotelName":"Apartments Kiev","address":"Basseynaia Street 9,Office 5,Kiev 01001,Ukraine","phones":"+380442293535","fax":"","email":"info@apartments.com.ua","url":"http://www.apartment-hotelservice.com/","countryIso2":"UA","countryName":"Ukraine","hotelRating":"3","latitude":"50.4408","longitude":"30.5232","state_id":null,"state_name":null,"country_id":null},{"active":false,"Giataid":"381113","cityId":109948,"cityName":"Lviv","hotelId":381113,"hotelName":"Leotel","address":"","phones":"","fax":"","email":"","url":"","countryIso2":"UA","countryName":"Ukraine","hotelRating":"3","latitude":"49.8332","longitude":"24.02","state_id":4672,"state_name":"Lvivska oblast","country_id":230},{"active":false,"Giataid":"381113","cityId":109948,"cityName":"Lviv","hotelId":381113,"hotelName":"Leotel","address":"","phones":"","fax":"","email":"","url":"","countryIso2":"UA","countryName":"Ukraine","hotelRating":"3","latitude":"49.8332","longitude":"24.02","state_id":4672,"state_name":"Lvivska oblast","country_id":230},{"active":false,"Giataid":"381117","cityId":109948,"cityName":"Lviv","hotelId":381117,"hotelName":"On The Square","address":"13 Ploshcha Rynok","phones":"","fax":"","email":"","url":"","countryIso2":"UA","countryName":"Ukraine","hotelRating":"3","latitude":"49.8414","longitude":"24.0323","state_id":4672,"state_name":"Lvivska oblast","country_id":230},{"active":false,"Giataid":"381117","cityId":109948,"cityName":"Lviv","hotelId":381117,"hotelName":"On The Square","address":"13 Ploshcha Rynok","phones":"","fax":"","email":"","url":"","countryIso2":"UA","countryName":"Ukraine","hotelRating":"3","latitude":"49.8414","longitude":"24.0323","state_id":4672,"state_name":"Lvivska oblast","country_id":230},{"active":false,"Giataid":"381118","cityId":null,"cityName":"Lvov","hotelId":381118,"hotelName":"Ekotel","address":"Akademika Andriya Sakharova street, 42,Lviv,Lviv Oblast,Ukraine","phones":"","fax":"","email":"","url":"","countryIso2":"UA","countryName":"Ukraine","hotelRating":"1","latitude":"49.8292","longitude":"24.0128","state_id":null,"state_name":null,"country_id":null},{"active":false,"Giataid":"381119","cityId":null,"cityName":"Lvov","hotelId":381119,"hotelName":"Gerold","address":"Petra Pancha street, 7,Lviv,Lviv Oblast,Ukraine","phones":"","fax":"","email":"","url":"","countryIso2":"UA","countryName":"Ukraine","hotelRating":"3","latitude":"49.861","longitude":"24.0116","state_id":null,"state_name":null,"country_id":null},{"active":false,"Giataid":"381120","cityId":null,"cityName":"Lvov","hotelId":381120,"hotelName":"Europe","address":"Striyska Street 31,Lviv,Ukraine","phones":"","fax":"","email":"","url":"","countryIso2":"UA","countryName":"Ukraine","hotelRating":"1","latitude":"49.8174","longitude":"24.0201","state_id":null,"state_name":null,"country_id":null},{"active":false,"Giataid":"381123","cityId":null,"cityName":"Vynnyky","hotelId":381123,"hotelName":"Sviatoslav","address":"Ivana Franko Street 53b,Lviv-Vinniki,79495 Vynnyky,Ukraine","phones":"+380322963417","fax":"","email":"reserv@sviatoslav.com.ua","url":"http://www.sviatoslav.com.ua","countryIso2":"UA","countryName":"Ukraine","hotelRating":"3","latitude":"49.8105","longitude":"24.1393","state_id":null,"state_name":null,"country_id":null},{"active":false,"Giataid":"381124","cityId":null,"cityName":"Malekhiv","hotelId":381124,"hotelName":"Mars","address":"Kievskaya 16,Malekhiv 80383,Ukraine","phones":"","fax":"","email":"","url":"","countryIso2":"UA","countryName":"Ukraine","hotelRating":"3","latitude":"49.8858","longitude":"24.0794","state_id":null,"state_name":null,"country_id":null},{"active":false,"Giataid":"381126","cityId":null,"cityName":"Dovgomostiska","hotelId":381126,"hotelName":"Sherwood - Resort","address":"Zelena Street 38b,Dovhomostyska  81342,Ukraine","phones":"+380323438097","fax":"","email":"sherwood.lviv@gmail.com","url":"http://sherwood-resort.com/index_en.html","countryIso2":"UA","countryName":"Ukraine","hotelRating":"1","latitude":"49.7884","longitude":"23.4376","state_id":null,"state_name":null,"country_id":null},{"active":false,"Giataid":"381127","cityId":null,"cityName":"Jalta","hotelId":381127,"hotelName":"Jsc Hotelcomplex Yaltaintour","address":"","phones":"","fax":"","email":"","url":"","countryIso2":"UA","countryName":"Ukraine","hotelRating":"1","latitude":"44.4946","longitude":"34.1638","state_id":null,"state_name":null,"country_id":null},{"active":false,"Giataid":"381129","cityId":null,"cityName":"Jalta","hotelId":381129,"hotelName":"Villa Pearl","address":"","phones":"","fax":"","email":"","url":"","countryIso2":"UA","countryName":"Ukraine","hotelRating":"1","latitude":"44.4946","longitude":"34.1638","state_id":null,"state_name":null,"country_id":null},{"active":false,"Giataid":"381131","cityId":123358,"cityName":"Odessa","hotelId":381131,"hotelName":"ShanhaI-Blues","address":"Paustovskogo Street 12B,Odessa 65000,Ukraine","phones":"+380487040038","fax":"","email":"","url":"","countryIso2":"UA","countryName":"Ukraine","hotelRating":"3","latitude":"46.5941","longitude":"30.8053","state_id":1436,"state_name":"Florida","country_id":233},{"active":false,"Giataid":"381132","cityId":123358,"cityName":"Odessa","hotelId":381132,"hotelName":"Langeron Park Hotel","address":"Uspenskaya 17,Odessa 65014,Ukraine","phones":"","fax":"","email":"","url":"","countryIso2":"UA","countryName":"Ukraine","hotelRating":"3","latitude":"46.4747","longitude":"30.7506","state_id":1436,"state_name":"Florida","country_id":233},{"active":false,"Giataid":"381133","cityId":123358,"cityName":"Odessa","hotelId":381133,"hotelName":"Odesskiy Dvorik","address":"Uspens'ka street, 19,Odesa,Odessa Oblast,Ukraine","phones":"","fax":"","email":"","url":"","countryIso2":"UA","countryName":"Ukraine","hotelRating":"4","latitude":"46.4748","longitude":"30.7502","state_id":1436,"state_name":"Florida","country_id":233},{"active":false,"Giataid":"381134","cityId":123358,"cityName":"Odessa","hotelId":381134,"hotelName":"Odessa Villa 2 Odessa Villa 2","address":"","phones":"","fax":"","email":"","url":"","countryIso2":"UA","countryName":"Ukraine","hotelRating":"1","latitude":"46.4663","longitude":"30.7445","state_id":1436,"state_name":"Florida","country_id":233},{"active":false,"Giataid":"381135","cityId":123358,"cityName":"Odessa","hotelId":381135,"hotelName":"Vele Rosso","address":"Garshina Street 3","phones":"","fax":"","email":"","url":"","countryIso2":"UA","countryName":"Ukraine","hotelRating":"4","latitude":"46.4046","longitude":"30.752","state_id":1436,"state_name":"Florida","country_id":233},{"active":false,"Giataid":"381138","cityId":123358,"cityName":"Odessa","hotelId":381138,"hotelName":"Oreanda","address":"","phones":"","fax":"","email":"","url":"","countryIso2":"UA","countryName":"Ukraine","hotelRating":"3","latitude":"46.484","longitude":"30.7411","state_id":1436,"state_name":"Florida","country_id":233},{"active":false,"Giataid":"381141","cityId":123358,"cityName":"Odessa","hotelId":381141,"hotelName":"Royal Street","address":"Derybasivs'ka street, 27,Odesa,Odessa Oblast,Ukraine,65000,Ukraine","phones":"","fax":"","email":"","url":"","countryIso2":"UA","countryName":"Ukraine","hotelRating":"3","latitude":"46.484","longitude":"30.7357","state_id":1436,"state_name":"Florida","country_id":233},{"active":false,"Giataid":"381142","cityId":98310,"cityName":"Donetsk","hotelId":381142,"hotelName":"Hotel Bonbon","address":"Leninskiy Prospekt 72,Donezk,Ukraine","phones":"","fax":"","email":"","url":"","countryIso2":"UA","countryName":"Ukraine","hotelRating":"3","latitude":"47.9692","longitude":"37.7715","state_id":1837,"state_name":"Rostov Oblast","country_id":182},{"active":false,"Giataid":"382303","cityId":null,"cityName":"Charkow","hotelId":382303,"hotelName":"Druzhba","address":"","phones":"","fax":"","email":"","url":"","countryIso2":"UA","countryName":"Ukraine","hotelRating":"3","latitude":"49.9357","longitude":"36.2622","state_id":null,"state_name":null,"country_id":null},{"active":false,"Giataid":"382305","cityId":null,"cityName":"Charkow","hotelId":382305,"hotelName":"Kharkovlux","address":"Street Klochkovskaya 115,Kharkov 61022,Ukraine","phones":"+380935630102","fax":"","email":"info@kharkovlux.com","url":"http://www.kharkovlux.com/kharkovlux","countryIso2":"UA","countryName":"Ukraine","hotelRating":"1","latitude":"50.0071","longitude":"36.2172","state_id":null,"state_name":null,"country_id":null},{"active":false,"Giataid":"382308","cityId":null,"cityName":"Charkow","hotelId":382308,"hotelName":"Guberniya","address":"Poltavs'kyj Shlyah Street 190/1,Charkiw 61034,Ukraine","phones":"","fax":"","email":"","url":"","countryIso2":"UA","countryName":"Ukraine","hotelRating":"3","latitude":"49.9785","longitude":"36.1678","state_id":null,"state_name":null,"country_id":null},{"active":false,"Giataid":"382310","cityId":null,"cityName":"Charkow","hotelId":382310,"hotelName":"Asotel","address":"Kravtsova Lane 8,Kharkiv 61057,Ukraine","phones":"+380957104371","fax":"","email":"","url":"","countryIso2":"UA","countryName":"Ukraine","hotelRating":"2","latitude":"49.9961","longitude":"36.2292","state_id":null,"state_name":null,"country_id":null},{"active":false,"Giataid":"382311","cityId":null,"cityName":"Charkow","hotelId":382311,"hotelName":"Noy Hotel","address":"Prospekt Traktorostroitelei 69B,Kharkov 61000,Ukraine","phones":"","fax":"","email":"","url":"","countryIso2":"UA","countryName":"Ukraine","hotelRating":"3","latitude":"50.0009","longitude":"36.3384","state_id":null,"state_name":null,"country_id":null},{"active":false,"Giataid":"382886","cityId":109599,"cityName":"Feodosiya","hotelId":382886,"hotelName":"Dr.zacharov Residence - Spa","address":"Sirenna Street 12?,Feodosiya 98108,Ukraine","phones":"","fax":"","email":"","url":"","countryIso2":"UA","countryName":"Ukraine","hotelRating":"3","latitude":"45.0214","longitude":"35.4045","state_id":4689,"state_name":"Autonomous Republic of Crimea","country_id":230},{"active":false,"Giataid":"382888","cityId":105924,"cityName":"Sevastopol","hotelId":382888,"hotelName":"Guest House K&T","address":"Chertsova Street 27,Sevastopol 99008,Ukraine","phones":"+380692553228","fax":"","email":"info@ghkandt.com","url":"http://www.ghkandt.com","countryIso2":"UA","countryName":"Ukraine","hotelRating":"2","latitude":"44.6004","longitude":"33.4954","state_id":1912,"state_name":"Sevastopol","country_id":182},{"active":false,"Giataid":"384341","cityId":null,"cityName":"Truskavets","hotelId":384341,"hotelName":"Star","address":"Zan'kovets'koi 80 a,Stryi 82400s,Ukraine","phones":"","fax":"","email":"","url":"","countryIso2":"UA","countryName":"Ukraine","hotelRating":"1","latitude":"49.2553","longitude":"23.8592","state_id":null,"state_name":null,"country_id":null},{"active":false,"Giataid":"384441","cityId":109771,"cityName":"Koktebel","hotelId":384441,"hotelName":"Villa Classic","address":"Lenina street,127?,Koktebel',Crimea,Ukraine,98186,Ukraine","phones":"","fax":"","email":"","url":"","countryIso2":"UA","countryName":"Ukraine","hotelRating":"4","latitude":"44.9657","longitude":"35.2512","state_id":4689,"state_name":"Autonomous Republic of Crimea","country_id":230},{"active":false,"Giataid":"384444","cityId":109315,"cityName":"Alupka","hotelId":384444,"hotelName":"4-Sezona","address":"Rozy Luxemburg Street 3,Alupka 98676,Ukraine","phones":"","fax":"","email":"","url":"","countryIso2":"UA","countryName":"Ukraine","hotelRating":"2","latitude":"44.4211","longitude":"34.0498","state_id":4689,"state_name":"Autonomous Republic of Crimea","country_id":230},{"active":false,"Giataid":"291062","cityId":110563,"cityName":"Sumy","hotelId":388895,"hotelName":"Ukraine","address":"Voskresenskaya Street 1,Sumy 40000,Ukraine","phones":"","fax":"","email":"","url":"","countryIso2":"UA","countryName":"Ukraine","hotelRating":"1","latitude":"50.9086","longitude":"34.7973","state_id":4685,"state_name":"Sumska oblast","country_id":230},{"active":false,"Giataid":"390421","cityId":null,"cityName":"Tatriv","hotelId":390421,"hotelName":"Koruna","address":"Street Pegge 660,Tatariv,Yaremche District,Ivano-Frankivsk Region,Ukraine","phones":"+380676937820","fax":"","email":"hotel_koruna@yahoo.com","url":"https://koruna.ua/en/","countryIso2":"UA","countryName":"Ukraine","hotelRating":"1","latitude":"48.3356","longitude":"24.5828","state_id":null,"state_name":null,"country_id":null},{"active":false,"Giataid":"390422","cityId":109877,"cityName":"Kryvyi Rih","hotelId":390422,"hotelName":"Domashiy Zatyshok Delux","address":"","phones":"","fax":"","email":"","url":"","countryIso2":"UA","countryName":"Ukraine","hotelRating":"1","latitude":"47.9445","longitude":"33.419","state_id":4675,"state_name":"Dnipropetrovska oblast","country_id":230},{"active":false,"Giataid":"390441","cityId":109729,"cityName":"Kherson","hotelId":390441,"hotelName":"Greenstone","address":"Perekops'ka street, 83,Kherson,Khersons'ka oblast,Ukraine","phones":"","fax":"","email":"","url":"","countryIso2":"UA","countryName":"Ukraine","hotelRating":"3","latitude":"46.6479","longitude":"32.639","state_id":4684,"state_name":"Khersonska oblast","country_id":230},{"active":false,"Giataid":"390439","cityId":109725,"cityName":"Kerch","hotelId":390439,"hotelName":"Hotel Sanatorium Kiev","address":"Moskovskaya Street 18,Kerch,Ukraine","phones":"","fax":"","email":"","url":"","countryIso2":"UA","countryName":"Ukraine","hotelRating":"1","latitude":"45.3566","longitude":"36.521","state_id":4689,"state_name":"Autonomous Republic of Crimea","country_id":230},{"active":false,"Giataid":"390440","cityId":109729,"cityName":"Kherson","hotelId":390440,"hotelName":"Versal","address":"Kryms'ka street, 93,Kherson,Khersons'ka oblast,Ukraine","phones":"","fax":"","email":"","url":"","countryIso2":"UA","countryName":"Ukraine","hotelRating":"1","latitude":"46.6543","longitude":"32.6372","state_id":4684,"state_name":"Khersonska oblast","country_id":230},{"active":false,"Giataid":"390454","cityId":null,"cityName":"Uzhhorod","hotelId":390454,"hotelName":"Apollon","address":"","phones":"","fax":"","email":"","url":"","countryIso2":"UA","countryName":"Ukraine","hotelRating":"1","latitude":"48.6144","longitude":"22.334","state_id":null,"state_name":null,"country_id":null},{"active":false,"Giataid":"390455","cityId":null,"cityName":"Mukachevo","hotelId":390455,"hotelName":"L - M","address":"Mitschurina 8,Mukachevo,Ukraine","phones":"","fax":"","email":"","url":"","countryIso2":"UA","countryName":"Ukraine","hotelRating":"1","latitude":"48.6144","longitude":"22.334","state_id":null,"state_name":null,"country_id":null},{"active":false,"Giataid":"390870","cityId":110722,"cityName":"Vinnytsia","hotelId":390870,"hotelName":"Ria Hotel","address":"","phones":"","fax":"","email":"","url":"","countryIso2":"UA","countryName":"Ukraine","hotelRating":"1","latitude":"49.2447","longitude":"28.4738","state_id":4669,"state_name":"Vinnytska oblast","country_id":230},{"active":false,"Giataid":"390875","cityId":129918,"cityName":"Chust","hotelId":390875,"hotelName":"Hotel Karpaty","address":"Ivana Franka Street 93,Chust 90400,Ukraine","phones":"","fax":"","email":"","url":"","countryIso2":"UA","countryName":"Ukraine","hotelRating":"1","latitude":"48.1612","longitude":"23.3032","state_id":2537,"state_name":"Namangan Region","country_id":236},{"active":false,"Giataid":"390873","cityId":null,"cityName":"Kolomyja","hotelId":390873,"hotelName":"Oazys","address":"","phones":"","fax":"","email":"","url":"","countryIso2":"UA","countryName":"Ukraine","hotelRating":"1","latitude":"48.5293","longitude":"25.0391","state_id":null,"state_name":null,"country_id":null},{"active":false,"Giataid":"390876","cityId":null,"cityName":"Shayan","hotelId":390876,"hotelName":"Hotel Blagodat","address":"Urochishe Vagov,Shaian 90457,Ukraine","phones":"+380314259380","fax":"","email":"reception@hotel-blagodat.com.ua","url":"http://hotel-blagodat.com.ua","countryIso2":"UA","countryName":"Ukraine","hotelRating":"3","latitude":"48.0596","longitude":"23.3492","state_id":null,"state_name":null,"country_id":null},{"active":false,"Giataid":"390988","cityId":null,"cityName":"Kiev","hotelId":390988,"hotelName":"Senator Apartments Maidan","address":"8B T. Shevchenka Lane,Kyiv 01001,Ukraine","phones":"+380442007788","fax":"","email":"","url":"","countryIso2":"UA","countryName":"Ukraine","hotelRating":"4","latitude":"50.451","longitude":"30.5199","state_id":null,"state_name":null,"country_id":null},{"active":false,"Giataid":"401028","cityId":123358,"cityName":"Odessa","hotelId":401028,"hotelName":"Atlantic Garden Resort Hotel","address":"24a Genuezskaya Street,alongside April 10 Square,Odessa 65009,Ukraine","phones":"+380487744444","fax":"+380487744444","email":"admin@atlantic-hotel.com.ua","url":"http://atlantic-hotel.com.ua/en","countryIso2":"UA","countryName":"Ukraine","hotelRating":"4","latitude":"46.437","longitude":"30.7577","state_id":1436,"state_name":"Florida","country_id":233},{"active":false,"Giataid":"409392","cityId":null,"cityName":"Malekhiv","hotelId":409392,"hotelName":"Warszawa","address":"Zhovkivs'ka 1,L'viv,80383 Malekhiv,Zhovkivs'kyy rayon,Ukraine","phones":"+380322245335","fax":"","email":"warszawa-hotel@mail.ru","url":"http://warszawa-hotel.com.ua/","countryIso2":"UA","countryName":"Ukraine","hotelRating":"1","latitude":"49.8875","longitude":"24.0581","state_id":null,"state_name":null,"country_id":null},{"active":false,"Giataid":"409393","cityId":109948,"cityName":"Lviv","hotelId":409393,"hotelName":"Galytska Korona","address":"ul. Bandery 86A,Pustomytovskyy,L'viv,Ukraine","phones":"+380322777878","fax":"","email":"info@galcorona.com","url":"http://www.galkorona.com/","countryIso2":"UA","countryName":"Ukraine","hotelRating":"1","latitude":"49.7657","longitude":"24.1102","state_id":4672,"state_name":"Lvivska oblast","country_id":230},{"active":false,"Giataid":"409396","cityId":null,"cityName":"Lvov","hotelId":409396,"hotelName":"Leo City Hostel","address":"Mohyl'nyts'koho Street 28,Lwiw 79000,Ukraine","phones":"+380939489326","fax":"","email":"booking@leocityhostel.com","url":"http://leocityhostel.com/","countryIso2":"UA","countryName":"Ukraine","hotelRating":"1","latitude":"49.8584","longitude":"24.0212","state_id":null,"state_name":null,"country_id":null},{"active":false,"Giataid":"409398","cityId":null,"cityName":"Vynnyky","hotelId":409398,"hotelName":"Hotel Galaktika","address":"Halyts'ka 21b,79495 Vynnyky,L'viv,Ukraine","phones":"+380322962696","fax":"","email":"galaktika800@gmail.com","url":"http://www.galaktika-club.com/","countryIso2":"UA","countryName":"Ukraine","hotelRating":"3","latitude":"49.8181","longitude":"24.1361","state_id":null,"state_name":null,"country_id":null},{"active":false,"Giataid":"409404","cityId":123358,"cityName":"Odessa","hotelId":409404,"hotelName":"De Rishele","address":"Rishel'yevskaya 30,Odessa,Ukraine","phones":"+380487851653","fax":"+380487851652","email":"derishele@gmail.com","url":"http://derishele.od.ua/","countryIso2":"UA","countryName":"Ukraine","hotelRating":"3","latitude":"46.4777","longitude":"30.74","state_id":1436,"state_name":"Florida","country_id":233},{"active":false,"Giataid":"409411","cityId":123358,"cityName":"Odessa","hotelId":409411,"hotelName":"Hotel Arnautskiy","address":"Ulitsa Bol'shaya Arnautskaya 12,Odessa 65000,Ukraine","phones":"+380487357120","fax":"","email":"reservation@arnautsky.com.ua","url":"http://www.arnautsky.com.ua/","countryIso2":"UA","countryName":"Ukraine","hotelRating":"3","latitude":"46.4723","longitude":"30.7457","state_id":1436,"state_name":"Florida","country_id":233},{"active":false,"Giataid":"410296","cityId":109380,"cityName":"Berezivka","hotelId":410296,"hotelName":"Hotel Chateau Royal","address":"Berezovka,1B,Tismenetsky,Ivano-Frankivsk,Ukraine","phones":"+380342544744","fax":"","email":"","url":"http://chateauroyal.if.ua/en/the-hotel-chateau-royal/","countryIso2":"UA","countryName":"Ukraine","hotelRating":"1","latitude":"48.8373","longitude":"24.7021","state_id":4686,"state_name":"Kharkivska oblast","country_id":230},{"active":false,"Giataid":"410528","cityId":null,"cityName":"Uzhhorod","hotelId":410528,"hotelName":"Mala Praha","address":"vul. Bachyns'koho 68,Uzhgorod,Ukraine","phones":"+380312639568","fax":"","email":"malapraha@ukr.net","url":"http://malapraha.com.ua","countryIso2":"UA","countryName":"Ukraine","hotelRating":"1","latitude":"48.6314","longitude":"22.3066","state_id":null,"state_name":null,"country_id":null},{"active":false,"Giataid":"410529","cityId":null,"cityName":"Uzhhorod","hotelId":410529,"hotelName":"Boutique Hotel Villa P","address":"ul. Kapitul'na 22,Uzhgorod 88000,Ukraine","phones":"+380312614001","fax":"","email":"","url":"http://www.villa-p.com.ua","countryIso2":"UA","countryName":"Ukraine","hotelRating":"1","latitude":"48.6217","longitude":"22.3045","state_id":null,"state_name":null,"country_id":null},{"active":false,"Giataid":"410974","cityId":null,"cityName":"Kiev","hotelId":410974,"hotelName":"Hotel and Restaurant Complex Tisa","address":"Velyka Kil'tseva road 4B,03680 Kiew,Ukraine","phones":"+380442762659","fax":"+380442762659","email":"hotel_tisa@ukr.net","url":"http://tisahotel.com.ua/en/home","countryIso2":"UA","countryName":"Ukraine","hotelRating":"3","latitude":"50.52","longitude":"30.4097","state_id":null,"state_name":null,"country_id":null},{"active":false,"Giataid":"410978","cityId":null,"cityName":"Kiev","hotelId":410978,"hotelName":"Gintama Forum Hotel","address":"Kiev,Petrozavodskaya street 2a,Ukraine","phones":"+380442785092","fax":"+380442794941","email":"info@gintama-forum.com.ua","url":"http://www.gintama-forum.com.ua","countryIso2":"UA","countryName":"Ukraine","hotelRating":"1","latitude":"50.4375","longitude":"30.4907","state_id":null,"state_name":null,"country_id":null},{"active":false,"Giataid":"410979","cityId":null,"cityName":"Boryspil","hotelId":410979,"hotelName":"Restaurant & Hotel Non Stop","address":"Sotsgorodok Street 276,Boryspil,Kiev,Ukraine","phones":"+380952465656","fax":"+380459563879","email":"info@n-stop.com.ua","url":"http://www.n-stop.com.ua/en","countryIso2":"UA","countryName":"Ukraine","hotelRating":"3","latitude":"50.3611","longitude":"30.9326","state_id":null,"state_name":null,"country_id":null},{"active":false,"Giataid":"412094","cityId":null,"cityName":"Uzhhorod","hotelId":412094,"hotelName":"Gostinitsa Zveniv","address":"","phones":"","fax":"","email":"","url":"","countryIso2":"UA","countryName":"Ukraine","hotelRating":"1","latitude":"48.6144","longitude":"22.334","state_id":null,"state_name":null,"country_id":null},{"active":false,"Giataid":"412104","cityId":null,"cityName":"Solochin","hotelId":412104,"hotelName":"Villa Kvitka","address":"Golubyne 714,Urochyshe Zavadky,Svalyava 89320,Ukraine","phones":"+380673141111","fax":"","email":"vk@villa-kvitka.com.ua","url":"http://www.villa-kvitka.com.ua","countryIso2":"UA","countryName":"Ukraine","hotelRating":"1","latitude":"48.5954","longitude":"22.9813","state_id":null,"state_name":null,"country_id":null},{"active":false,"Giataid":"412105","cityId":123358,"cityName":"Odessa","hotelId":412105,"hotelName":"Dom Pavlovyih","address":"","phones":"","fax":"","email":"","url":"","countryIso2":"UA","countryName":"Ukraine","hotelRating":"1","latitude":"46.4663","longitude":"30.7445","state_id":1436,"state_name":"Florida","country_id":233},{"active":false,"Giataid":"412132","cityId":110459,"cityName":"Simeiz","hotelId":412132,"hotelName":"Vita Park Goluboj Zaliv","address":"","phones":"","fax":"","email":"","url":"","countryIso2":"UA","countryName":"Ukraine","hotelRating":"1","latitude":"44.4054","longitude":"34.0032","state_id":4689,"state_name":"Autonomous Republic of Crimea","country_id":230},{"active":false,"Giataid":"412137","cityId":65740,"cityName":"Ordzhonikidze","hotelId":412137,"hotelName":"Katran","address":"Dvuyakornaya ulitsa 5,Ordschonikidse,Dvuhyakornaya Bay,Feodosia,Krim,Ukraine","phones":"+38079788317205","fax":"","email":"","url":"","countryIso2":"UA","countryName":"Ukraine","hotelRating":"1","latitude":"44.9818","longitude":"35.3541","state_id":157,"state_name":"Kostanay Region","country_id":112},{"active":false,"Giataid":"412138","cityId":109477,"cityName":"Cherkasy","hotelId":412138,"hotelName":"Reikartz Optima Cherkasy","address":"LAZAREVA STR.,6","phones":"+380472590114","fax":"","email":"","url":"","countryIso2":"UA","countryName":"Ukraine","hotelRating":"3","latitude":"49.4444","longitude":"32.0612","state_id":4680,"state_name":"Cherkaska oblast","country_id":230},{"active":false,"Giataid":"413063","cityId":null,"cityName":"Kiev","hotelId":413063,"hotelName":"Renaissance Kyiv","address":"NULL","phones":"","fax":"","email":"","url":"","countryIso2":"UA","countryName":"Ukraine","hotelRating":"1","latitude":"50.449","longitude":"30.515","state_id":null,"state_name":null,"country_id":null},{"active":false,"Giataid":"419038","cityId":null,"cityName":"Uzhhorod","hotelId":419038,"hotelName":"Hotel Ungvarskiy","address":"Elektrozavodska Street 29,Uzhhorod 88018,Transcarpathia,Ukraine","phones":"+38038312616565","fax":"","email":"","url":"","countryIso2":"UA","countryName":"Ukraine","hotelRating":"3","latitude":"48.6239","longitude":"22.3159","state_id":null,"state_name":null,"country_id":null},{"active":false,"Giataid":"419039","cityId":null,"cityName":"Uzhhorod","hotelId":419039,"hotelName":"Eduard Hotel","address":"Bachin'skogo Street 22A,Uzhhorod 88000,Ukraine","phones":"+380312616261","fax":"","email":"gostinitsa.eduard@gmail.com","url":"http://hotel-eduard.com.ua/","countryIso2":"UA","countryName":"Ukraine","hotelRating":"4","latitude":"48.6286","longitude":"22.3056","state_id":null,"state_name":null,"country_id":null},{"active":false,"Giataid":"419041","cityId":109944,"cityName":"Lutsk","hotelId":419041,"hotelName":"Ukraina","address":"vul. Slovats'koho 2,43025 Lutsk,Ukraine","phones":"+380332788100","fax":"+380332788118","email":"hotel-ukraine@hotmail.com","url":"http://hotel-lutsk.com","countryIso2":"UA","countryName":"Ukraine","hotelRating":"3","latitude":"50.748","longitude":"25.3249","state_id":4690,"state_name":"Volynska oblast","country_id":230},{"active":false,"Giataid":"419046","cityId":null,"cityName":"Swydiwok (Tscherkassy)","hotelId":419046,"hotelName":"Selena Sport Hotel","address":"Dahnivska 21,Svidivok 19622,Cherkassy,Ukraine","phones":"+380472362028","fax":"","email":"selena_spr@ukr.net","url":"http://hotelselena.info/","countryIso2":"UA","countryName":"Ukraine","hotelRating":"4","latitude":"49.5044","longitude":"31.9617","state_id":null,"state_name":null,"country_id":null},{"active":false,"Giataid":"419049","cityId":null,"cityName":"Uzhhorod","hotelId":419049,"hotelName":"Premier Hotel Star","address":"Kyrylo & Mefodiy Square 10-12,Mukachevo 89600,Ukraine","phones":"+38038313132008","fax":"","email":"","url":"","countryIso2":"UA","countryName":"Ukraine","hotelRating":"4","latitude":"48.4417","longitude":"22.7189","state_id":null,"state_name":null,"country_id":null},{"active":false,"Giataid":"419052","cityId":110563,"cityName":"Sumy","hotelId":419052,"hotelName":"Premier Hotel Shafran","address":"Zamosyanska Street 1/4,Sumy 40000,Ukraine","phones":"+38038542671350","fax":"+38038542671350","email":"reservation@shafran-hotel.phnr.com","url":"https://shafran-hotel.phnr.com/","countryIso2":"UA","countryName":"Ukraine","hotelRating":"4","latitude":"50.8992","longitude":"34.8257","state_id":4685,"state_name":"Sumska oblast","country_id":230},{"active":false,"Giataid":"419061","cityId":123358,"cityName":"Odessa","hotelId":419061,"hotelName":"Viktoria Hotel","address":"Street Genoese 24A,Odessa 65009,Ukraine","phones":"+38048746529","fax":"+380487480433","email":"admin@victoriya.com.ua","url":"http://www.victoriya.com.ua","countryIso2":"UA","countryName":"Ukraine","hotelRating":"3","latitude":"46.4347","longitude":"30.7589","state_id":1436,"state_name":"Florida","country_id":233},{"active":false,"Giataid":"419065","cityId":110461,"cityName":"Simferopol","hotelId":419065,"hotelName":"Hotel Zvezdnaya","address":"","phones":"","fax":"","email":"","url":"","countryIso2":"UA","countryName":"Ukraine","hotelRating":"1","latitude":"44.9538","longitude":"34.0993","state_id":4689,"state_name":"Autonomous Republic of Crimea","country_id":230},{"active":false,"Giataid":"419067","cityId":110461,"cityName":"Simferopol","hotelId":419067,"hotelName":"Imperial Hotel","address":"","phones":"","fax":"","email":"","url":"","countryIso2":"UA","countryName":"Ukraine","hotelRating":"3","latitude":"44.9538","longitude":"34.0993","state_id":4689,"state_name":"Autonomous Republic of Crimea","country_id":230},{"active":false,"Giataid":"419068","cityId":109725,"cityName":"Kerch","hotelId":419068,"hotelName":"Hotel Meridian","address":"Marata Street 9,Kerch,Ukraine","phones":"","fax":"","email":"","url":"","countryIso2":"UA","countryName":"Ukraine","hotelRating":"3","latitude":"45.3412","longitude":"36.4575","state_id":4689,"state_name":"Autonomous Republic of Crimea","country_id":230},{"active":false,"Giataid":"419070","cityId":149481,"cityName":"Poltava","hotelId":419070,"hotelName":"Tourist Hotel","address":"Myra Street 12,Poltava 36022,Ukraine","phones":"","fax":"","email":"","url":"","countryIso2":"UA","countryName":"Ukraine","hotelRating":"1","latitude":"49.5797","longitude":"34.5876","state_id":5071,"state_name":"Poltavska oblast","country_id":230},{"active":false,"Giataid":"419074","cityId":110070,"cityName":"Mykolaiv","hotelId":419074,"hotelName":"Turist Hotel Mykolaiv","address":"","phones":"","fax":"","email":"","url":"","countryIso2":"UA","countryName":"Ukraine","hotelRating":"2","latitude":"46.9686","longitude":"31.9886","state_id":4672,"state_name":"Lvivska oblast","country_id":230},{"active":false,"Giataid":"419076","cityId":109729,"cityName":"Kherson","hotelId":419076,"hotelName":"Muscat Hotel","address":"","phones":"","fax":"","email":"","url":"","countryIso2":"UA","countryName":"Ukraine","hotelRating":"1","latitude":"46.6412","longitude":"32.6121","state_id":4684,"state_name":"Khersonska oblast","country_id":230},{"active":false,"Giataid":"419078","cityId":109877,"cityName":"Kryvyi Rih","hotelId":419078,"hotelName":"Ukrainochka Hotel","address":"Street Illichivska 80,Krivoy Rog,Ukraine","phones":"+380564266545","fax":"+380564266545","email":"hotel@ukrainochkahotel.com","url":"http://www.ukrainochkahotel.com/","countryIso2":"UA","countryName":"Ukraine","hotelRating":"3","latitude":"47.9071","longitude":"33.3757","state_id":4675,"state_name":"Dnipropetrovska oblast","country_id":230},{"active":false,"Giataid":"419094","cityId":null,"cityName":"Kremenchug","hotelId":419094,"hotelName":"Dniprovski Zori","address":"Chalamenjuka street 8,Kremenchuk,Ukraine","phones":"+380536622537","fax":"","email":"","url":"http://www.zori.pl.ua","countryIso2":"UA","countryName":"Ukraine","hotelRating":"3","latitude":"49.0692","longitude":"33.4231","state_id":null,"state_name":null,"country_id":null},{"active":false,"Giataid":"419095","cityId":null,"cityName":"Kremenchug","hotelId":419095,"hotelName":"Hotel Kremin","address":"Zhovtneva street 1,Kremenchuk 39605,Ukraine","phones":"+380536792300","fax":"+380536792355","email":"booking@kreminhotel.com.ua","url":"http://www.kreminhotel.com.ua","countryIso2":"UA","countryName":"Ukraine","hotelRating":"3","latitude":"49.0636","longitude":"33.4028","state_id":null,"state_name":null,"country_id":null},{"active":false,"Giataid":"419096","cityId":109730,"cityName":"Khmelnytskyi","hotelId":419096,"hotelName":"Lybid Plaza","address":"Kamenetskaya Street 21,Khmelnitsky 29000,Ukraine","phones":"+380382726620","fax":"+380382650307","email":"info@lybid-plaza.ua","url":"http://www.lybid-plaza.ua/","countryIso2":"UA","countryName":"Ukraine","hotelRating":"5","latitude":"49.4261","longitude":"26.9791","state_id":4681,"state_name":"Khmelnytska oblast","country_id":230},{"active":false,"Giataid":"419109","cityId":null,"cityName":"Dnepropetrovsk","hotelId":419109,"hotelName":"Smart Hotel","address":"Avenue Kirova 20,Dnepropetrovsk 49101,Ukraine","phones":"+380563755884","fax":"+380563755884","email":"smart_hotel@i.ua","url":"http://www.smarthotel.dp.ua/","countryIso2":"UA","countryName":"Ukraine","hotelRating":"3","latitude":"48.4604","longitude":"35.0238","state_id":null,"state_name":null,"country_id":null},{"active":false,"Giataid":"419110","cityId":109730,"cityName":"Khmelnytskyi","hotelId":419110,"hotelName":"Hotel Vik-Jan","address":"Berezneva Street 5/1,Khmel'nyts'kyy 29000,Ukraine","phones":"","fax":"","email":"","url":"","countryIso2":"UA","countryName":"Ukraine","hotelRating":"1","latitude":"49.4021","longitude":"26.9721","state_id":4681,"state_name":"Khmelnytska oblast","country_id":230},{"active":false,"Giataid":"419111","cityId":null,"cityName":"Oleksandriia","hotelId":419111,"hotelName":"Premier Compass Hotel Oleksandriya","address":"Budivelnykiv Street 36A,Oleksandria 28000,Kirovohrad Region,Ukraine","phones":"+380523568400","fax":"","email":"sapphire@accord-hotels.com.ua","url":"https://www.olexandriya-hotel.phnr.com/en","countryIso2":"UA","countryName":"Ukraine","hotelRating":"1","latitude":"48.6676","longitude":"33.0802","state_id":null,"state_name":null,"country_id":null},{"active":false,"Giataid":"419119","cityId":149481,"cityName":"Poltava","hotelId":419119,"hotelName":"Ukraina Lux Hotel","address":"Yatsenka Street  8A,Poltava 36003,Ukraine","phones":"","fax":"","email":"","url":"","countryIso2":"UA","countryName":"Ukraine","hotelRating":"1","latitude":"49.5963","longitude":"34.5451","state_id":5071,"state_name":"Poltavska oblast","country_id":230},{"active":false,"Giataid":"419112","cityId":null,"cityName":"Kiev","hotelId":419112,"hotelName":"Hotel Verhovina - Hotel complex on Okrujnaya","address":"Petropavlivs'ka Street 24,Petropavlivs'ka Borshchahivka,08130 Kiev,Ukraine","phones":"","fax":"","email":"","url":"","countryIso2":"UA","countryName":"Ukraine","hotelRating":"3","latitude":"50.444","longitude":"30.358","state_id":null,"state_name":null,"country_id":null},{"active":false,"Giataid":"274394","cityId":null,"cityName":"Charkow","hotelId":419118,"hotelName":"Gostiny Dvor Hotel","address":"Rymarskaya Street 28,Kharkiv,Ukraine","phones":"+380577056086","fax":"+380577056085","email":"reservation@hotel-gd.com.ua","url":"http://ww.hotel-gd.com.ua/","countryIso2":"UA","countryName":"Ukraine","hotelRating":"4","latitude":"49.9978","longitude":"36.2317","state_id":null,"state_name":null,"country_id":null},{"active":false,"Giataid":"419122","cityId":109938,"cityName":"Luhansk","hotelId":419122,"hotelName":"Hotel Elit-Comfort","address":"","phones":"","fax":"","email":"","url":"","countryIso2":"UA","countryName":"Ukraine","hotelRating":"2","latitude":"48.5667","longitude":"39.3239","state_id":4673,"state_name":"Luhanska oblast","country_id":230},{"active":false,"Giataid":"419125","cityId":110820,"cityName":"Zaporizhia","hotelId":419125,"hotelName":"Hotel Ukraine","address":"","phones":"","fax":"","email":"","url":"","countryIso2":"UA","countryName":"Ukraine","hotelRating":"1","latitude":"47.8347","longitude":"35.132","state_id":4687,"state_name":"Zaporizka oblast","country_id":230},{"active":false,"Giataid":"419127","cityId":null,"cityName":"Kolomyja","hotelId":419127,"hotelName":"Hotel Pysanka","address":"NULL","phones":"+380343320356","fax":"+380343320204","email":"reception@pysanka-hotel.com","url":"http://pysanka-hotel.com/","countryIso2":"UA","countryName":"Ukraine","hotelRating":"1","latitude":"48.5293","longitude":"25.0391","state_id":null,"state_name":null,"country_id":null},{"active":false,"Giataid":"419132","cityId":109480,"cityName":"Chernihiv","hotelId":419132,"hotelName":"Park Hotel","address":"Shevchenko Street 103-a,Chernihiv 14027,Ukraine","phones":"+380462646464","fax":"","email":"reservation@park-hotel.cn.ua","url":"http://www.park-hotel.cn.ua/","countryIso2":"UA","countryName":"Ukraine","hotelRating":"3","latitude":"51.5045","longitude":"31.3418","state_id":4692,"state_name":"Chernihivska oblast","country_id":230},{"active":false,"Giataid":"419134","cityId":109730,"cityName":"Khmelnytskyi","hotelId":419134,"hotelName":"Kolizey","address":"Chkalova street 1A,29000 Khmelnytskyi,Ukraine","phones":"+380382559335","fax":"","email":"coliseum.hotel.km@gmail.com","url":"http://coliseum.km.ua/","countryIso2":"UA","countryName":"Ukraine","hotelRating":"4","latitude":"49.4383","longitude":"26.9555","state_id":4681,"state_name":"Khmelnytska oblast","country_id":230},{"active":false,"Giataid":"419152","cityId":110820,"cityName":"Zaporizhia","hotelId":419152,"hotelName":"Beliy Royal (Hotel WeiSSes Klavier)","address":"","phones":"","fax":"","email":"","url":"","countryIso2":"UA","countryName":"Ukraine","hotelRating":"1","latitude":"47.8347","longitude":"35.132","state_id":4687,"state_name":"Zaporizka oblast","country_id":230},{"active":false,"Giataid":"419156","cityId":123358,"cityName":"Odessa","hotelId":419156,"hotelName":"Admiral Hotel","address":"Elisavetgradsky Pereulok 1,Odessa 65007,Ukraine","phones":"","fax":"","email":"","url":"http://www.hotel-admiral.com.ua","countryIso2":"UA","countryName":"Ukraine","hotelRating":"1","latitude":"46.4623","longitude":"30.7396","state_id":1436,"state_name":"Florida","country_id":233},{"active":false,"Giataid":"419158","cityId":null,"cityName":"Schytomyr","hotelId":419158,"hotelName":"Reikartz Zhytomir","address":"Zamkovaya square 5/8,Zhytomyr 10014,Ukraine","phones":"+380412558910","fax":"","email":"zhytomyr.hotel@reikartz.com","url":"https://www.reikartz.com/en/hotels/zhitomir","countryIso2":"UA","countryName":"Ukraine","hotelRating":"4","latitude":"50.2543","longitude":"28.6549","state_id":null,"state_name":null,"country_id":null},{"active":false,"Giataid":"419166","cityId":98310,"cityName":"Donetsk","hotelId":419166,"hotelName":"Hotel Rubikon","address":"Privokzal'naja Ploschad 1,Donetsk 83018,Ukraine","phones":"","fax":"","email":"","url":"","countryIso2":"UA","countryName":"Ukraine","hotelRating":"1","latitude":"48.0085","longitude":"37.7903","state_id":1837,"state_name":"Rostov Oblast","country_id":182},{"active":false,"Giataid":"419170","cityId":null,"cityName":"Izmail","hotelId":419170,"hotelName":"Vip Hotel","address":"Khotinskaya Street 77,Izmail 68600,Ukraine","phones":"+380484197133","fax":"","email":"vip-hotel@ukr.net","url":"http://www.vip-hotel.com.ua/en","countryIso2":"UA","countryName":"Ukraine","hotelRating":"1","latitude":"45.3469","longitude":"28.8304","state_id":null,"state_name":null,"country_id":null},{"active":false,"Giataid":"419171","cityId":null,"cityName":"Izmail","hotelId":419171,"hotelName":"Hotel Old Town","address":"Pokrovskaya 40,Corner Of Admiral Bachostyakov,Izmail 68600,Odessa,Ukraine","phones":"+380484120243","fax":"","email":"","url":"","countryIso2":"UA","countryName":"Ukraine","hotelRating":"1","latitude":"45.3418","longitude":"28.8326","state_id":null,"state_name":null,"country_id":null},{"active":false,"Giataid":"419172","cityId":109729,"cityName":"Kherson","hotelId":419172,"hotelName":"Hotel Revlan","address":"","phones":"","fax":"","email":"","url":"","countryIso2":"UA","countryName":"Ukraine","hotelRating":"1","latitude":"46.6412","longitude":"32.6121","state_id":4684,"state_name":"Khersonska oblast","country_id":230},{"active":false,"Giataid":"419181","cityId":149453,"cityName":"Myrhorod","hotelId":419181,"hotelName":"Hotel Myrhorod","address":"Hoholya street 102,Myrhorod  37600,Poltava region,Ukraine","phones":"+380535552597","fax":"+380535552597","email":"hotelmirgorod2011@mail.ru","url":"http://www.hotelmirgorod.com.ua","countryIso2":"UA","countryName":"Ukraine","hotelRating":"3","latitude":"49.9666","longitude":"33.6097","state_id":5071,"state_name":"Poltavska oblast","country_id":230},{"active":false,"Giataid":"419185","cityId":null,"cityName":"Kremenchug","hotelId":419185,"hotelName":"Hotel Pantagruel","address":"Street Gardening 4,Kremenchug 39600,Poltava region,Ukraine","phones":"+380675409572","fax":"","email":"info@pantagruel-hotel.com","url":"http://www.pantagruel-hotel.com/","countryIso2":"UA","countryName":"Ukraine","hotelRating":"3","latitude":"49.0742","longitude":"33.4051","state_id":null,"state_name":null,"country_id":null},{"active":false,"Giataid":"419187","cityId":null,"cityName":"Uzhhorod","hotelId":419187,"hotelName":"Hotel Chervona Hora","address":"Chervona Gora Street 1A,Mukacheve 89600,Ukraine","phones":"","fax":"+380313157173","email":"chervonagora@gmail.com","url":"http://www.chervonagora.com.ua","countryIso2":"UA","countryName":"Ukraine","hotelRating":"1","latitude":"48.4622","longitude":"22.7179","state_id":null,"state_name":null,"country_id":null},{"active":false,"Giataid":"419190","cityId":null,"cityName":"Bachmut","hotelId":419190,"hotelName":"Hotel Atlantic","address":"Lenina street 20A,Artemiwsk,Donetsk Region,Ukraine","phones":"+380627447444","fax":"+380627447444","email":"hotel-atalantic@hotmail.com","url":"http://atlantic.dn.ua","countryIso2":"UA","countryName":"Ukraine","hotelRating":"1","latitude":"48.5888","longitude":"37.9947","state_id":null,"state_name":null,"country_id":null},{"active":false,"Giataid":"419201","cityId":110722,"cityName":"Vinnytsia","hotelId":419201,"hotelName":"Hotel Ferida Plaza","address":"","phones":"","fax":"","email":"","url":"","countryIso2":"UA","countryName":"Ukraine","hotelRating":"1","latitude":"49.2447","longitude":"28.4738","state_id":4669,"state_name":"Vinnytska oblast","country_id":230},{"active":false,"Giataid":"419204","cityId":109316,"cityName":"Alushta","hotelId":419204,"hotelName":"Hotel Aluschta","address":"","phones":"","fax":"","email":"","url":"","countryIso2":"UA","countryName":"Ukraine","hotelRating":"1","latitude":"44.6689","longitude":"34.4081","state_id":4689,"state_name":"Autonomous Republic of Crimea","country_id":230},{"active":false,"Giataid":"419209","cityId":null,"cityName":"Kirovohrad","hotelId":419209,"hotelName":"Hotel Catalonia","address":"NULL","phones":"","fax":"","email":"","url":"","countryIso2":"UA","countryName":"Ukraine","hotelRating":"1","latitude":"48.5123","longitude":"32.2701","state_id":null,"state_name":null,"country_id":null},{"active":false,"Giataid":"419223","cityId":109938,"cityName":"Luhansk","hotelId":419223,"hotelName":"Hotel Mir","address":"Ulytsya Lisichanskaya 1,Sievierodonetsk 93400,Luhansk,Ukraine","phones":"","fax":"","email":"","url":"","countryIso2":"UA","countryName":"Ukraine","hotelRating":"1","latitude":"48.5599","longitude":"39.3224","state_id":4673,"state_name":"Luhanska oblast","country_id":230},{"active":false,"Giataid":"419223","cityId":null,"cityName":"Sievierodonetsk","hotelId":419223,"hotelName":"Hotel Mir","address":"Ulytsya Lisichanskaya 1,Sievierodonetsk 93400,Luhansk,Ukraine","phones":"","fax":"","email":"","url":"","countryIso2":"UA","countryName":"Ukraine","hotelRating":"1","latitude":"48.5599","longitude":"39.3224","state_id":null,"state_name":null,"country_id":null},{"active":false,"Giataid":"419224","cityId":110232,"cityName":"Pavlohrad","hotelId":419224,"hotelName":"Khimik Hotel","address":"Zavodskaya Street 35,Pavlohrad 51402,Ukraine","phones":"+380563211914","fax":"","email":"khimik.gk@mail.ru","url":"http://www.khimic.dp.ua","countryIso2":"UA","countryName":"Ukraine","hotelRating":"3","latitude":"48.5543","longitude":"35.8439","state_id":4675,"state_name":"Dnipropetrovska oblast","country_id":230},{"active":false,"Giataid":"419225","cityId":149481,"cityName":"Poltava","hotelId":419225,"hotelName":"Hotel Gogol","address":"","phones":"","fax":"","email":"","url":"","countryIso2":"UA","countryName":"Ukraine","hotelRating":"1","latitude":"49.581","longitude":"34.5477","state_id":5071,"state_name":"Poltavska oblast","country_id":230},{"active":false,"Giataid":"419228","cityId":null,"cityName":"Schytomyr","hotelId":419228,"hotelName":"Spa Hotel Dodo","address":"Street Vatutina 13,Zhitomir 10031,Ukraine","phones":"+380412422442","fax":"","email":"info@dodo.in.ua","url":"http://www.dodo.in.ua","countryIso2":"UA","countryName":"Ukraine","hotelRating":"4","latitude":"50.275","longitude":"28.653","state_id":null,"state_name":null,"country_id":null},{"active":false,"Giataid":"419241","cityId":109729,"cityName":"Kherson","hotelId":419241,"hotelName":"gostinniy Dvor","address":"","phones":"","fax":"","email":"","url":"","countryIso2":"UA","countryName":"Ukraine","hotelRating":"1","latitude":"46.6412","longitude":"32.6121","state_id":4684,"state_name":"Khersonska oblast","country_id":230},{"active":false,"Giataid":"419244","cityId":110722,"cityName":"Vinnytsia","hotelId":419244,"hotelName":"Hotel Dacha","address":"","phones":"","fax":"","email":"","url":"","countryIso2":"UA","countryName":"Ukraine","hotelRating":"1","latitude":"49.2447","longitude":"28.4738","state_id":4669,"state_name":"Vinnytska oblast","country_id":230},{"active":false,"Giataid":"419245","cityId":109486,"cityName":"Chernivtsi","hotelId":419245,"hotelName":"Hotel Allure Inn","address":"","phones":"","fax":"","email":"","url":"","countryIso2":"UA","countryName":"Ukraine","hotelRating":"1","latitude":"48.2843","longitude":"25.9561","state_id":4678,"state_name":"Chernivetska oblast","country_id":230},{"active":false,"Giataid":"419250","cityId":null,"cityName":"Rozdilna","hotelId":419250,"hotelName":"Black Sea Razdelnaya","address":"Lenina Street 45,Rozdilna 67400,Odessa Region,Ukraine","phones":"+380487101010","fax":"+380485351446","email":"rozdilna@blacksea-hotels.com","url":"http://www.blacksea-hotels.com/en/object/razdelnaya/location","countryIso2":"UA","countryName":"Ukraine","hotelRating":"1","latitude":"46.8517","longitude":"30.0751","state_id":null,"state_name":null,"country_id":null},{"active":false,"Giataid":"419252","cityId":109449,"cityName":"Brovary","hotelId":419252,"hotelName":"Grand Sport Hotel","address":"Street Gagarin 28,Brovary 07400,Ukraine","phones":"","fax":"","email":"grandsporthotel@gmail.com","url":"http://www.grandsporthotel.com","countryIso2":"UA","countryName":"Ukraine","hotelRating":"3","latitude":"50.5079","longitude":"30.7942","state_id":4671,"state_name":"Kyivska oblast","country_id":230},{"active":false,"Giataid":"419254","cityId":109887,"cityName":"Kupjansk","hotelId":419254,"hotelName":"Hotel Oskol","address":"","phones":"","fax":"","email":"","url":"","countryIso2":"UA","countryName":"Ukraine","hotelRating":"1","latitude":"49.7056","longitude":"37.6028","state_id":4686,"state_name":"Kharkivska oblast","country_id":230},{"active":false,"Giataid":"419258","cityId":null,"cityName":"Berdiansk","hotelId":419258,"hotelName":"Griboff Hotel","address":"Mazina Street 16,Berdyansk 71112,Ukraine","phones":"+380615345511","fax":"","email":"info@griboff-hotel.com.ua","url":"http://www.griboff-hotel.com.ua","countryIso2":"UA","countryName":"Ukraine","hotelRating":"1","latitude":"46.7496","longitude":"36.7927","state_id":null,"state_name":null,"country_id":null},{"active":false,"Giataid":"419263","cityId":null,"cityName":"Izium","hotelId":419263,"hotelName":"7 Vetrov Hotel","address":"Rostovskiy Shlyakh Street 2,Izium 64300,Ukraine","phones":"+380574328610","fax":"","email":"hotel7vetrov@gmail.com","url":"http://www.7-vetrov.com.ua","countryIso2":"UA","countryName":"Ukraine","hotelRating":"1","latitude":"49.2127","longitude":"37.2568","state_id":null,"state_name":null,"country_id":null},{"active":false,"Giataid":"419265","cityId":null,"cityName":"Kramatorsk","hotelId":419265,"hotelName":"Hotel Restaurant Sapfir","address":"Vrachebnaya Street 35,Kramatorsk,Ukraine","phones":"+380950074075","fax":"","email":"","url":"","countryIso2":"UA","countryName":"Ukraine","hotelRating":"1","latitude":"48.7415","longitude":"37.5931","state_id":null,"state_name":null,"country_id":null},{"active":false,"Giataid":"419268","cityId":null,"cityName":"Strumivka (Luzk)","hotelId":419268,"hotelName":"Hotel Restaurant Restpark","address":"","phones":"","fax":"","email":"","url":"","countryIso2":"UA","countryName":"Ukraine","hotelRating":"1","latitude":"0","longitude":"0","state_id":null,"state_name":null,"country_id":null},{"active":false,"Giataid":"419281","cityId":null,"cityName":"Izium","hotelId":419281,"hotelName":"Terem Hotel","address":"Sovietskaya Square 1,Izyum 64300,Kharkiv Region,Ukraine","phones":"","fax":"","email":"terem-izyum@ukr.net","url":"http://www.terem-izum.com.ua/index_en.html","countryIso2":"UA","countryName":"Ukraine","hotelRating":"1","latitude":"49.1902","longitude":"37.2748","state_id":null,"state_name":null,"country_id":null},