[{"active":false,"Giataid":"139379","cityId":104831,"cityName":"Paramaribo","hotelId":139379,"hotelName":"Spanhoek Boutique","address":"Domineestraat 2-4,Paramaribo,Suriname","phones":"+597477888","fax":"+597427121","email":"reservation@spanhoekhotel.com","url":"http://www.spanhoekhotel.com","countryIso2":"SR","countryName":"Suriname","hotelRating":"4","latitude":"5.82699","longitude":"-55.1578","state_id":2843,"state_name":"Paramaribo District","country_id":210},{"active":false,"Giataid":"182803","cityId":104831,"cityName":"Paramaribo","hotelId":182803,"hotelName":"Bergendal Eco & Cultural River","address":"Domineestraat 36-38,Paramaribo,Suriname","phones":"+597475050","fax":"+597420139","email":"info@bergendalresort.com","url":"http://www.hotelscombined.com/Hotel/Bergendal_Eco_Cultural_River_Resort_Paramaribo.htm","countryIso2":"SR","countryName":"Suriname","hotelRating":"4","latitude":"5.82636","longitude":"-55.1603","state_id":2843,"state_name":"Paramaribo District","country_id":210},{"active":false,"Giataid":"228401","cityId":104831,"cityName":"Paramaribo","hotelId":228401,"hotelName":"Queen's","address":"Kleine Waterstraat no 15,Paramaribo,Suriname","phones":"+597474967","fax":"+597470623","email":"reservations@queenshotelsuriname.com","url":"http://www.queenshotelsuriname.com/","countryIso2":"SR","countryName":"Suriname","hotelRating":"3","latitude":"5.82638","longitude":"-55.1499","state_id":2843,"state_name":"Paramaribo District","country_id":210},{"active":false,"Giataid":"235110","cityId":104831,"cityName":"Paramaribo","hotelId":235110,"hotelName":"Courtyard Marriott Paramaribo","address":"Anton Dragtenweg 52-54,Paramaribo,Suriname","phones":"+597456000","fax":"+597456677","email":"","url":"http://www.marriott.de/hotels/travel/pbmcy-courtyard-paramaribo/","countryIso2":"SR","countryName":"Suriname","hotelRating":"3","latitude":"5.83256","longitude":"-55.1351","state_id":2843,"state_name":"Paramaribo District","country_id":210},{"active":false,"Giataid":"453218","cityId":104831,"cityName":"Paramaribo","hotelId":453218,"hotelName":"Savannah Hotel & Casino","address":"","phones":"","fax":"","email":"","url":"","countryIso2":"SR","countryName":"Suriname","hotelRating":"2","latitude":"5.84693","longitude":"-55.1473","state_id":2843,"state_name":"Paramaribo District","country_id":210},{"active":false,"Giataid":"453321","cityId":104831,"cityName":"Paramaribo","hotelId":453321,"hotelName":"Paradiso Inn Apartments & Rooms","address":"","phones":"","fax":"","email":"","url":"","countryIso2":"SR","countryName":"Suriname","hotelRating":"1","latitude":"5.83139","longitude":"-55.1652","state_id":2843,"state_name":"Paramaribo District","country_id":210},{"active":false,"Giataid":"457028","cityId":104831,"cityName":"Paramaribo","hotelId":457028,"hotelName":"The Golden Truly Hotel & Casino","address":"","phones":"","fax":"","email":"","url":"","countryIso2":"SR","countryName":"Suriname","hotelRating":"3","latitude":"5.85488","longitude":"-55.1389","state_id":2843,"state_name":"Paramaribo District","country_id":210},{"active":false,"Giataid":"458728","cityId":104831,"cityName":"Paramaribo","hotelId":458728,"hotelName":"Atlantis Hotel & Casino","address":"","phones":"","fax":"","email":"","url":"","countryIso2":"SR","countryName":"Suriname","hotelRating":"1","latitude":"5.84199","longitude":"-55.1986","state_id":2843,"state_name":"Paramaribo District","country_id":210},{"active":false,"Giataid":"458868","cityId":104831,"cityName":"Paramaribo","hotelId":458868,"hotelName":"Greenheart Hotel","address":"","phones":"","fax":"","email":"","url":"","countryIso2":"SR","countryName":"Suriname","hotelRating":"1","latitude":"5.83393","longitude":"-55.1525","state_id":2843,"state_name":"Paramaribo District","country_id":210},{"active":false,"Giataid":"459350","cityId":104831,"cityName":"Paramaribo","hotelId":459350,"hotelName":"Holland Lodge Paramaribo","address":"","phones":"","fax":"","email":"","url":"","countryIso2":"SR","countryName":"Suriname","hotelRating":"3","latitude":"5.83343","longitude":"-55.143","state_id":2843,"state_name":"Paramaribo District","country_id":210},{"active":false,"Giataid":"611968","cityId":104831,"cityName":"Paramaribo","hotelId":611968,"hotelName":"Hotel Bar Emergency 911","address":"","phones":"","fax":"","email":"","url":"","countryIso2":"SR","countryName":"Suriname","hotelRating":"1","latitude":"5.8352","longitude":"-55.14","state_id":2843,"state_name":"Paramaribo District","country_id":210},{"active":false,"Giataid":"614350","cityId":104831,"cityName":"Paramaribo","hotelId":614350,"hotelName":"Sheva Hotel","address":"Hofstedecrull'laan Nr 9,Paramaribo,Suriname","phones":"+597422275","fax":"","email":"","url":"http://shevahotel.biz/english","countryIso2":"SR","countryName":"Suriname","hotelRating":"3","latitude":"5.8311","longitude":"-55.1443","state_id":2843,"state_name":"Paramaribo District","country_id":210},{"active":false,"Giataid":"618356","cityId":104831,"cityName":"Paramaribo","hotelId":618356,"hotelName":"Mirage Hotel & Casino","address":"","phones":"","fax":"","email":"","url":"","countryIso2":"SR","countryName":"Suriname","hotelRating":"3","latitude":"5.82686","longitude":"-55.1581","state_id":2843,"state_name":"Paramaribo District","country_id":210},{"active":false,"Giataid":"618438","cityId":104831,"cityName":"Paramaribo","hotelId":618438,"hotelName":"Phoenicia Princess Suites","address":"Keizerstraat 81,Paramaribo,Suriname","phones":"","fax":"","email":"","url":"","countryIso2":"SR","countryName":"Suriname","hotelRating":"3","latitude":"5.82894","longitude":"-55.161","state_id":2843,"state_name":"Paramaribo District","country_id":210},{"active":false,"Giataid":"628646","cityId":null,"cityName":"Clevia","hotelId":628646,"hotelName":"Globe Hotel","address":"Antondragtenweg 8-9,Clevia,Suriname","phones":"","fax":"","email":"","url":"","countryIso2":"SR","countryName":"Suriname","hotelRating":"1","latitude":"5.85481","longitude":"-55.1048","state_id":null,"state_name":null,"country_id":null},{"active":false,"Giataid":"680498","cityId":null,"cityName":"Tamanredjo","hotelId":680498,"hotelName":"De Plantage","address":"Oost-West Verbinding,km 23 Commewijne,Tamanredjo,Suriname","phones":"+597356567","fax":"","email":"","url":"","countryIso2":"SR","countryName":"Suriname","hotelRating":"1","latitude":"0","longitude":"0","state_id":null,"state_name":null,"country_id":null},{"active":false,"Giataid":"724485","cityId":104831,"cityName":"Paramaribo","hotelId":724485,"hotelName":"Hosta Appartementen","address":"Keizerstraat 101 - 103,Paramaribo,Suriname","phones":"+597426015","fax":"+597478643","email":"info@hosta-appartementen.nl","url":"http://www.hosta-appartementen.nl/","countryIso2":"SR","countryName":"Suriname","hotelRating":"1","latitude":"5.83075","longitude":"-55.153","state_id":2843,"state_name":"Paramaribo District","country_id":210},{"active":false,"Giataid":"724573","cityId":104831,"cityName":"Paramaribo","hotelId":724573,"hotelName":"Perfect Stay Apartments","address":"Anton Drachtenweg 49,Rainville,Paramaribo,Suriname,Suriname","phones":"","fax":"","email":"","url":"","countryIso2":"SR","countryName":"Suriname","hotelRating":"1","latitude":"5.83075","longitude":"-55.153","state_id":2843,"state_name":"Paramaribo District","country_id":210},{"active":false,"Giataid":"727283","cityId":104831,"cityName":"Paramaribo","hotelId":727283,"hotelName":"Ximple Appartementen","address":"Parastraat 134,Paramaribo,Suriname","phones":"","fax":"","email":"","url":"","countryIso2":"SR","countryName":"Suriname","hotelRating":"2","latitude":"5.83075","longitude":"-55.153","state_id":2843,"state_name":"Paramaribo District","country_id":210},{"active":false,"Giataid":"729278","cityId":104831,"cityName":"Paramaribo","hotelId":729278,"hotelName":"Kyon Apartments","address":"Wolfraamstraat 64,Paramaribo,Suriname","phones":"","fax":"","email":"","url":"","countryIso2":"SR","countryName":"Suriname","hotelRating":"1","latitude":"5.83075","longitude":"-55.153","state_id":2843,"state_name":"Paramaribo District","country_id":210},{"active":false,"Giataid":"803801","cityId":104831,"cityName":"Paramaribo","hotelId":803801,"hotelName":"Plantage Resort Frederiksdorp","address":"Prinsessestraat 37,North Commewijne,Paramaribo,Suriname","phones":"","fax":"","email":"info@plantagefrederiksdorp.com","url":"http://www.frederiksdorp.com","countryIso2":"SR","countryName":"Suriname","hotelRating":"1","latitude":"5.83075","longitude":"-55.153","state_id":2843,"state_name":"Paramaribo District","country_id":210},{"active":false,"Giataid":"808785","cityId":104831,"cityName":"Paramaribo","hotelId":808785,"hotelName":"Waterland Suites","address":"Waterlandstraat 17,Paramaribo,Suriname","phones":"+597530151","fax":"","email":"home","url":"http://www.waterlandsuites.com/","countryIso2":"SR","countryName":"Suriname","hotelRating":"1","latitude":"5.83075","longitude":"-55.153","state_id":2843,"state_name":"Paramaribo District","country_id":210},{"active":false,"Giataid":"814497","cityId":104831,"cityName":"Paramaribo","hotelId":814497,"hotelName":"Sun Smile Hotel & Appartementen","address":"Jacobastraat 15,Paramaribo,Suriname","phones":"","fax":"","email":"","url":"","countryIso2":"SR","countryName":"Suriname","hotelRating":"1","latitude":"5.83075","longitude":"-55.153","state_id":2843,"state_name":"Paramaribo District","country_id":210},{"active":false,"Giataid":"835633","cityId":104831,"cityName":"Paramaribo","hotelId":835633,"hotelName":"Caribo Beach Resort","address":"Accaribo St.,Paramaribo,Suriname","phones":"","fax":"","email":"","url":"","countryIso2":"SR","countryName":"Suriname","hotelRating":"1","latitude":"5.83075","longitude":"-55.153","state_id":2843,"state_name":"Paramaribo District","country_id":210},{"active":false,"Giataid":"835756","cityId":104831,"cityName":"Paramaribo","hotelId":835756,"hotelName":"Marina Resort Waterland","address":"Muurvarensweg 52,Paramaribo,Suriname","phones":"","fax":"","email":"","url":"","countryIso2":"SR","countryName":"Suriname","hotelRating":"1","latitude":"5.83075","longitude":"-55.153","state_id":2843,"state_name":"Paramaribo District","country_id":210},{"active":false,"Giataid":"419865","cityId":104831,"cityName":"Paramaribo","hotelId":10056738,"hotelName":"Ramada Paramaribo Princess Hotel","address":"Kleine Waterstraat 19,Paramaribo,Suriname","phones":"","fax":"","email":"","url":"","countryIso2":"SR","countryName":"Suriname","hotelRating":"3","latitude":"5.8282","longitude":"-55.1473","state_id":2843,"state_name":"Paramaribo District","country_id":210},{"active":false,"Giataid":"612126","cityId":104831,"cityName":"Paramaribo","hotelId":20002903,"hotelName":"Blue Star Apartments","address":"Zirkoonstraat 7,Paramaribo,Suriname,Suriname","phones":"+5978517400","fax":"","email":"jmartodihardjo@me.com","url":"http://www.bluestarsuriname.com/","countryIso2":"SR","countryName":"Suriname","hotelRating":"0","latitude":"5.84938","longitude":"-55.1366","state_id":2843,"state_name":"Paramaribo District","country_id":210},{"active":false,"Giataid":"78286","cityId":104831,"cityName":"Paramaribo","hotelId":20003115,"hotelName":"Guest House Albergo Alberga","address":"Lim A Po straat 13,Paramaribo,Suriname","phones":"+597520050","fax":"","email":"reservations@guesthousealbergoalberga.com","url":"http://www.guesthousealbergoalberga.com/","countryIso2":"SR","countryName":"Suriname","hotelRating":"2","latitude":"5.82669","longitude":"-55.1535","state_id":2843,"state_name":"Paramaribo District","country_id":210},{"active":false,"Giataid":"409772","cityId":104831,"cityName":"Paramaribo","hotelId":20003355,"hotelName":"Vakantieresort Surinat","address":"La Rencontre 5e straat 234,Domburg,District Wanica,Paramaribo,Suriname","phones":"+597370048","fax":"","email":"info@surinat.com","url":"http://www.surinat.com","countryIso2":"SR","countryName":"Suriname","hotelRating":"4","latitude":"5.68442","longitude":"-55.0814","state_id":2843,"state_name":"Paramaribo District","country_id":210},{"active":false,"Giataid":"610693","cityId":104831,"cityName":"Paramaribo","hotelId":20003610,"hotelName":"Kaikoesi Apartments","address":"Kaikoesistraat 5,Geyersvlijt Noord,Paramaribo,Suriname","phones":"+597452929","fax":"+597452955","email":"info@kaikoesiapartments.com","url":"http://www.kaikoesiapartments.com/index.php?language=2","countryIso2":"SR","countryName":"Suriname","hotelRating":"0","latitude":"5.8489","longitude":"-55.1223","state_id":2843,"state_name":"Paramaribo District","country_id":210},{"active":false,"Giataid":"723874","cityId":104831,"cityName":"Paramaribo","hotelId":20003795,"hotelName":"Q-Inn Boutique Hotel","address":"Costerstraat 35,Paramaribo,Suriname","phones":"+5978897691","fax":"","email":"info@q-inn.com","url":"http://www.q-inn.com","countryIso2":"SR","countryName":"Suriname","hotelRating":"3","latitude":"5.83075","longitude":"-55.153","state_id":2843,"state_name":"Paramaribo District","country_id":210},{"active":false,"Giataid":"724336","cityId":104831,"cityName":"Paramaribo","hotelId":20003998,"hotelName":"La Petite Maison","address":"Waterkant 4,Paramaribo,Suriname,Suriname","phones":"+597475466","fax":"+597475477","email":"info@hotellapetitemaison.com","url":"http://hotellapetitemaison.com/en/","countryIso2":"SR","countryName":"Suriname","hotelRating":"0","latitude":"5.83075","longitude":"-55.153","state_id":2843,"state_name":"Paramaribo District","country_id":210},{"active":false,"Giataid":"726769","cityId":104831,"cityName":"Paramaribo","hotelId":20004186,"hotelName":"Guesthouse Famiri","address":"Dr South Axwijkstraat 76,Rainville,Paramaribo,Suriname","phones":"+59745023000597","fax":"","email":"info@famiri.com","url":"http://www.famiri.com/","countryIso2":"SR","countryName":"Suriname","hotelRating":"0","latitude":"5.83607","longitude":"-55.1391","state_id":2843,"state_name":"Paramaribo District","country_id":210},{"active":false,"Giataid":"617994","cityId":104831,"cityName":"Paramaribo","hotelId":20004365,"hotelName":"Tran Elite Hotel Apartments","address":"Jacques Compertsstraat 143,Paramaribo,Suriname","phones":"+597458276","fax":"","email":"tran@sr.net","url":"http://www.tranelite.com","countryIso2":"SR","countryName":"Suriname","hotelRating":"3","latitude":"5.85515","longitude":"-55.1363","state_id":2843,"state_name":"Paramaribo District","country_id":210},{"active":false,"Giataid":"91315","cityId":null,"cityName":"Kabalebo Nature Resort","hotelId":20004545,"hotelName":"Kabalebo Nature Resort","address":"van Idsingastraat 68,Paramaribo,Suriname","phones":"+597426532","fax":"+597421968","email":"info@kabalebo.com","url":"http://www.kabalebo.com","countryIso2":"SR","countryName":"Suriname","hotelRating":"0","latitude":"4.40433","longitude":"-57.2273","state_id":null,"state_name":null,"country_id":null},{"active":false,"Giataid":"628622","cityId":104831,"cityName":"Paramaribo","hotelId":20004773,"hotelName":"Rachel's Apartments","address":"Sipaliwinilaan 2,Paramaribo,Suriname","phones":"+597520421","fax":"","email":"info@rachelsapartments.com","url":"http://www.rachelsapartments.com/","countryIso2":"SR","countryName":"Suriname","hotelRating":"0","latitude":"5.83558","longitude":"-55.1455","state_id":2843,"state_name":"Paramaribo District","country_id":210},{"active":false,"Giataid":"78287","cityId":104831,"cityName":"Paramaribo","hotelId":20004928,"hotelName":"Ambassador","address":"Dr. Sophie Redmond 66-68,Paramarimbo,Suriname","phones":"+597477555","fax":"+597477555","email":"","url":"","countryIso2":"SR","countryName":"Suriname","hotelRating":"3","latitude":"5.82492","longitude":"-55.1626","state_id":2843,"state_name":"Paramaribo District","country_id":210},{"active":false,"Giataid":"628625","cityId":104831,"cityName":"Paramaribo","hotelId":20005091,"hotelName":"Asteria Studios","address":"Richardstraat 13,Paramaribo,Suriname","phones":"","fax":"","email":"","url":"","countryIso2":"SR","countryName":"Suriname","hotelRating":"2","latitude":"5.83841","longitude":"-55.1857","state_id":2843,"state_name":"Paramaribo District","country_id":210},{"active":false,"Giataid":"679889","cityId":104831,"cityName":"Paramaribo","hotelId":20005256,"hotelName":"Martinus","address":"Amethietstraat 44, Paramaribo-Noord,,Suriname","phones":"+597457224","fax":"","email":"","url":"http://www.martinus-suriname.net/","countryIso2":"SR","countryName":"Suriname","hotelRating":"0","latitude":"5.83075","longitude":"-55.153","state_id":2843,"state_name":"Paramaribo District","country_id":210},{"active":false,"Giataid":"613136","cityId":104831,"cityName":"Paramaribo","hotelId":20005399,"hotelName":"De Kleine Historie Guesthouse","address":"Mr. Dr. J. C. DeMirandastraat 8,Paramaribo,Suriname","phones":"","fax":"","email":"","url":"","countryIso2":"SR","countryName":"Suriname","hotelRating":"2","latitude":"5.82604","longitude":"-55.1527","state_id":2843,"state_name":"Paramaribo District","country_id":210},{"active":false,"Giataid":"405230","cityId":104831,"cityName":"Paramaribo","hotelId":20005564,"hotelName":"Hotel Palacio","address":"Heerenstraat 9,Paramaribo,Suriname","phones":"+597420064","fax":"","email":"info@hotelpalacio.net","url":"http://www.hotelpalacio.net","countryIso2":"SR","countryName":"Suriname","hotelRating":"3","latitude":"5.82808","longitude":"-55.1561","state_id":2843,"state_name":"Paramaribo District","country_id":210},{"active":false,"Giataid":"679819","cityId":104831,"cityName":"Paramaribo","hotelId":20005739,"hotelName":"Joah Inn","address":"Keizerstraat 91,Paramaribo, Suriname,Suriname","phones":"+597422038","fax":"","email":"joahinn@gmail.com","url":"","countryIso2":"SR","countryName":"Suriname","hotelRating":"0","latitude":"5.83075","longitude":"-55.153","state_id":2843,"state_name":"Paramaribo District","country_id":210},{"active":false,"Giataid":"642962","cityId":104831,"cityName":"Paramaribo","hotelId":20005894,"hotelName":"Blue Heaven Hotel","address":"Van Sommelsdijckstraat 5,Paramaribo,Suriname","phones":"","fax":"","email":"","url":"","countryIso2":"SR","countryName":"Suriname","hotelRating":"0","latitude":"5.82934","longitude":"-55.1475","state_id":2843,"state_name":"Paramaribo District","country_id":210},{"active":false,"Giataid":"543064","cityId":104831,"cityName":"Paramaribo","hotelId":20006061,"hotelName":"Hotel Babylon","address":"Lalla Rookhweg 25,Paramaribo,Suriname","phones":"+597568581","fax":"","email":"info@hotel-babylon.com","url":"http://hotel-babylon.com/","countryIso2":"SR","countryName":"Suriname","hotelRating":"3","latitude":"5.82517","longitude":"-55.2028","state_id":2843,"state_name":"Paramaribo District","country_id":210},{"active":false,"Giataid":"611371","cityId":104831,"cityName":"Paramaribo","hotelId":20006239,"hotelName":"Boom Apartments","address":"Dr. J.F. Nassylaan 133,Paramaribo,Suriname","phones":"","fax":"","email":"","url":"http://www.boomapartments.sr/","countryIso2":"SR","countryName":"Suriname","hotelRating":"0","latitude":"5.83297","longitude":"-55.1653","state_id":2843,"state_name":"Paramaribo District","country_id":210},{"active":false,"Giataid":"550901","cityId":104831,"cityName":"Paramaribo","hotelId":20006604,"hotelName":"The Mansion Suites","address":"Anton Dragtenweg 191,Paramaribo,Suriname","phones":"","fax":"","email":"","url":"","countryIso2":"SR","countryName":"Suriname","hotelRating":"0","latitude":"5.84847","longitude":"-55.1104","state_id":2843,"state_name":"Paramaribo District","country_id":210},{"active":false,"Giataid":"550915","cityId":104831,"cityName":"Paramaribo","hotelId":20006767,"hotelName":"Elementz Apartments","address":"H.D. Benjaminstraat 46,Paramaribo,Suriname","phones":"+597497073","fax":"","email":"info@elementz-apartments.com","url":"http://elementz-apartments.com","countryIso2":"SR","countryName":"Suriname","hotelRating":"0","latitude":"5.82917","longitude":"-55.1836","state_id":2843,"state_name":"Paramaribo District","country_id":210},{"active":false,"Giataid":"593614","cityId":104831,"cityName":"Paramaribo","hotelId":20006953,"hotelName":"Guesthouse Un Pied A Terre","address":"Costerstraat 59,Paramaribo,Suriname","phones":"+597470488","fax":"","email":"","url":"http://guesthouse-un-pied-a-terre.com","countryIso2":"SR","countryName":"Suriname","hotelRating":"0","latitude":"5.83418","longitude":"-55.1527","state_id":2843,"state_name":"Paramaribo District","country_id":210},{"active":false,"Giataid":"609010","cityId":104831,"cityName":"Paramaribo","hotelId":20007127,"hotelName":"Guesthouse Amice","address":"Gravenberchstraat 5,Paramaribo,Suriname","phones":"+597434289","fax":"","email":"info@guesthouse-amice.com","url":"http://www.guesthouse-amice.sr/","countryIso2":"SR","countryName":"Suriname","hotelRating":"0","latitude":"5.82865","longitude":"-55.1794","state_id":2843,"state_name":"Paramaribo District","country_id":210},{"active":false,"Giataid":"297773","cityId":104831,"cityName":"Paramaribo","hotelId":20007270,"hotelName":"Overbridge River Resort","address":"Oude Charlesburgweg 47,Paramaribo,Suriname","phones":"+597422565","fax":"+597477388","email":"overbridge@sr.net","url":"http://www.overbridge.net/","countryIso2":"SR","countryName":"Suriname","hotelRating":"0","latitude":"5.83764","longitude":"-55.1646","state_id":2843,"state_name":"Paramaribo District","country_id":210},{"active":false,"Giataid":"451993","cityId":104831,"cityName":"Paramaribo","hotelId":20007438,"hotelName":"Tropical Palace","address":"Flemming Straat 21,Paramaribo,Suriname","phones":"","fax":"","email":"","url":"","countryIso2":"SR","countryName":"Suriname","hotelRating":"3","latitude":"5.84315","longitude":"-55.1321","state_id":2843,"state_name":"Paramaribo District","country_id":210},{"active":false,"Giataid":"477167","cityId":104831,"cityName":"Paramaribo","hotelId":20007608,"hotelName":"Residence Inn Paramaribo","address":"Anton Dragtenweg 7,Paramaribo,Suriname,Suriname","phones":"+597521414","fax":"+597424811","email":"info@resinn.com","url":"http://www.residenceinn.sr/residence-inn-paramaribo-2/","countryIso2":"SR","countryName":"Suriname","hotelRating":"3","latitude":"5.83277","longitude":"-55.1382","state_id":2843,"state_name":"Paramaribo District","country_id":210},{"active":false,"Giataid":"628643","cityId":104831,"cityName":"Paramaribo","hotelId":20007731,"hotelName":"Hotel Perola","address":"Prinsessestraat 299,Paramaribo,Suriname","phones":"+597478312","fax":"","email":"info@perola-suriname.com","url":"http://perola-suriname.com/","countryIso2":"SR","countryName":"Suriname","hotelRating":"0","latitude":"5.8459","longitude":"-55.1534","state_id":2843,"state_name":"Paramaribo District","country_id":210},{"active":false,"Giataid":"611594","cityId":104831,"cityName":"Paramaribo","hotelId":20007885,"hotelName":"Arcton Apartments","address":"Arctonstraat 57,Tourtonne 5,Paramaribo,Suriname","phones":"+5978916571","fax":"","email":"info@arctonappartementen.com","url":"http://www.arctonappartementen.com/","countryIso2":"SR","countryName":"Suriname","hotelRating":"2","latitude":"5.86094","longitude":"-55.1398","state_id":2843,"state_name":"Paramaribo District","country_id":210},{"active":false,"Giataid":"91316","cityId":104831,"cityName":"Paramaribo","hotelId":20008069,"hotelName":"Danpaati River Lodge","address":"Anniestraat 14,Paramaribo,Suriname","phones":"+597471113","fax":"","email":"reservations@danpaati.net","url":"http://www.danpaati.net","countryIso2":"SR","countryName":"Suriname","hotelRating":"0","latitude":"5.83673","longitude":"-55.1644","state_id":2843,"state_name":"Paramaribo District","country_id":210},{"active":false,"Giataid":"139381","cityId":104831,"cityName":"Paramaribo","hotelId":20008269,"hotelName":"Anaula Nature Resort","address":"Wagenwegstraat 55,Paramaribo,Suriname","phones":"+597410700","fax":"+597474084","email":"info@anaulanatureresort.com","url":"http://www.anaulanatureresort.com","countryIso2":"SR","countryName":"Suriname","hotelRating":"0","latitude":"5.82904","longitude":"-55.1582","state_id":2843,"state_name":"Paramaribo District","country_id":210},{"active":false,"Giataid":"475098","cityId":104831,"cityName":"Paramaribo","hotelId":20008376,"hotelName":"Hotel Paramuru","address":"Waaldijkstraat 28/30,Centre,Paramaribo,Suriname","phones":"+597411020","fax":"","email":"","url":"http://paramuru.com/","countryIso2":"SR","countryName":"Suriname","hotelRating":"0","latitude":"5.82514","longitude":"-55.1644","state_id":2843,"state_name":"Paramaribo District","country_id":210},{"active":false,"Giataid":"628644","cityId":104831,"cityName":"Paramaribo","hotelId":20008564,"hotelName":"Sullies Suites","address":"Henck Arronstraat 53,Paramaribo,Suriname","phones":"+597520520","fax":"+597520524","email":"","url":"http://www.sulliessuites.com/","countryIso2":"SR","countryName":"Suriname","hotelRating":"0","latitude":"5.82948","longitude":"-55.1566","state_id":2843,"state_name":"Paramaribo District","country_id":210},{"active":false,"Giataid":"679809","cityId":104831,"cityName":"Paramaribo","hotelId":20008675,"hotelName":"Jacana Amazon Wellness Resort","address":"Commewijnestraat 35,Paramaribo   Zorg en Hoop,Suriname","phones":"+597531000","fax":"","email":"info@jacanaresort.com","url":"http://www.jacanaresort.com/","countryIso2":"SR","countryName":"Suriname","hotelRating":"3","latitude":"5.81325","longitude":"-55.1884","state_id":2843,"state_name":"Paramaribo District","country_id":210},{"active":false,"Giataid":"453271","cityId":104831,"cityName":"Paramaribo","hotelId":20008792,"hotelName":"Tropicana Hotel & Casino","address":"Saramacca Straat 17,3001,Paramaribo,Suriname","phones":"","fax":"","email":"","url":"","countryIso2":"SR","countryName":"Suriname","hotelRating":"2","latitude":"5.82283","longitude":"-55.161","state_id":2843,"state_name":"Paramaribo District","country_id":210},{"active":false,"Giataid":"856287","cityId":104831,"cityName":"Paramaribo","hotelId":20370737,"hotelName":"Bina's Inn Hotel","address":"H N Hajary Street 19,Paramaribo,Suriname","phones":"","fax":"","email":"","url":"","countryIso2":"SR","countryName":"Suriname","hotelRating":"0","latitude":"5.83075","longitude":"-55.153","state_id":2843,"state_name":"Paramaribo District","country_id":210},{"active":false,"Giataid":"866820","cityId":104831,"cityName":"Paramaribo","hotelId":20370738,"hotelName":"Banabeki B&B - Guesthouse","address":"Mamba Project,Adolf Elias Cairoweg 25,Ressort Zuid-Para,9292 Zanderij,District Para,Suriname","phones":"","fax":"","email":"","url":"","countryIso2":"SR","countryName":"Suriname","hotelRating":"0","latitude":"5.50624","longitude":"-55.2067","state_id":2843,"state_name":"Paramaribo District","country_id":210},{"active":false,"Giataid":"866830","cityId":104831,"cityName":"Paramaribo","hotelId":20370739,"hotelName":"S-Villa","address":"Frederik Derby Street 4,Centre,Paramaribo,Suriname","phones":"","fax":"","email":"","url":"","countryIso2":"SR","countryName":"Suriname","hotelRating":"0","latitude":"5.83075","longitude":"-55.153","state_id":2843,"state_name":"Paramaribo District","country_id":210},{"active":false,"Giataid":"892963","cityId":104831,"cityName":"Paramaribo","hotelId":20370740,"hotelName":"Maharaja Palace Hotel","address":"Johannes Mungrastraat 34,Andira Straat,Paramaribo,Suriname","phones":"+5978246005","fax":"","email":"","url":"http://maharajapalace.net","countryIso2":"SR","countryName":"Suriname","hotelRating":"0","latitude":"5.83075","longitude":"-55.153","state_id":2843,"state_name":"Paramaribo District","country_id":210},{"active":false,"Giataid":"866836","cityId":104831,"cityName":"Paramaribo","hotelId":20370741,"hotelName":"Guesthouse Silversand","address":"Lisztstraat 30,Paramaribo,Suriname","phones":"+5977627780","fax":"","email":"guesthousesilversand@gmail.com","url":"http://guesthousesilversand.com","countryIso2":"SR","countryName":"Suriname","hotelRating":"0","latitude":"5.83075","longitude":"-55.153","state_id":2843,"state_name":"Paramaribo District","country_id":210},{"active":false,"Giataid":"937349","cityId":104831,"cityName":"Paramaribo","hotelId":20370742,"hotelName":"Zin Resort","address":"Van Roseveltkade 20,Paramaribo,Suriname","phones":"","fax":"","email":"","url":"http://zinguesthouseparamaribo.com/","countryIso2":"SR","countryName":"Suriname","hotelRating":"0","latitude":"5.82988","longitude":"-55.1515","state_id":2843,"state_name":"Paramaribo District","country_id":210},{"active":false,"Giataid":"866844","cityId":104831,"cityName":"Paramaribo","hotelId":20370744,"hotelName":"Rumanija's Airport Rooms","address":"Albert Plesmanstraat,Zanderij Wooncentrum,Zanderij,Paramaribo,Suriname","phones":"+5978170031","fax":"","email":"","url":"","countryIso2":"SR","countryName":"Suriname","hotelRating":"0","latitude":"5.83075","longitude":"-55.153","state_id":2843,"state_name":"Paramaribo District","country_id":210},{"active":false,"Giataid":"998903","cityId":104831,"cityName":"Paramaribo","hotelId":20439096,"hotelName":"Hotel Ritzz","address":"Celina Straat 11,Paramaribo,Suriname","phones":"","fax":"","email":"","url":"","countryIso2":"SR","countryName":"Suriname","hotelRating":"1","latitude":"5.83075","longitude":"-55.153","state_id":2843,"state_name":"Paramaribo District","country_id":210},{"active":false,"Giataid":"999891","cityId":104831,"cityName":"Paramaribo","hotelId":20439099,"hotelName":"Gess Hotel","address":"Dr Sophie Redmond Street 69,Pamaribo,Suriname","phones":"+597478567","fax":"","email":"info@gesshotel.com","url":"http://gesshotel.com/","countryIso2":"SR","countryName":"Suriname","hotelRating":"1","latitude":"5.83075","longitude":"-55.153","state_id":2843,"state_name":"Paramaribo District","country_id":210},{"active":false,"Giataid":"999904","cityId":104831,"cityName":"Paramaribo","hotelId":20439097,"hotelName":"Guesthouse Suriname Inn","address":"Gravenberch Straat,Paramaribo,Suriname","phones":"","fax":"","email":"","url":"","countryIso2":"SR","countryName":"Suriname","hotelRating":"1","latitude":"5.83075","longitude":"-55.153","state_id":2843,"state_name":"Paramaribo District","country_id":210},{"active":false,"Giataid":"1004865","cityId":104831,"cityName":"Paramaribo","hotelId":20439098,"hotelName":"Boutique Hotel Plantage Peperpot","address":"Paramaribo,Commewijne district,Suriname","phones":"+5978692223","fax":"","email":"info@hotelpeperpot.com","url":"http://hotelpeperpot.com","countryIso2":"SR","countryName":"Suriname","hotelRating":"1","latitude":"5.83075","longitude":"-55.153","state_id":2843,"state_name":"Paramaribo District","country_id":210}]