[{"active":false,"Giataid":"41739","cityId":null,"cityName":"Isle of Pines","hotelId":41739,"hotelName":"Le Meridien Ile Des Pins","address":"Baie d'Oro,BP 175,Ile des Pins 98832,New Caledonia,New Caledonia","phones":"+687265000","fax":"+687265100","email":"le.meridien@meridien.nc","url":"http://www.starwoodhotels.com/lemeridien/property/overview/contact.html?propertyID=1841","countryIso2":"NC","countryName":"New Caledonia","hotelRating":"5","latitude":"-22.5788","longitude":"167.52","state_id":null,"state_name":null,"country_id":null},{"active":false,"Giataid":"41740","cityId":null,"cityName":"Noum?a","hotelId":41740,"hotelName":"Le Meridien Noumea","address":"BP1915,Noumea 98846,New Caledonia,New Caledonia","phones":"+687265000","fax":"+687265100","email":"le.meridien@meridien.nc","url":"http://www.starwoodhotels.com/lemeridien/property/overview/contact.html?propertyID=1842","countryIso2":"NC","countryName":"New Caledonia","hotelRating":"5","latitude":"-22.3103","longitude":"166.45","state_id":null,"state_name":null,"country_id":null},{"active":false,"Giataid":"129732","cityId":null,"cityName":"Noum?a","hotelId":129732,"hotelName":"Le Lagon","address":"149 Route de l'Anse Vata,98800 Noum?a,Nouvelle-Cal?donie,New Caledonia","phones":"+687261255","fax":"+687261244","email":"info@lelagon.nc","url":"http://www.lelagon.nc/","countryIso2":"NC","countryName":"New Caledonia","hotelRating":"3","latitude":"-22.301","longitude":"166.445","state_id":null,"state_name":null,"country_id":null},{"active":false,"Giataid":"129730","cityId":null,"cityName":"Noum?a","hotelId":129730,"hotelName":"Hilton Noumea La Promenade Residences","address":"109 Promenade Roger Laroque,Noumea 98807,New Caledonia","phones":"+687244600","fax":"+687244618","email":"","url":"http://www3.hilton.com/en/hotels/new-caledonia-french/hilton-noumea-la-promenade-residences-NOULPHI/about/index.html","countryIso2":"NC","countryName":"New Caledonia","hotelRating":"4","latitude":"-22.3019","longitude":"166.446","state_id":null,"state_name":null,"country_id":null},{"active":false,"Giataid":"129731","cityId":null,"cityName":"Noum?a","hotelId":129731,"hotelName":"Nouvata Parc Basic & Standard Room","address":"123 Promenade Roger Laroque,98845 Noumea,New Caledonia","phones":"+687262200","fax":"+687261677","email":"","url":"http://www.glphotels-english.com/le-pacifique.html","countryIso2":"NC","countryName":"New Caledonia","hotelRating":"2","latitude":"-22.3042","longitude":"166.448","state_id":null,"state_name":null,"country_id":null},{"active":false,"Giataid":"129733","cityId":null,"cityName":"Noum?a","hotelId":129733,"hotelName":"Hotel Le Paris","address":"45/47 Rue De Sebastopol,P.O. Box 2226,Noumea 98846,New Caledonia","phones":"+687281700","fax":"+687280960","email":"leparis@canl.nc","url":"http://www.bestwestern-leparishotel.com","countryIso2":"NC","countryName":"New Caledonia","hotelRating":"2","latitude":"-22.273","longitude":"166.444","state_id":null,"state_name":null,"country_id":null},{"active":false,"Giataid":"129734","cityId":null,"cityName":"Noum?a","hotelId":129734,"hotelName":"Mocambo","address":"49 bis Rue Jules Garnier,Baie des Citrons,98845 Noumea,New Caledonia","phones":"","fax":"","email":"","url":"","countryIso2":"NC","countryName":"New Caledonia","hotelRating":"2","latitude":"-22.2923","longitude":"166.44","state_id":null,"state_name":null,"country_id":null},{"active":false,"Giataid":"129735","cityId":null,"cityName":"Noum?a","hotelId":129735,"hotelName":"Casa Del Sole","address":"10 Route de lï¿½aquarium,Baie des Citrons,P.O. Box 3340,98846 Noum?a,New Caledonia","phones":"+687258700","fax":"+687258711","email":"","url":"http://www.casadelsole.nc","countryIso2":"NC","countryName":"New Caledonia","hotelRating":"2","latitude":"-22.3009","longitude":"166.439","state_id":null,"state_name":null,"country_id":null},{"active":false,"Giataid":"132774","cityId":null,"cityName":"Noum?a","hotelId":132774,"hotelName":"Lantana Beach","address":"113 Promenade Roger Laroque,Anse Vata,Post Box 4075,Noumea 98846,Grand Terre,New Caledonia","phones":"","fax":"","email":"","url":"","countryIso2":"NC","countryName":"New Caledonia","hotelRating":"1","latitude":"-22.2939","longitude":"166.444","state_id":null,"state_name":null,"country_id":null},{"active":false,"Giataid":"132775","cityId":null,"cityName":"Noum?a","hotelId":132775,"hotelName":"Hotel Beaurivage","address":"7 Promenade Roger Laroque,Noumea,New Caledonia","phones":"+687262055","fax":"","email":"","url":"","countryIso2":"NC","countryName":"New Caledonia","hotelRating":"2","latitude":"-22.2962","longitude":"166.438","state_id":null,"state_name":null,"country_id":null},{"active":false,"Giataid":"143405","cityId":null,"cityName":"?lot Ma?tre","hotelId":143405,"hotelName":"Escapade Ilot Maitre","address":"BP 4918,98847 Noumea,Ilot Maitre,New Caledonia","phones":"+687285320","fax":"+687240677","email":"resa@glphotels.nc","url":"http://glphotels.nc/index.php?page=Hotel&amp;idhotel=2&amp;lang=en","countryIso2":"NC","countryName":"New Caledonia","hotelRating":"4","latitude":"-22.3334","longitude":"166.41","state_id":null,"state_name":null,"country_id":null},{"active":false,"Giataid":"234528","cityId":null,"cityName":"Noum?a","hotelId":234528,"hotelName":"Hotel Chateau Royal Beach Resort & Spa","address":"140 Promenade Roger Laroque,98807 Noumea,Grand Terre,New Caledonia","phones":"+687296410","fax":"","email":"","url":"http://www.arcenciel-voyages.nc/en/hotel/royal-tera-beach-resort-0","countryIso2":"NC","countryName":"New Caledonia","hotelRating":"4","latitude":"-22.3095","longitude":"166.449","state_id":null,"state_name":null,"country_id":null},{"active":false,"Giataid":"243079","cityId":null,"cityName":"Poindimi?","hotelId":243079,"hotelName":"Hotel Tieti","address":"16 Voie Urbaine 1,98822 Poindimie,New Caledonia","phones":"+687426400","fax":"+687426401","email":"","url":"http://www.tera-hotels-resorts.com/hotel,tieti?/","countryIso2":"NC","countryName":"New Caledonia","hotelRating":"3","latitude":"-20.9287","longitude":"165.32","state_id":null,"state_name":null,"country_id":null},{"active":false,"Giataid":"244187","cityId":null,"cityName":"Hiengh?ne","hotelId":244187,"hotelName":"Koulnoue Village","address":"BP 63,98815 Hienghene,New Caledonia","phones":"+687428166","fax":"+687428175","email":"","url":"","countryIso2":"NC","countryName":"New Caledonia","hotelRating":"3","latitude":"-20.6923","longitude":"164.992","state_id":null,"state_name":null,"country_id":null},{"active":false,"Giataid":"244188","cityId":52014,"cityName":"Yate","hotelId":244188,"hotelName":"KANUA TERA Ecolodge","address":"Route Kaa Nua,Baie de Port Boise,BP 110,98834 Yate,New Caledonia","phones":"+687469000","fax":"+687469122","email":"","url":"http://www.tera-hotels-resorts.com/hotel,kanua","countryIso2":"NC","countryName":"New Caledonia","hotelRating":"3","latitude":"-22.3503","longitude":"166.973","state_id":2336,"state_name":"England","country_id":232},{"active":false,"Giataid":"244189","cityId":null,"cityName":"Poum","hotelId":244189,"hotelName":"Malabou Beach","address":"Baie de N?hou?,98826 Poum,New Caledonia","phones":"+687476060","fax":"+687476070","email":"","url":"http://www.grands-hotels.nc/malabou.html","countryIso2":"NC","countryName":"New Caledonia","hotelRating":"3","latitude":"-20.2379","longitude":"164.029","state_id":null,"state_name":null,"country_id":null},{"active":false,"Giataid":"247674","cityId":null,"cityName":"Noum?a","hotelId":247674,"hotelName":"Nouvata Parc","address":"123 Promenade Roger Laroque,98845 Noumea,New Caledonia","phones":"+687262200","fax":"+687261677","email":"","url":"http://www.glphotels-english.com/le-complexe-3-hotels-le-pacifique-le-parc-le-nouvata1.html","countryIso2":"NC","countryName":"New Caledonia","hotelRating":"3","latitude":"-22.3035","longitude":"166.448","state_id":null,"state_name":null,"country_id":null},{"active":false,"Giataid":"249625","cityId":null,"cityName":"Noum?a","hotelId":249625,"hotelName":"Nouvata Parc Confort Room","address":"123 Promenade Roger Laroque,98845 Noumea,New Caledonia","phones":"+687262200","fax":"","email":"resa@glphotels.nc","url":"http://www.glphotels-english.com/le-nouvata.html","countryIso2":"NC","countryName":"New Caledonia","hotelRating":"3","latitude":"-22.3039","longitude":"166.448","state_id":null,"state_name":null,"country_id":null},{"active":false,"Giataid":"471411","cityId":null,"cityName":"Noum?a","hotelId":471411,"hotelName":"Hotel du Centre","address":"","phones":"","fax":"","email":"","url":"","countryIso2":"NC","countryName":"New Caledonia","hotelRating":"1","latitude":"-22.2434","longitude":"166.447","state_id":null,"state_name":null,"country_id":null},{"active":false,"Giataid":"532859","cityId":null,"cityName":"Noum?a","hotelId":532859,"hotelName":"Kuendu Beach Resort","address":"120 Avenue James Cook,Nouville,Noum?a,New Caledonia","phones":"+687243054","fax":"","email":"restaurant@kuendubeach.nc","url":"http://www.kuendubeachresort.com/","countryIso2":"NC","countryName":"New Caledonia","hotelRating":"3","latitude":"-22.2939","longitude":"166.444","state_id":null,"state_name":null,"country_id":null},{"active":false,"Giataid":"727646","cityId":null,"cityName":"Pa?ta","hotelId":727646,"hotelName":"Tour Du Monde, Le Gite des Voyageurs","address":"4 Lotissement Les Foug?res,Col. De Katiramona,98890 Paita,New Caledonia","phones":"","fax":"","email":"","url":"http://www.tour-du-monde.nc/lieu-gite-index.html","countryIso2":"NC","countryName":"New Caledonia","hotelRating":"1","latitude":"-22.114","longitude":"166.394","state_id":null,"state_name":null,"country_id":null},{"active":false,"Giataid":"494630","cityId":null,"cityName":"Noum?a","hotelId":10052173,"hotelName":"Le Stanley Hotel & Suites","address":"33 Rue De la Riviera,98800 Noumea,New Caledonia","phones":"+687232323","fax":"","email":"","url":"","countryIso2":"NC","countryName":"New Caledonia","hotelRating":"3","latitude":"-22.2859","longitude":"166.468","state_id":null,"state_name":null,"country_id":null},{"active":false,"Giataid":"405219","cityId":null,"cityName":"Bourail","hotelId":10071548,"hotelName":"Sheraton New Caledonia Deva Resort & Spa","address":"Lot 33 Domaine de D?va,Route de Po?,B.P. 50,Bourail 98870,New Caledonia","phones":"+687265000","fax":"","email":"","url":"","countryIso2":"NC","countryName":"New Caledonia","hotelRating":"5","latitude":"-21.5993","longitude":"165.365","state_id":null,"state_name":null,"country_id":null},{"active":false,"Giataid":"298663","cityId":52014,"cityName":"Yate","hotelId":20000808,"hotelName":"Gite Saint Gabriel","address":"BP 120,98834 Yate,New Caledonia","phones":"+687464277","fax":"+687464277","email":"","url":"http://www.gitesnouvellecaledonie.nc/adherents/saint-gabriel","countryIso2":"NC","countryName":"New Caledonia","hotelRating":"0","latitude":"-22.1647","longitude":"166.958","state_id":2336,"state_name":"England","country_id":232},{"active":false,"Giataid":"202276","cityId":null,"cityName":"Isle of Pines","hotelId":20000868,"hotelName":"Kou Bugny","address":"Baie de Kuto,98832 Ile des Pins,New Caledonia","phones":"+687461800","fax":"+687461823","email":"contact@kou-bugny.com","url":"http://www.kou-bugny.com/","countryIso2":"NC","countryName":"New Caledonia","hotelRating":"3","latitude":"-22.6597","longitude":"167.444","state_id":null,"state_name":null,"country_id":null},{"active":false,"Giataid":"726225","cityId":null,"cityName":"Isle of Pines","hotelId":20000953,"hotelName":"Relais Le Kuberka","address":"RM3,Kuto Bay,Isle of Pines 98832,New Caledonia","phones":"","fax":"","email":"","url":"","countryIso2":"NC","countryName":"New Caledonia","hotelRating":"0","latitude":"-22.6244","longitude":"167.446","state_id":null,"state_name":null,"country_id":null},{"active":false,"Giataid":"689711","cityId":null,"cityName":"Noum?a","hotelId":20001082,"hotelName":"L'Hotel Du Centre","address":"Rue Fulton,98800 Noumea,New Caledonia","phones":"","fax":"","email":"","url":"","countryIso2":"NC","countryName":"New Caledonia","hotelRating":"0","latitude":"-22.2374","longitude":"166.448","state_id":null,"state_name":null,"country_id":null},{"active":false,"Giataid":"677195","cityId":null,"cityName":"Noum?a","hotelId":20001170,"hotelName":"Gite Waratah","address":"3 Rue Baumier,98800 Noum?a,New Caledonia","phones":"","fax":"","email":"","url":"","countryIso2":"NC","countryName":"New Caledonia","hotelRating":"0","latitude":"-22.3036","longitude":"166.45","state_id":null,"state_name":null,"country_id":null},{"active":false,"Giataid":"298671","cityId":null,"cityName":"La Foa","hotelId":20001328,"hotelName":"Le Refuge De Farino","address":"Plaine aux Truies,98881 Farino,New Caledonia","phones":"+687443761","fax":"+687443761","email":"","url":"","countryIso2":"NC","countryName":"New Caledonia","hotelRating":"0","latitude":"-21.6639","longitude":"165.775","state_id":null,"state_name":null,"country_id":null},{"active":false,"Giataid":"91958","cityId":null,"cityName":"Lifou","hotelId":20001523,"hotelName":"Drehu Village","address":"Baie De Chateaubriand,P.O. Box 265,We,98820 Lifou,New Caledonia","phones":"+687450270","fax":"+687450271","email":"drehu@grands-hotels.cc","url":"http://www.drehu.grands-hotels.cc","countryIso2":"NC","countryName":"New Caledonia","hotelRating":"3","latitude":"-20.909","longitude":"167.257","state_id":null,"state_name":null,"country_id":null},{"active":false,"Giataid":"298673","cityId":null,"cityName":"Bouloupari","hotelId":20001739,"hotelName":"Les Paillottes De La Ouenghi","address":"RT1 Ouenghi,98812 Boulouparis,New Caledonia","phones":"+687351735","fax":"+687351744","email":"","url":"","countryIso2":"NC","countryName":"New Caledonia","hotelRating":"0","latitude":"0","longitude":"0","state_id":null,"state_name":null,"country_id":null},{"active":false,"Giataid":"724718","cityId":null,"cityName":"Noum?a","hotelId":20002129,"hotelName":"Residence Marina Beach Hotel","address":"4 Rue Auguste Page,Des Citrons Bay,Noumea,New Caledonia","phones":"+687287633","fax":"","email":"marinabeachhotel@yahoo.fr","url":"http://www.marinabeach.nc","countryIso2":"NC","countryName":"New Caledonia","hotelRating":"0","latitude":"-22.2952","longitude":"166.439","state_id":null,"state_name":null,"country_id":null},{"active":false,"Giataid":"725661","cityId":null,"cityName":"Pa?ta","hotelId":20002507,"hotelName":"Lezard Home Bed and Breakfast","address":"75 Mont Mou,Lotissement Joseph Henin,Plaine Aux Cailloux,BP 2731,98890 Pa?ta,Nouvelle Cal?donie,New Caledonia","phones":"+687758602","fax":"","email":"lezardhome@nautile.nc","url":"http://www.lezardhome.com","countryIso2":"NC","countryName":"New Caledonia","hotelRating":"0","latitude":"-22.114","longitude":"166.394","state_id":null,"state_name":null,"country_id":null},{"active":false,"Giataid":"474124","cityId":null,"cityName":"Kon?","hotelId":20002762,"hotelName":"Hotel Colibri","address":"RT1 Sortie Nord de KONE,98860 Kone,Province Nord,New Caledonia","phones":"+687475404","fax":"","email":"","url":"http://www.colibri-kone.com","countryIso2":"NC","countryName":"New Caledonia","hotelRating":"0","latitude":"-21.0561","longitude":"164.851","state_id":null,"state_name":null,"country_id":null},{"active":false,"Giataid":"298740","cityId":null,"cityName":"Lifou","hotelId":20002930,"hotelName":"Oasis De Kiamu","address":"Tribu de Jozip,BP 417,98820 We Lifou,New Caledonia","phones":"+687451500","fax":"+687451600","email":"oasis@canl.nc","url":"http://www.hoteloasisdekiamu.nc/","countryIso2":"NC","countryName":"New Caledonia","hotelRating":"2","latitude":"-20.9422","longitude":"167.354","state_id":null,"state_name":null,"country_id":null},{"active":false,"Giataid":"458607","cityId":null,"cityName":"Kon?","hotelId":20003148,"hotelName":"Hotel La Nea","address":"2750 Avenue Du Lapita,98860 Kone,New Caledonia","phones":"","fax":"","email":"","url":"","countryIso2":"NC","countryName":"New Caledonia","hotelRating":"3","latitude":"-21.07","longitude":"164.87","state_id":null,"state_name":null,"country_id":null},{"active":false,"Giataid":"245193","cityId":null,"cityName":"Isle of Pines","hotelId":20003359,"hotelName":"Kodjeue","address":"Baie Ou?m?o,Vao,Ile des Pins 98832,New Caledonia","phones":"+687254546","fax":"+687254202","email":"resa@kodjeue.nc","url":"http://www.hotelkodjeue.com/","countryIso2":"NC","countryName":"New Caledonia","hotelRating":"0","latitude":"-22.5891","longitude":"167.425","state_id":null,"state_name":null,"country_id":null},{"active":false,"Giataid":"727173","cityId":null,"cityName":"Noum?a","hotelId":20003598,"hotelName":"Domaine de la Ferme d'Erambere","address":"67 Route de la Nondou?,98830 Dumb?a,New Caledonia","phones":"","fax":"","email":"","url":"","countryIso2":"NC","countryName":"New Caledonia","hotelRating":"0","latitude":"-22.2939","longitude":"166.444","state_id":null,"state_name":null,"country_id":null},{"active":false,"Giataid":"245196","cityId":null,"cityName":"Fayaou?","hotelId":20003726,"hotelName":"Paradis d'Ouvea","address":"Baie de Mouli,Fayaoue,Ouvea,New Caledonia","phones":"+687455400","fax":"+687455401","email":"","url":"","countryIso2":"NC","countryName":"New Caledonia","hotelRating":"3","latitude":"-20.7057","longitude":"166.463","state_id":null,"state_name":null,"country_id":null},{"active":false,"Giataid":"298734","cityId":null,"cityName":"Sarram?a","hotelId":20003969,"hotelName":"Evasion","address":"BP 2182,98882 Sarram?a,New Caledonia","phones":"+687445577","fax":"+687445578","email":"evasion@lagoon.nc","url":"http://www.hotel-evasion.com","countryIso2":"NC","countryName":"New Caledonia","hotelRating":"3","latitude":"-21.6369","longitude":"165.847","state_id":null,"state_name":null,"country_id":null},{"active":false,"Giataid":"474770","cityId":null,"cityName":"Kon?","hotelId":20004139,"hotelName":"Hotel Hibiscus","address":"1153 Avenue du Lapita BP45,98860 Kon?,New Caledonia","phones":"","fax":"","email":"","url":"http://www.hotelhibiscus.nc","countryIso2":"NC","countryName":"New Caledonia","hotelRating":"3","latitude":"-21.0623","longitude":"164.862","state_id":null,"state_name":null,"country_id":null},{"active":false,"Giataid":"298707","cityId":null,"cityName":"Malabou","hotelId":20004329,"hotelName":"Novotel Malabou","address":"Malabou,Poum,New Caledonia","phones":"","fax":"","email":"","url":"","countryIso2":"NC","countryName":"New Caledonia","hotelRating":"0","latitude":"-20.2908","longitude":"164.108","state_id":null,"state_name":null,"country_id":null},{"active":false,"Giataid":"245195","cityId":null,"cityName":"Tadine Mar?","hotelId":20004495,"hotelName":"Nengone Village","address":"P.O. Box 154,Cengeite,98828 Tadine Mar?,New Caledonia","phones":"+687454500","fax":"+687454464","email":"nengone@canl.nc","url":"http://www.hotelnengonevillage.nc/indexen.htm","countryIso2":"NC","countryName":"New Caledonia","hotelRating":"0","latitude":"-21.5995","longitude":"167.886","state_id":null,"state_name":null,"country_id":null},{"active":false,"Giataid":"298738","cityId":null,"cityName":"Grande Terre","hotelId":20004670,"hotelName":"Tontoutel Tontouta","address":"RT1,Tontouta,Noumea,98840 Grand Terre,New Caledonia","phones":"","fax":"","email":"","url":"","countryIso2":"NC","countryName":"New Caledonia","hotelRating":"0","latitude":"-22.0074","longitude":"166.221","state_id":null,"state_name":null,"country_id":null},{"active":false,"Giataid":"298738","cityId":null,"cityName":"Grande Terre","hotelId":20004670,"hotelName":"Tontoutel Tontouta","address":"RT1,Tontouta,Noumea,98840 Grand Terre,New Caledonia","phones":"","fax":"","email":"","url":"","countryIso2":"NC","countryName":"New Caledonia","hotelRating":"0","latitude":"-22.0074","longitude":"166.221","state_id":null,"state_name":null,"country_id":null},{"active":false,"Giataid":"944588","cityId":null,"cityName":"Kon?","hotelId":20354623,"hotelName":"Eden Appartel Kone","address":"239 Avenue De T?ari,Zone Dactivit? Les Cassis,98860 Kon?,New Caledonia","phones":"+687424142","fax":"","email":"eden@eden.nc","url":"http://fr.eden.nc","countryIso2":"NC","countryName":"New Caledonia","hotelRating":"0","latitude":"-21.0623","longitude":"164.862","state_id":null,"state_name":null,"country_id":null},{"active":false,"Giataid":"856556","cityId":null,"cityName":"Noum?a","hotelId":20354628,"hotelName":"Hotel Gondwana","address":"19 Rue Auguste Brun,BP 392,98800 Noum?a,New Caledonia","phones":"+687269799","fax":"","email":"bienvenue@hotelgondwana.nc","url":"https://www.hotelgondwana.nc","countryIso2":"NC","countryName":"New Caledonia","hotelRating":"2","latitude":"-22.2939","longitude":"166.444","state_id":null,"state_name":null,"country_id":null},{"active":false,"Giataid":"905669","cityId":null,"cityName":"Pa?ta","hotelId":20354629,"hotelName":"Chambre Tontouta Tamoa","address":"Route Territoriale 1,98890 Paita,New Caledonia","phones":"","fax":"","email":"","url":"","countryIso2":"NC","countryName":"New Caledonia","hotelRating":"0","latitude":"-22.0935","longitude":"166.369","state_id":null,"state_name":null,"country_id":null},{"active":false,"Giataid":"908876","cityId":null,"cityName":"Bourail","hotelId":20354630,"hotelName":"Hotel De Poe","address":"Plage De Po?,98800 Bourail,Nouvelle-Cal?donie,New Caledonia","phones":"+687442200","fax":"","email":"info@hoteldepoe.nc","url":"http://www.hoteldepoe.nc","countryIso2":"NC","countryName":"New Caledonia","hotelRating":"0","latitude":"-21.6102","longitude":"165.392","state_id":null,"state_name":null,"country_id":null},{"active":false,"Giataid":"871934","cityId":null,"cityName":"Bourail","hotelId":20354632,"hotelName":"Hotel La Nera","address":"Route Territoriale 1,Pont De La Nera,98870 Bourail,Grand Terre,New Caledonia","phones":"","fax":"","email":"","url":"","countryIso2":"NC","countryName":"New Caledonia","hotelRating":"0","latitude":"-21.6102","longitude":"165.392","state_id":null,"state_name":null,"country_id":null},{"active":false,"Giataid":"953256","cityId":null,"cityName":"Kon?","hotelId":20414597,"hotelName":"Pacifik Appartels","address":"Route Territoriale 1,BP 1900,98859 Kon?,New Caledonia","phones":"","fax":"","email":"","url":"","countryIso2":"NC","countryName":"New Caledonia","hotelRating":"1","latitude":"-21.0623","longitude":"164.862","state_id":null,"state_name":null,"country_id":null},{"active":false,"Giataid":"967770","cityId":null,"cityName":"Bouloupari","hotelId":20414598,"hotelName":"Oua-Ya Lodge","address":"180 Rue des Frangipaniers,Port-Ouenghi,BP 435,98812 Boulouparis,New Caledonia","phones":"+687237389","fax":"","email":"ouayalodge@gmail.com","url":"https://www.ouayalodge.com/","countryIso2":"NC","countryName":"New Caledonia","hotelRating":"1","latitude":"-21.8982","longitude":"166.072","state_id":null,"state_name":null,"country_id":null}]