[{"active":false,"Giataid":"134868","cityId":52126,"cityName":"Tbilisi","hotelId":134868,"hotelName":"ILiani","address":"Anjaparidze Street 1,Tbilisi 0179,Georgia","phones":"+995322234086","fax":"","email":"","url":"","countryIso2":"GE","countryName":"Georgia","hotelRating":"4","latitude":"41.711","longitude":"44.7833","state_id":899,"state_name":"Tbilisi","country_id":81},{"active":false,"Giataid":"134873","cityId":52126,"cityName":"Tbilisi","hotelId":134873,"hotelName":"Garden Hotel","address":"Shanidze Street 31,0179 Tbilisi City,Georgia","phones":"+99532290936","fax":"+99532234093","email":"info@hotelkolkhi.ge","url":"http://www.hotelkolkhi.ge/main/","countryIso2":"GE","countryName":"Georgia","hotelRating":"3","latitude":"41.705","longitude":"44.7801","state_id":899,"state_name":"Tbilisi","country_id":81},{"active":false,"Giataid":"135721","cityId":52126,"cityName":"Tbilisi","hotelId":135721,"hotelName":"Kopala","address":"8/10 Chekhov Street,Tbilisi 0103,Georgia","phones":"+995322775520","fax":"+995322775590","email":"hotel@kopala.ge","url":"http://www.kopala.ge/","countryIso2":"GE","countryName":"Georgia","hotelRating":"3","latitude":"41.6908","longitude":"44.8124","state_id":899,"state_name":"Tbilisi","country_id":81},{"active":false,"Giataid":"151752","cityId":52126,"cityName":"Tbilisi","hotelId":151752,"hotelName":"BritisH-House","address":"32 Belinski Str.,Tbilisi,Georgia","phones":"+995322988783","fax":"+995322923998","email":"hotelbritishhouse@gmail.com","url":"http://www.british-house.ge","countryIso2":"GE","countryName":"Georgia","hotelRating":"3","latitude":"41.703","longitude":"44.7845","state_id":899,"state_name":"Tbilisi","country_id":81},{"active":false,"Giataid":"151787","cityId":52126,"cityName":"Tbilisi","hotelId":151787,"hotelName":"Vip Victoria","address":"Shoshitaishvili 3,(Arakishvili 1 al No. 3),Tbilisi 0179,Georgia","phones":"+99532291877","fax":"+99532251651","email":"victoria@global-erty.net","url":"http://www.victoria.com.ge/vip/","countryIso2":"GE","countryName":"Georgia","hotelRating":"3","latitude":"41.7068","longitude":"44.7668","state_id":899,"state_name":"Tbilisi","country_id":81},{"active":false,"Giataid":"187637","cityId":52126,"cityName":"Tbilisi","hotelId":187637,"hotelName":"Best Eastern Villa Berika","address":"","phones":"","fax":"","email":"","url":"","countryIso2":"GE","countryName":"Georgia","hotelRating":"3","latitude":"41.7011","longitude":"44.8019","state_id":899,"state_name":"Tbilisi","country_id":81},{"active":false,"Giataid":"228046","cityId":52126,"cityName":"Tbilisi","hotelId":228046,"hotelName":"Cruise","address":"Beliashvili 75,0159 Tbilisi,Georgia","phones":"+99532541103","fax":"+99532541102","email":"complexcruise@gmail.com","url":"http://www.hotels-tbilisi.com/hotelcruise]hotel_details]125]eng]listnumber]asc]1","countryIso2":"GE","countryName":"Georgia","hotelRating":"3","latitude":"41.7687","longitude":"44.7798","state_id":899,"state_name":"Tbilisi","country_id":81},{"active":false,"Giataid":"228047","cityId":52126,"cityName":"Tbilisi","hotelId":228047,"hotelName":"Radisson Blu Iveria","address":"Rose Revolution Square 1,0108 Tbilisi,Georgia,Georgia","phones":"+99532402200","fax":"+99532402201","email":"info.tbilisi@radissonblu.com","url":"http://www.radissonblu.com/hotel-tbilisi","countryIso2":"GE","countryName":"Georgia","hotelRating":"5","latitude":"41.7041","longitude":"44.7936","state_id":899,"state_name":"Tbilisi","country_id":81},{"active":false,"Giataid":"236940","cityId":52126,"cityName":"Tbilisi","hotelId":236940,"hotelName":"Hotel Royal","address":"Gogebashvili Street 38,Vera,0179 Tbilisi,Georgia","phones":"+995593688471","fax":"","email":"contact@hotelroyal.ge","url":"http://www.hotelroyal.ge/desktopdefault.aspx","countryIso2":"GE","countryName":"Georgia","hotelRating":"3","latitude":"41.703","longitude":"44.7823","state_id":899,"state_name":"Tbilisi","country_id":81},{"active":false,"Giataid":"238254","cityId":52126,"cityName":"Tbilisi","hotelId":238254,"hotelName":"Citadines Freedom Square Tbilisi","address":"Building 2a,4 Freedom Square,0105 Tbilisi,Georgia","phones":"+995322547030","fax":"+99532547040","email":"enquiry.europe@citadines.com","url":"http://www.citadines.com/en/georgia/tbilisi/freedom_square.html","countryIso2":"GE","countryName":"Georgia","hotelRating":"4","latitude":"41.6931","longitude":"44.8009","state_id":899,"state_name":"Tbilisi","country_id":81},{"active":false,"Giataid":"242684","cityId":52126,"cityName":"Tbilisi","hotelId":242684,"hotelName":"Georgia 444","address":"Mikeladze st. 7,Digomi,Tbilisi,Georgia","phones":"+9952532039","fax":"","email":"hotel444@mail.ru","url":"http://www.georgia444.ge/","countryIso2":"GE","countryName":"Georgia","hotelRating":"2","latitude":"41.7625","longitude":"44.7751","state_id":899,"state_name":"Tbilisi","country_id":81},{"active":false,"Giataid":"243815","cityId":52126,"cityName":"Tbilisi","hotelId":243815,"hotelName":"Holiday Inn Tbilisi","address":"1.26 May Square,Tbilisi 0171,Georgia","phones":"+995322300099","fax":"+995322300001","email":"info@hi-tbilisi.com","url":"http://www.holidayinn.com/hotels/de/de/tbilisi/tbsms/hoteldetail","countryIso2":"GE","countryName":"Georgia","hotelRating":"3","latitude":"41.719","longitude":"44.7779","state_id":899,"state_name":"Tbilisi","country_id":81},{"active":false,"Giataid":"249489","cityId":52126,"cityName":"Tbilisi","hotelId":249489,"hotelName":"Bomond","address":"Alexandre Chavchavadze 11,Mtatsminda,Tbilisi,Georgia","phones":"+995322921172","fax":"+995322996246","email":"bali103@hotmail.com","url":"","countryIso2":"GE","countryName":"Georgia","hotelRating":"3","latitude":"41.7003","longitude":"44.794","state_id":899,"state_name":"Tbilisi","country_id":81},{"active":false,"Giataid":"249490","cityId":52126,"cityName":"Tbilisi","hotelId":249490,"hotelName":"Bomond Garden","address":"Marshal Gelovani 6a,Vashlijvari,Tbilisi,Georgia","phones":"+995322532016","fax":"+995322532063","email":"info@bomondgarden.com","url":"http://www.bomondgarden.com","countryIso2":"GE","countryName":"Georgia","hotelRating":"4","latitude":"41.7502","longitude":"44.7676","state_id":899,"state_name":"Tbilisi","country_id":81},{"active":false,"Giataid":"249492","cityId":52126,"cityName":"Tbilisi","hotelId":249492,"hotelName":"Betsy's","address":"32-34 Makashvili,0108 Tbilisi,Georgia","phones":"+995322931404","fax":"+995322999311","email":"reservation@betsyshotel.com","url":"http://www.betsyshotel.com","countryIso2":"GE","countryName":"Georgia","hotelRating":"4","latitude":"41.7015","longitude":"44.787","state_id":899,"state_name":"Tbilisi","country_id":81},{"active":false,"Giataid":"249493","cityId":52126,"cityName":"Tbilisi","hotelId":249493,"hotelName":"Sympatia","address":"4 Daraselia,Tbilisi,Georgia","phones":"+99532995588","fax":"+99532376263","email":"contact@sympatia.ge","url":"http://www.sympatia.ge","countryIso2":"GE","countryName":"Georgia","hotelRating":"2","latitude":"41.7319","longitude":"44.769","state_id":899,"state_name":"Tbilisi","country_id":81},{"active":false,"Giataid":"249494","cityId":52126,"cityName":"Tbilisi","hotelId":249494,"hotelName":"Vedzisi","address":"Zovreti 32,Tbilisi,Georgia","phones":"+995322388626","fax":"+995322388636","email":"","url":"http://www.hotelvedzisi.ge","countryIso2":"GE","countryName":"Georgia","hotelRating":"4","latitude":"41.7326","longitude":"44.7639","state_id":899,"state_name":"Tbilisi","country_id":81},{"active":false,"Giataid":"292083","cityId":null,"cityName":"Mazeri","hotelId":292083,"hotelName":"Grand Hotel Ushba","address":"Tvebishi,Mestias rajoni,Svaneti,Georgia","phones":"+995790119192","fax":"","email":"","url":"","countryIso2":"GE","countryName":"Georgia","hotelRating":"1","latitude":"43.0732","longitude":"42.6027","state_id":null,"state_name":null,"country_id":null},{"active":false,"Giataid":"292084","cityId":null,"cityName":"Poti","hotelId":292084,"hotelName":"Villa Reta","address":"Grigoleti Village","phones":"","fax":"","email":"","url":"","countryIso2":"GE","countryName":"Georgia","hotelRating":"4","latitude":"42.0429","longitude":"41.7348","state_id":null,"state_name":null,"country_id":null},{"active":false,"Giataid":"363967","cityId":52126,"cityName":"Tbilisi","hotelId":363967,"hotelName":"Royal Vera Boutique Hotel","address":"Merab Kostava Street 35,Tbilisi,Georgia","phones":"+995322131513","fax":"","email":"","url":"","countryIso2":"GE","countryName":"Georgia","hotelRating":"4","latitude":"41.7075","longitude":"44.7863","state_id":899,"state_name":"Tbilisi","country_id":81},{"active":false,"Giataid":"363968","cityId":52126,"cityName":"Tbilisi","hotelId":363968,"hotelName":"Astoria","address":"189a Aghmashenebeli Ave.,0112 Tbilisi,Georgia","phones":"","fax":"","email":"","url":"http://www.hrs.com/uk/booking/en/georgia/tbilisi/astoria-547542.html","countryIso2":"GE","countryName":"Georgia","hotelRating":"3","latitude":"41.7852","longitude":"44.7699","state_id":899,"state_name":"Tbilisi","country_id":81},{"active":false,"Giataid":"369471","cityId":52126,"cityName":"Tbilisi","hotelId":369471,"hotelName":"Grand Hotel Georgia","address":"","phones":"","fax":"","email":"","url":"","countryIso2":"GE","countryName":"Georgia","hotelRating":"3","latitude":"41.7011","longitude":"44.8019","state_id":899,"state_name":"Tbilisi","country_id":81},{"active":false,"Giataid":"370158","cityId":52053,"cityName":"Batumi","hotelId":370158,"hotelName":"Hilton Batumi","address":"Rustaveli Avenue 40,6010 Batumi,Georgia","phones":"+995422222299","fax":"","email":"","url":"WWW3.HILTON.COM/EN/HOTELS/GEORGIA/HILTON-BATUMI-BUSBTHI/","countryIso2":"GE","countryName":"Georgia","hotelRating":"5","latitude":"41.6491","longitude":"41.6257","state_id":900,"state_name":"Adjara","country_id":81},{"active":false,"Giataid":"370159","cityId":52058,"cityName":"Chakvi","hotelId":370159,"hotelName":"Oasis Spa & Resort Hotel","address":"16 Batumi Street,Kobuleti,Chaisubani,6200 Chakvi,Georgia","phones":"+995592296060","fax":"","email":"","url":"","countryIso2":"GE","countryName":"Georgia","hotelRating":"4","latitude":"41.7107","longitude":"41.7224","state_id":900,"state_name":"Adjara","country_id":81},{"active":false,"Giataid":"370160","cityId":52053,"cityName":"Batumi","hotelId":370160,"hotelName":"Radisson Blu Batumi","address":"Ninoshvili Street 1,6000 Batumi,Georgia","phones":"+995422255555","fax":"","email":"","url":"","countryIso2":"GE","countryName":"Georgia","hotelRating":"5","latitude":"41.6541","longitude":"41.6378","state_id":900,"state_name":"Adjara","country_id":81},{"active":false,"Giataid":"372275","cityId":52120,"cityName":"Sighnaghi","hotelId":372275,"hotelName":"Hotel Kabadoni","address":"","phones":"","fax":"","email":"","url":"","countryIso2":"GE","countryName":"Georgia","hotelRating":"4","latitude":"41.6196","longitude":"45.9229","state_id":910,"state_name":"Kakheti","country_id":81},{"active":false,"Giataid":"382690","cityId":52126,"cityName":"Tbilisi","hotelId":382690,"hotelName":"Villa Vera","address":"Guram Rcheulishvili Street 13","phones":"","fax":"","email":"","url":"","countryIso2":"GE","countryName":"Georgia","hotelRating":"3","latitude":"41.7031","longitude":"44.7771","state_id":899,"state_name":"Tbilisi","country_id":81},{"active":false,"Giataid":"382691","cityId":52126,"cityName":"Tbilisi","hotelId":382691,"hotelName":"Georgian House","address":"","phones":"","fax":"","email":"","url":"","countryIso2":"GE","countryName":"Georgia","hotelRating":"3","latitude":"41.6947","longitude":"44.8154","state_id":899,"state_name":"Tbilisi","country_id":81},{"active":false,"Giataid":"382692","cityId":52126,"cityName":"Tbilisi","hotelId":382692,"hotelName":"Meidani","address":"Grishashvili Street 19,0105 Tiflis,Georgia","phones":"","fax":"","email":"","url":"","countryIso2":"GE","countryName":"Georgia","hotelRating":"1","latitude":"41.6877","longitude":"44.8123","state_id":899,"state_name":"Tbilisi","country_id":81},{"active":false,"Giataid":"382693","cityId":52126,"cityName":"Tbilisi","hotelId":382693,"hotelName":"Kartli","address":"","phones":"","fax":"","email":"","url":"","countryIso2":"GE","countryName":"Georgia","hotelRating":"2","latitude":"41.705","longitude":"44.7813","state_id":899,"state_name":"Tbilisi","country_id":81},{"active":false,"Giataid":"383823","cityId":52053,"cityName":"Batumi","hotelId":383823,"hotelName":"Efes Hotel","address":"","phones":"","fax":"","email":"","url":"","countryIso2":"GE","countryName":"Georgia","hotelRating":"3","latitude":"41.6306","longitude":"41.6136","state_id":900,"state_name":"Adjara","country_id":81},{"active":false,"Giataid":"392193","cityId":52053,"cityName":"Batumi","hotelId":392193,"hotelName":"President Plaza","address":"17 Nikoloz Baratashvili Street,Batumi 6000,Georgia","phones":"+995422276950","fax":"","email":"info@presidentplaza.ge","url":"http://www.presidentplaza.ge/general.php?check_in_date=&amp;check_out_date=","countryIso2":"GE","countryName":"Georgia","hotelRating":"5","latitude":"41.6504","longitude":"41.636","state_id":900,"state_name":"Adjara","country_id":81},{"active":false,"Giataid":"409585","cityId":52057,"cityName":"Borjomi","hotelId":409585,"hotelName":"Victoria Panorama","address":"Gogias Tsikhe 1,Borjomi,Georgia","phones":"+995322291877","fax":"+995367223342","email":"victoriapanorama@gmail.com","url":"http://victoria-panorama.com/","countryIso2":"GE","countryName":"Georgia","hotelRating":"1","latitude":"41.8395","longitude":"43.3828","state_id":906,"state_name":"Samtskhe-Javakheti","country_id":81},{"active":false,"Giataid":"412075","cityId":52072,"cityName":"Gudauri","hotelId":412075,"hotelName":"Hotel Gudauri Hut","address":"","phones":"","fax":"","email":"","url":"","countryIso2":"GE","countryName":"Georgia","hotelRating":"1","latitude":"42.4742","longitude":"44.4771","state_id":902,"state_name":"Mtskheta-Mtianeti","country_id":81},{"active":false,"Giataid":"412109","cityId":52072,"cityName":"Gudauri","hotelId":412109,"hotelName":"Hotel Seven Gudauri","address":"","phones":"","fax":"","email":"","url":"","countryIso2":"GE","countryName":"Georgia","hotelRating":"1","latitude":"42.4742","longitude":"44.4771","state_id":902,"state_name":"Mtskheta-Mtianeti","country_id":81},{"active":false,"Giataid":"423478","cityId":null,"cityName":"Stepanzminda","hotelId":423478,"hotelName":"Rooms Hotel Kazbegi","address":"V. Gorgasali Street 1,Stepantsminda,Georgia","phones":"+995322710099","fax":"+995322430099","email":"","url":"http://roomshotel.ge","countryIso2":"GE","countryName":"Georgia","hotelRating":"4","latitude":"42.6588","longitude":"44.6508","state_id":null,"state_name":null,"country_id":null},{"active":false,"Giataid":"424679","cityId":52053,"cityName":"Batumi","hotelId":424679,"hotelName":"Vanilla Batumi","address":"","phones":"","fax":"","email":"","url":"","countryIso2":"GE","countryName":"Georgia","hotelRating":"3","latitude":"41.6506","longitude":"41.6426","state_id":900,"state_name":"Adjara","country_id":81},{"active":false,"Giataid":"425706","cityId":52053,"cityName":"Batumi","hotelId":425706,"hotelName":"Hotel Antika","address":"","phones":"","fax":"","email":"","url":"","countryIso2":"GE","countryName":"Georgia","hotelRating":"3","latitude":"41.6427","longitude":"41.6363","state_id":900,"state_name":"Adjara","country_id":81},{"active":false,"Giataid":"425708","cityId":52053,"cityName":"Batumi","hotelId":425708,"hotelName":"Hotel Chao","address":"75 Zurab Gorgiladze St","phones":"","fax":"","email":"","url":"","countryIso2":"GE","countryName":"Georgia","hotelRating":"3","latitude":"41.646","longitude":"41.6281","state_id":900,"state_name":"Adjara","country_id":81},{"active":false,"Giataid":"425709","cityId":52126,"cityName":"Tbilisi","hotelId":425709,"hotelName":"Hotel Ponto","address":"Metekhi Street 7,Avlabari,0103 Tbilisi,Georgia","phones":"","fax":"","email":"","url":"","countryIso2":"GE","countryName":"Georgia","hotelRating":"3","latitude":"41.6908","longitude":"44.8139","state_id":899,"state_name":"Tbilisi","country_id":81},{"active":false,"Giataid":"425715","cityId":52126,"cityName":"Tbilisi","hotelId":425715,"hotelName":"Mirobelle Hotel","address":"","phones":"","fax":"","email":"","url":"","countryIso2":"GE","countryName":"Georgia","hotelRating":"3","latitude":"41.6971","longitude":"44.8132","state_id":899,"state_name":"Tbilisi","country_id":81},{"active":false,"Giataid":"425717","cityId":52053,"cityName":"Batumi","hotelId":425717,"hotelName":"Premier Hotel","address":"","phones":"","fax":"","email":"","url":"","countryIso2":"GE","countryName":"Georgia","hotelRating":"3","latitude":"41.6433","longitude":"41.6539","state_id":900,"state_name":"Adjara","country_id":81},{"active":false,"Giataid":"429706","cityId":52065,"cityName":"Gagra","hotelId":429706,"hotelName":"Amran","address":"ul.Pionerskaya 5,Gagra,Abkhaziya,Georgia","phones":"+99578402340130","fax":"","email":"","url":"http://amran.ru","countryIso2":"GE","countryName":"Georgia","hotelRating":"4","latitude":"43.2952","longitude":"40.2595","state_id":901,"state_name":"Autonomous Republic of Abkhazia","country_id":81},{"active":false,"Giataid":"433048","cityId":52126,"cityName":"Tbilisi","hotelId":433048,"hotelName":"Grand Royal Tbilisi","address":"Besiki Street 4,Historical Centre,Isnis Raioni,0108 Tbilisi,Georgia","phones":"+995322988918","fax":"","email":"","url":"","countryIso2":"GE","countryName":"Georgia","hotelRating":"4","latitude":"41.6986","longitude":"44.7968","state_id":899,"state_name":"Tbilisi","country_id":81},{"active":false,"Giataid":"433052","cityId":52126,"cityName":"Tbilisi","hotelId":433052,"hotelName":"Hotel Kalanga","address":"","phones":"","fax":"","email":"","url":"","countryIso2":"GE","countryName":"Georgia","hotelRating":"2","latitude":"41.6894","longitude":"44.8061","state_id":899,"state_name":"Tbilisi","country_id":81},{"active":false,"Giataid":"433054","cityId":52053,"cityName":"Batumi","hotelId":433054,"hotelName":"Silk Road Sea Towers Batumi Apart Hotel","address":"Sherif Khimshiahsvili Str 15G,16th floor","phones":"","fax":"","email":"","url":"","countryIso2":"GE","countryName":"Georgia","hotelRating":"3","latitude":"41.6373","longitude":"41.6098","state_id":900,"state_name":"Adjara","country_id":81},{"active":false,"Giataid":"436596","cityId":null,"cityName":"Qwareli","hotelId":436596,"hotelName":"Hotel Chateau Kvareli","address":"Kudigura Street 1a,4800 Kvareli,Georgia","phones":"+995790924090","fax":"","email":"info@chateaukvareli.ge","url":"http://chateaukvareli.ge/?&address=&menuid=1&lang=2","countryIso2":"GE","countryName":"Georgia","hotelRating":"3","latitude":"41.948","longitude":"45.8134","state_id":null,"state_name":null,"country_id":null},{"active":false,"Giataid":"440005","cityId":52126,"cityName":"Tbilisi","hotelId":440005,"hotelName":"ALV Hotel","address":"","phones":"","fax":"","email":"","url":"","countryIso2":"GE","countryName":"Georgia","hotelRating":"1","latitude":"41.7011","longitude":"44.8019","state_id":899,"state_name":"Tbilisi","country_id":81},{"active":false,"Giataid":"440136","cityId":52052,"cityName":"Bakuriani","hotelId":440136,"hotelName":"Hotel Apollon","address":"Agmashenebeli Street 21,Bakuriani,Georgia","phones":"+995599334499","fax":"","email":"info@apollon.ge","url":"http://www.apollon.ge/","countryIso2":"GE","countryName":"Georgia","hotelRating":"1","latitude":"41.7436","longitude":"43.5289","state_id":906,"state_name":"Samtskhe-Javakheti","country_id":81},{"active":false,"Giataid":"440174","cityId":52085,"cityName":"Kobuleti","hotelId":440174,"hotelName":"Savane","address":"Agmashenebeli Street 362,6200 Kobuleti,Georgia","phones":"+995426266538","fax":"","email":"Info@savane.ge","url":"http://www.savane.ge/static.livedemo00.template-help/wt_33376/eng/wt_33376/contact.html","countryIso2":"GE","countryName":"Georgia","hotelRating":"3","latitude":"41.8755","longitude":"41.7766","state_id":900,"state_name":"Adjara","country_id":81},{"active":false,"Giataid":"440176","cityId":52085,"cityName":"Kobuleti","hotelId":440176,"hotelName":"Kobuleti Beach Club","address":"Agmashenebeli Street 373 A,6200 Kobuleti,Georgia","phones":"+995599569677","fax":"","email":"","url":"http://georgia-sea.com/kobuleti-beach-club-hotel-georgia","countryIso2":"GE","countryName":"Georgia","hotelRating":"3","latitude":"41.8783","longitude":"41.7743","state_id":900,"state_name":"Adjara","country_id":81},{"active":false,"Giataid":"440184","cityId":null,"cityName":"Ureki","hotelId":440184,"hotelName":"Hotel Albatros","address":"Takhaeshvili Street,6000 Ureki,Georgia","phones":"+995599209403","fax":"","email":"","url":"http://albatrosureki.ge/index.php?lang=en","countryIso2":"GE","countryName":"Georgia","hotelRating":"3","latitude":"41.9944","longitude":"41.7616","state_id":null,"state_name":null,"country_id":null},{"active":false,"Giataid":"440503","cityId":52126,"cityName":"Tbilisi","hotelId":440503,"hotelName":"Hotel Nice","address":"Aghmashenebeli Street 95,Tbilisi,Georgia","phones":"+995322910899","fax":"","email":"","url":"http://www.hotelnice.ge/contact.html","countryIso2":"GE","countryName":"Georgia","hotelRating":"1","latitude":"41.7108","longitude":"44.797","state_id":899,"state_name":"Tbilisi","country_id":81},{"active":false,"Giataid":"440594","cityId":52052,"cityName":"Bakuriani","hotelId":440594,"hotelName":"Edelweiss","address":"","phones":"","fax":"","email":"","url":"","countryIso2":"GE","countryName":"Georgia","hotelRating":"1","latitude":"41.7499","longitude":"43.5246","state_id":906,"state_name":"Samtskhe-Javakheti","country_id":81},{"active":false,"Giataid":"440681","cityId":52052,"cityName":"Bakuriani","hotelId":440681,"hotelName":"Etalasi Hotel","address":"Davida Agmashenebeli Street 74,1200 Bakuriani,Georgia","phones":"","fax":"","email":"","url":"","countryIso2":"GE","countryName":"Georgia","hotelRating":"2","latitude":"41.7511","longitude":"43.5284","state_id":906,"state_name":"Samtskhe-Javakheti","country_id":81},{"active":false,"Giataid":"440706","cityId":52127,"cityName":"Telavi","hotelId":440706,"hotelName":"Hotel Alaznis Veli","address":"Alazani Avenue 75,2200 Telavi,Kakheti Region,Georgia","phones":"+995350274144","fax":"","email":"info@alaznisveli.com.ge","url":"http://www.alaznisveli.com.ge","countryIso2":"GE","countryName":"Georgia","hotelRating":"3","latitude":"41.9264","longitude":"45.4727","state_id":910,"state_name":"Kakheti","country_id":81},{"active":false,"Giataid":"440750","cityId":52052,"cityName":"Bakuriani","hotelId":440750,"hotelName":"Noel Hotel","address":"Tsereteli Street 31,Centre,Bakuriani,Georgia","phones":"+995367240407","fax":"","email":"","url":"http://www.hotel-noel.ge","countryIso2":"GE","countryName":"Georgia","hotelRating":"2","latitude":"41.7432","longitude":"43.5306","state_id":906,"state_name":"Samtskhe-Javakheti","country_id":81},{"active":false,"Giataid":"440915","cityId":52053,"cityName":"Batumi","hotelId":440915,"hotelName":"Golden Fish Hotel","address":"","phones":"+995422278160","fax":"","email":"","url":"","countryIso2":"GE","countryName":"Georgia","hotelRating":"3","latitude":"41.6478","longitude":"41.641","state_id":900,"state_name":"Adjara","country_id":81},{"active":false,"Giataid":"441178","cityId":null,"cityName":"Gonio","hotelId":441178,"hotelName":"Hotel Egrisi","address":"Gonio, Kvariati Border,6000 Gonio, Batumi,Adscharien,Georgia","phones":"+995598657545","fax":"","email":"info@hotelegrisi.com","url":"http://hotelegrisi.com","countryIso2":"GE","countryName":"Georgia","hotelRating":"1","latitude":"41.5562","longitude":"41.5672","state_id":null,"state_name":null,"country_id":null},{"active":false,"Giataid":"441184","cityId":52127,"cityName":"Telavi","hotelId":441184,"hotelName":"Savaneti","address":"Vilage Ikalto,2206 Telavi,Georgia","phones":"+995790102050","fax":"","email":"info@villaikalto.ge","url":"","countryIso2":"GE","countryName":"Georgia","hotelRating":"1","latitude":"41.9431","longitude":"45.3961","state_id":910,"state_name":"Kakheti","country_id":81},{"active":false,"Giataid":"441186","cityId":52086,"cityName":"Kutaisi","hotelId":441186,"hotelName":"Hotel Rcheuli Palace","address":"21b, Grigol Khandzteli street,4600 Kutaisi,Imeretien,Georgia","phones":"+995431252710","fax":"","email":"info@rcheuli.ge","url":"http://rcheuli.ge","countryIso2":"GE","countryName":"Georgia","hotelRating":"2","latitude":"42.2621","longitude":"42.7016","state_id":905,"state_name":"Imereti","country_id":81},{"active":false,"Giataid":"441187","cityId":52127,"cityName":"Telavi","hotelId":441187,"hotelName":"Castle Tamarioni","address":"","phones":"","fax":"","email":"","url":"","countryIso2":"GE","countryName":"Georgia","hotelRating":"1","latitude":"41.9531","longitude":"45.3779","state_id":910,"state_name":"Kakheti","country_id":81},{"active":false,"Giataid":"441372","cityId":52086,"cityName":"Kutaisi","hotelId":441372,"hotelName":"Imeri Park","address":"Nikea Street 25,4600 Kutaisi,Georgia","phones":"","fax":"","email":"","url":"","countryIso2":"GE","countryName":"Georgia","hotelRating":"2","latitude":"42.2255","longitude":"42.6915","state_id":905,"state_name":"Imereti","country_id":81},{"active":false,"Giataid":"441459","cityId":52126,"cityName":"Tbilisi","hotelId":441459,"hotelName":"Hotel at Gomi 19","address":"","phones":"","fax":"","email":"","url":"","countryIso2":"GE","countryName":"Georgia","hotelRating":"1","latitude":"41.6889","longitude":"44.8076","state_id":899,"state_name":"Tbilisi","country_id":81},{"active":false,"Giataid":"441542","cityId":52085,"cityName":"Kobuleti","hotelId":441542,"hotelName":"Chveni Ezo","address":"Agmashenebeli Street 492,Kobuleti,Georgia","phones":"+995599791907","fax":"","email":"","url":"","countryIso2":"GE","countryName":"Georgia","hotelRating":"3","latitude":"41.8514","longitude":"41.7798","state_id":900,"state_name":"Adjara","country_id":81},{"active":false,"Giataid":"441555","cityId":52100,"cityName":"Mtskheta","hotelId":441555,"hotelName":"Kapiloni Hotel","address":"Misaktsieli Village,3308 Mtskheta,Georgia","phones":"","fax":"","email":"","url":"http://www.booking.com/hotel/ge/kapiloni.html","countryIso2":"GE","countryName":"Georgia","hotelRating":"4","latitude":"41.9457","longitude":"44.7403","state_id":902,"state_name":"Mtskheta-Mtianeti","country_id":81},{"active":false,"Giataid":"441609","cityId":null,"cityName":"Ureki","hotelId":441609,"hotelName":"Prime Ureki","address":"Ureki,3522 Ureki,Georgia","phones":"+995790803006","fax":"","email":"manager@hotelsprime.ge","url":"http://www.hotelsprime.ge/en/ureki/","countryIso2":"GE","countryName":"Georgia","hotelRating":"3","latitude":"41.9894","longitude":"41.7614","state_id":null,"state_name":null,"country_id":null},{"active":false,"Giataid":"441617","cityId":52085,"cityName":"Kobuleti","hotelId":441617,"hotelName":"Green House","address":"Queen Tamar's Seaside 8,6200 Kobuleti,Georgia","phones":"+995426261115","fax":"","email":"contact@greenhousehotel.eu","url":"http://www.greenhousehotel.eu/kobuleti.en","countryIso2":"GE","countryName":"Georgia","hotelRating":"1","latitude":"41.8171","longitude":"41.7735","state_id":900,"state_name":"Adjara","country_id":81},{"active":false,"Giataid":"441735","cityId":52085,"cityName":"Kobuleti","hotelId":441735,"hotelName":"King Palace","address":"","phones":"","fax":"","email":"","url":"","countryIso2":"GE","countryName":"Georgia","hotelRating":"2","latitude":"41.8328","longitude":"41.7769","state_id":900,"state_name":"Adjara","country_id":81},{"active":false,"Giataid":"442165","cityId":52086,"cityName":"Kutaisi","hotelId":442165,"hotelName":"Aeetes Palace Hotel","address":"34 Galaktion Tabidze Street,4600 Kutaisi,Georgia","phones":"+995431253533","fax":"","email":"admin@aeetes-hotel.com","url":"http://www.aeetes-hotel.com/","countryIso2":"GE","countryName":"Georgia","hotelRating":"3","latitude":"42.2679","longitude":"42.698","state_id":905,"state_name":"Imereti","country_id":81},{"active":false,"Giataid":"442450","cityId":null,"cityName":"Rustavi","hotelId":442450,"hotelName":"Hotel Autopapa","address":"","phones":"+995599990791","fax":"","email":"","url":"","countryIso2":"GE","countryName":"Georgia","hotelRating":"2","latitude":"41.5673","longitude":"44.9528","state_id":null,"state_name":null,"country_id":null},{"active":false,"Giataid":"442994","cityId":null,"cityName":"Anaklia","hotelId":442994,"hotelName":"Palm Beach Hotel","address":"Rustavelli Street,2109 Anaklia,Georgia","phones":"+995596007700","fax":"","email":"p.beach242@gmail.com","url":"http://palmbeach.ge/en","countryIso2":"GE","countryName":"Georgia","hotelRating":"4","latitude":"42.3935","longitude":"41.5623","state_id":null,"state_name":null,"country_id":null},{"active":false,"Giataid":"443222","cityId":null,"cityName":"Arsha","hotelId":443222,"hotelName":"Tergi Hotel","address":"Arsha Village,4700 Arsha,Georgia","phones":"","fax":"","email":"","url":"","countryIso2":"GE","countryName":"Georgia","hotelRating":"1","latitude":"42.614","longitude":"44.5945","state_id":null,"state_name":null,"country_id":null},{"active":false,"Giataid":"443878","cityId":52126,"cityName":"Tbilisi","hotelId":443878,"hotelName":"Sun Rise Hotel","address":"Pekini Street 44,0160 Tbilisi,Georgia","phones":"","fax":"","email":"","url":"","countryIso2":"GE","countryName":"Georgia","hotelRating":"1","latitude":"41.73","longitude":"44.7675","state_id":899,"state_name":"Tbilisi","country_id":81},{"active":false,"Giataid":"443891","cityId":52057,"cityName":"Borjomi","hotelId":443891,"hotelName":"Borjomis Kheoba","address":"107a Rustaveli Street,1200 Borjomi,Georgia","phones":"+995367223072","fax":"","email":"info@borjomiskheoba.com","url":"http://www.borjomiskheoba.com","countryIso2":"GE","countryName":"Georgia","hotelRating":"1","latitude":"41.8429","longitude":"43.3861","state_id":906,"state_name":"Samtskhe-Javakheti","country_id":81},{"active":false,"Giataid":"443894","cityId":52043,"cityName":"Akhaltsikhe","hotelId":443894,"hotelName":"Hotel Lomsia","address":"Kostava Street 10,0800 Akhaltsikhe,Georgia","phones":"+995365222001","fax":"","email":"info@lomsia.ge","url":"http://www.lomsia.ge","countryIso2":"GE","countryName":"Georgia","hotelRating":"1","latitude":"41.6387","longitude":"42.9874","state_id":906,"state_name":"Samtskhe-Javakheti","country_id":81},{"active":false,"Giataid":"443895","cityId":null,"cityName":"Rustavi","hotelId":443895,"hotelName":"Rustavi","address":"Megobroba Street,3700 Rustavi,Georgia","phones":"","fax":"","email":"","url":"","countryIso2":"GE","countryName":"Georgia","hotelRating":"3","latitude":"41.5616","longitude":"44.9781","state_id":null,"state_name":null,"country_id":null},{"active":false,"Giataid":"443899","cityId":null,"cityName":"Qwareli","hotelId":443899,"hotelName":"Kvareli Eden","address":"","phones":"+995322970165","fax":"","email":"","url":"","countryIso2":"GE","countryName":"Georgia","hotelRating":"1","latitude":"41.9508","longitude":"45.8361","state_id":null,"state_name":null,"country_id":null},{"active":false,"Giataid":"443907","cityId":52086,"cityName":"Kutaisi","hotelId":443907,"hotelName":"TirifiHoliday","address":"","phones":"","fax":"","email":"","url":"","countryIso2":"GE","countryName":"Georgia","hotelRating":"3","latitude":"42.2555","longitude":"42.6642","state_id":905,"state_name":"Imereti","country_id":81},{"active":false,"Giataid":"443953","cityId":52086,"cityName":"Kutaisi","hotelId":443953,"hotelName":"Edemi","address":"Brosse Street 9,4600 Kutaisi,Georgia","phones":"","fax":"","email":"","url":"","countryIso2":"GE","countryName":"Georgia","hotelRating":"3","latitude":"42.2732","longitude":"42.7056","state_id":905,"state_name":"Imereti","country_id":81},{"active":false,"Giataid":"443973","cityId":null,"cityName":"Grigoleti","hotelId":443973,"hotelName":"Central Hotel","address":"2800 Grigoleti,Georgia","phones":"","fax":"","email":"","url":"","countryIso2":"GE","countryName":"Georgia","hotelRating":"1","latitude":"42.0392","longitude":"41.7374","state_id":null,"state_name":null,"country_id":null},{"active":false,"Giataid":"445861","cityId":52085,"cityName":"Kobuleti","hotelId":445861,"hotelName":"National","address":"Agmashenebeli Street 375,6200 Kobuleti,Georgia","phones":"","fax":"","email":"","url":"","countryIso2":"GE","countryName":"Georgia","hotelRating":"1","latitude":"41.8784","longitude":"41.7743","state_id":900,"state_name":"Adjara","country_id":81},{"active":false,"Giataid":"446077","cityId":52043,"cityName":"Akhaltsikhe","hotelId":446077,"hotelName":"Hotel Gino Wellness Rabath","address":"Kharischirashvili Street 1,Akhaltsikhe,Georgia","phones":"+995599880918","fax":"+995322192939","email":"info@gino.ge","url":"http://www.gino.ge/","countryIso2":"GE","countryName":"Georgia","hotelRating":"1","latitude":"41.6422","longitude":"42.977","state_id":906,"state_name":"Samtskhe-Javakheti","country_id":81},{"active":false,"Giataid":"446119","cityId":52127,"cityName":"Telavi","hotelId":446119,"hotelName":"Erma","address":"Gruzinskogo Universiteta Street 25,2200 Telavi,Georgia","phones":"+99558141447","fax":"","email":"admin@erma.ge","url":"http://erma.ge/en/","countryIso2":"GE","countryName":"Georgia","hotelRating":"1","latitude":"41.9109","longitude":"45.4682","state_id":910,"state_name":"Kakheti","country_id":81},{"active":false,"Giataid":"447177","cityId":52053,"cityName":"Batumi","hotelId":447177,"hotelName":"Prestige Hotel","address":"","phones":"","fax":"","email":"","url":"","countryIso2":"GE","countryName":"Georgia","hotelRating":"3","latitude":"41.6439","longitude":"41.6347","state_id":900,"state_name":"Adjara","country_id":81},{"active":false,"Giataid":"447187","cityId":52126,"cityName":"Tbilisi","hotelId":447187,"hotelName":"Elita Hotel","address":"","phones":"","fax":"","email":"","url":"","countryIso2":"GE","countryName":"Georgia","hotelRating":"1","latitude":"41.6903","longitude":"44.8339","state_id":899,"state_name":"Tbilisi","country_id":81},{"active":false,"Giataid":"447400","cityId":52126,"cityName":"Tbilisi","hotelId":447400,"hotelName":"Hotel Lile","address":"","phones":"","fax":"","email":"","url":"","countryIso2":"GE","countryName":"Georgia","hotelRating":"1","latitude":"41.7011","longitude":"44.8019","state_id":899,"state_name":"Tbilisi","country_id":81},{"active":false,"Giataid":"447462","cityId":52127,"cityName":"Telavi","hotelId":447462,"hotelName":"Chateau Mere","address":"","phones":"","fax":"","email":"","url":"","countryIso2":"GE","countryName":"Georgia","hotelRating":"3","latitude":"41.923","longitude":"45.4051","state_id":910,"state_name":"Kakheti","country_id":81},{"active":false,"Giataid":"447487","cityId":52126,"cityName":"Tbilisi","hotelId":447487,"hotelName":"Paradise Hotel","address":"","phones":"","fax":"","email":"","url":"","countryIso2":"GE","countryName":"Georgia","hotelRating":"1","latitude":"41.6895","longitude":"44.8783","state_id":899,"state_name":"Tbilisi","country_id":81},{"active":false,"Giataid":"447574","cityId":52053,"cityName":"Batumi","hotelId":447574,"hotelName":"Piazza Boutique Hotel","address":"Parnavaz Mepe Street 25,6000 Batumi,Georgia","phones":"","fax":"","email":"","url":"","countryIso2":"GE","countryName":"Georgia","hotelRating":"4","latitude":"41.6497","longitude":"41.6409","state_id":900,"state_name":"Adjara","country_id":81},{"active":false,"Giataid":"447645","cityId":52120,"cityName":"Sighnaghi","hotelId":447645,"hotelName":"Galavnis Kari Hotel","address":"","phones":"","fax":"","email":"","url":"","countryIso2":"GE","countryName":"Georgia","hotelRating":"1","latitude":"41.6172","longitude":"45.9207","state_id":910,"state_name":"Kakheti","country_id":81},{"active":false,"Giataid":"447679","cityId":52126,"cityName":"Tbilisi","hotelId":447679,"hotelName":"Salo","address":"","phones":"","fax":"","email":"","url":"","countryIso2":"GE","countryName":"Georgia","hotelRating":"2","latitude":"41.7112","longitude":"44.7832","state_id":899,"state_name":"Tbilisi","country_id":81},{"active":false,"Giataid":"447770","cityId":52086,"cityName":"Kutaisi","hotelId":447770,"hotelName":"Oazis Hotel","address":"Brosse Street 9,4600 Kutaisi,Georgia","phones":"","fax":"","email":"","url":"","countryIso2":"GE","countryName":"Georgia","hotelRating":"1","latitude":"42.2731","longitude":"42.7058","state_id":905,"state_name":"Imereti","country_id":81},{"active":false,"Giataid":"447877","cityId":52126,"cityName":"Tbilisi","hotelId":447877,"hotelName":"Hotel House Sakartvelo","address":"","phones":"","fax":"","email":"","url":"","countryIso2":"GE","countryName":"Georgia","hotelRating":"1","latitude":"41.7077","longitude":"44.7832","state_id":899,"state_name":"Tbilisi","country_id":81},{"active":false,"Giataid":"447891","cityId":52057,"cityName":"Borjomi","hotelId":447891,"hotelName":"EcoRest - Likani Palace","address":"Meskheti St 27a","phones":"","fax":"","email":"","url":"","countryIso2":"GE","countryName":"Georgia","hotelRating":"3","latitude":"41.8364","longitude":"43.37","state_id":906,"state_name":"Samtskhe-Javakheti","country_id":81},{"active":false,"Giataid":"447899","cityId":52053,"cityName":"Batumi","hotelId":447899,"hotelName":"Family Hotel","address":"","phones":"","fax":"","email":"","url":"","countryIso2":"GE","countryName":"Georgia","hotelRating":"1","latitude":"41.6519","longitude":"41.6361","state_id":900,"state_name":"Adjara","country_id":81},{"active":false,"Giataid":"447974","cityId":52126,"cityName":"Tbilisi","hotelId":447974,"hotelName":"Visit Hotel","address":"Gonashvili Street 26,0103 Tbilisi,Georgia","phones":"","fax":"","email":"","url":"","countryIso2":"GE","countryName":"Georgia","hotelRating":"3","latitude":"41.6936","longitude":"44.8152","state_id":899,"state_name":"Tbilisi","country_id":81},{"active":false,"Giataid":"448144","cityId":52100,"cityName":"Mtskheta","hotelId":448144,"hotelName":"Zedazeni Hotel","address":"Tbilisi Highway 23/800,3302 Mtskheta,Georgia","phones":"+995577129921","fax":"","email":"","url":"","countryIso2":"GE","countryName":"Georgia","hotelRating":"3","latitude":"41.8608","longitude":"44.7302","state_id":902,"state_name":"Mtskheta-Mtianeti","country_id":81},{"active":false,"Giataid":"448147","cityId":52058,"cityName":"Chakvi","hotelId":448147,"hotelName":"Palma Hotel","address":"Batumi Street 8a,6200 Chakvi,Georgia","phones":"+995599749745","fax":"","email":"hotelpalmachakvi@mail.ru","url":"http://hotelpalmachakvi.com","countryIso2":"GE","countryName":"Georgia","hotelRating":"1","latitude":"41.7306","longitude":"41.7362","state_id":900,"state_name":"Adjara","country_id":81},{"active":false,"Giataid":"448149","cityId":null,"cityName":"Rustavi","hotelId":448149,"hotelName":"Grand Vejini","address":"","phones":"","fax":"","email":"","url":"","countryIso2":"GE","countryName":"Georgia","hotelRating":"1","latitude":"41.5677","longitude":"44.9626","state_id":null,"state_name":null,"country_id":null},{"active":false,"Giataid":"448188","cityId":52126,"cityName":"Tbilisi","hotelId":448188,"hotelName":"Fund Hotel","address":"","phones":"","fax":"","email":"","url":"","countryIso2":"GE","countryName":"Georgia","hotelRating":"1","latitude":"41.7101","longitude":"44.8501","state_id":899,"state_name":"Tbilisi","country_id":81},{"active":false,"Giataid":"448241","cityId":52126,"cityName":"Tbilisi","hotelId":448241,"hotelName":"Hotel Marani Meidanze","address":"","phones":"","fax":"","email":"","url":"","countryIso2":"GE","countryName":"Georgia","hotelRating":"1","latitude":"41.7011","longitude":"44.8019","state_id":899,"state_name":"Tbilisi","country_id":81},{"active":false,"Giataid":"448244","cityId":52053,"cityName":"Batumi","hotelId":448244,"hotelName":"Anadolu Hotel","address":"Kutaisi Street 23,6010 Batumi,Georgia","phones":"","fax":"","email":"","url":"","countryIso2":"GE","countryName":"Georgia","hotelRating":"3","latitude":"41.6501","longitude":"41.6428","state_id":900,"state_name":"Adjara","country_id":81},{"active":false,"Giataid":"448245","cityId":52053,"cityName":"Batumi","hotelId":448245,"hotelName":"Port Altus Hotel","address":"","phones":"","fax":"","email":"","url":"","countryIso2":"GE","countryName":"Georgia","hotelRating":"1","latitude":"41.6502","longitude":"41.6429","state_id":900,"state_name":"Adjara","country_id":81},{"active":false,"Giataid":"448246","cityId":52053,"cityName":"Batumi","hotelId":448246,"hotelName":"Duta Hotel","address":"","phones":"","fax":"","email":"","url":"","countryIso2":"GE","countryName":"Georgia","hotelRating":"2","latitude":"41.6419","longitude":"41.6197","state_id":900,"state_name":"Adjara","country_id":81},{"active":false,"Giataid":"448247","cityId":52053,"cityName":"Batumi","hotelId":448247,"hotelName":"Oto Hotel","address":"","phones":"","fax":"","email":"","url":"","countryIso2":"GE","countryName":"Georgia","hotelRating":"1","latitude":"41.6409","longitude":"41.6178","state_id":900,"state_name":"Adjara","country_id":81},{"active":false,"Giataid":"448283","cityId":null,"cityName":"Ureki","hotelId":448283,"hotelName":"Golden Fleece Hotel","address":"","phones":"","fax":"","email":"","url":"","countryIso2":"GE","countryName":"Georgia","hotelRating":"1","latitude":"41.9894","longitude":"41.7622","state_id":null,"state_name":null,"country_id":null},{"active":false,"Giataid":"448374","cityId":52126,"cityName":"Tbilisi","hotelId":448374,"hotelName":"Spa Hotel","address":"","phones":"","fax":"","email":"","url":"","countryIso2":"GE","countryName":"Georgia","hotelRating":"1","latitude":"41.7282","longitude":"44.7615","state_id":899,"state_name":"Tbilisi","country_id":81},{"active":false,"Giataid":"448375","cityId":null,"cityName":"Mestia","hotelId":448375,"hotelName":"Hotel Svaneti","address":"","phones":"","fax":"","email":"","url":"","countryIso2":"GE","countryName":"Georgia","hotelRating":"3","latitude":"43.0445","longitude":"42.7275","state_id":null,"state_name":null,"country_id":null},{"active":false,"Giataid":"448379","cityId":52126,"cityName":"Tbilisi","hotelId":448379,"hotelName":"Golden Town Hotel","address":"Ninoshvili Street 53,0112 Tbilisi,Georgia","phones":"","fax":"","email":"","url":"","countryIso2":"GE","countryName":"Georgia","hotelRating":"1","latitude":"41.7159","longitude":"44.7989","state_id":899,"state_name":"Tbilisi","country_id":81},{"active":false,"Giataid":"448381","cityId":52052,"cityName":"Bakuriani","hotelId":448381,"hotelName":"Crystal Hotel & Spa","address":"Nearby Didveli Funicular Railway,Village Bakuriani,Borjomi District,Georgia","phones":"+995367240376","fax":"","email":"info@hotelcrystal.ge","url":"http://hotelcrystal.ge/spa/eng","countryIso2":"GE","countryName":"Georgia","hotelRating":"3","latitude":"41.73","longitude":"43.5307","state_id":906,"state_name":"Samtskhe-Javakheti","country_id":81},{"active":false,"Giataid":"448418","cityId":null,"cityName":"Mestia","hotelId":448418,"hotelName":"Hotel Chubu","address":"","phones":"","fax":"","email":"","url":"","countryIso2":"GE","countryName":"Georgia","hotelRating":"1","latitude":"43.0426","longitude":"42.7168","state_id":null,"state_name":null,"country_id":null},{"active":false,"Giataid":"448423","cityId":52126,"cityName":"Tbilisi","hotelId":448423,"hotelName":"Vake","address":"104 Titsian Tabidze Street","phones":"","fax":"","email":"","url":"","countryIso2":"GE","countryName":"Georgia","hotelRating":"3","latitude":"41.7074","longitude":"44.7553","state_id":899,"state_name":"Tbilisi","country_id":81},{"active":false,"Giataid":"448514","cityId":52126,"cityName":"Tbilisi","hotelId":448514,"hotelName":"Leader Inn","address":"Varketili Javakheti Street 1,0163 Tbilisi,Georgia","phones":"","fax":"","email":"","url":"","countryIso2":"GE","countryName":"Georgia","hotelRating":"1","latitude":"41.6943","longitude":"44.8724","state_id":899,"state_name":"Tbilisi","country_id":81},{"active":false,"Giataid":"448527","cityId":52053,"cityName":"Batumi","hotelId":448527,"hotelName":"Albatros","address":"Nikoloz Baratashvili street 43","phones":"","fax":"","email":"","url":"","countryIso2":"GE","countryName":"Georgia","hotelRating":"2","latitude":"41.648","longitude":"41.638","state_id":900,"state_name":"Adjara","country_id":81},{"active":false,"Giataid":"448528","cityId":52053,"cityName":"Batumi","hotelId":448528,"hotelName":"Dolphin Hotel","address":"Zurab Gorgiladze 29,2582 Batumi,Georgia","phones":"","fax":"","email":"","url":"","countryIso2":"GE","countryName":"Georgia","hotelRating":"1","latitude":"41.6469","longitude":"41.6305","state_id":900,"state_name":"Adjara","country_id":81},{"active":false,"Giataid":"448604","cityId":52053,"cityName":"Batumi","hotelId":448604,"hotelName":"Piazza Inn","address":"","phones":"","fax":"","email":"","url":"","countryIso2":"GE","countryName":"Georgia","hotelRating":"3","latitude":"41.6491","longitude":"41.641","state_id":900,"state_name":"Adjara","country_id":81},{"active":false,"Giataid":"448607","cityId":null,"cityName":"Ureki","hotelId":448607,"hotelName":"Villa Ureki","address":"","phones":"","fax":"","email":"","url":"","countryIso2":"GE","countryName":"Georgia","hotelRating":"1","latitude":"41.9955","longitude":"41.7626","state_id":null,"state_name":null,"country_id":null},{"active":false,"Giataid":"448608","cityId":52053,"cityName":"Batumi","hotelId":448608,"hotelName":"Hotel Leon","address":"Tchaikovsky Street 80,6000 Batumi,Ajara,Georgia","phones":"+995593357240","fax":"","email":"hotelleonbatumi@gmail.com","url":"http://leon-ge.book.direct","countryIso2":"GE","countryName":"Georgia","hotelRating":"3","latitude":"41.6378","longitude":"41.6296","state_id":900,"state_name":"Adjara","country_id":81},{"active":false,"Giataid":"448609","cityId":52126,"cityName":"Tbilisi","hotelId":448609,"hotelName":"Aleksandria Hotel","address":"","phones":"","fax":"","email":"","url":"","countryIso2":"GE","countryName":"Georgia","hotelRating":"2","latitude":"41.6963","longitude":"44.8028","state_id":899,"state_name":"Tbilisi","country_id":81},{"active":false,"Giataid":"448611","cityId":52126,"cityName":"Tbilisi","hotelId":448611,"hotelName":"Vip Ele Hotel","address":"","phones":"","fax":"","email":"","url":"","countryIso2":"GE","countryName":"Georgia","hotelRating":"1","latitude":"41.7011","longitude":"44.8019","state_id":899,"state_name":"Tbilisi","country_id":81},{"active":false,"Giataid":"448612","cityId":52126,"cityName":"Tbilisi","hotelId":448612,"hotelName":"New Big Begi Hotel","address":"","phones":"","fax":"","email":"","url":"","countryIso2":"GE","countryName":"Georgia","hotelRating":"1","latitude":"41.6885","longitude":"44.8244","state_id":899,"state_name":"Tbilisi","country_id":81},{"active":false,"Giataid":"448613","cityId":52053,"cityName":"Batumi","hotelId":448613,"hotelName":"Moni Hotel","address":"","phones":"","fax":"","email":"","url":"","countryIso2":"GE","countryName":"Georgia","hotelRating":"1","latitude":"41.6509","longitude":"41.6435","state_id":900,"state_name":"Adjara","country_id":81},{"active":false,"Giataid":"448622","cityId":52126,"cityName":"Tbilisi","hotelId":448622,"hotelName":"Tbilisi Boutique Hotel","address":"","phones":"","fax":"","email":"","url":"","countryIso2":"GE","countryName":"Georgia","hotelRating":"3","latitude":"41.7012","longitude":"44.7875","state_id":899,"state_name":"Tbilisi","country_id":81},{"active":false,"Giataid":"448639","cityId":52126,"cityName":"Tbilisi","hotelId":448639,"hotelName":"Hotel Rich","address":"Richard Holbrooke Street 1,Tbilisi,Georgia","phones":"","fax":"","email":"","url":"","countryIso2":"GE","countryName":"Georgia","hotelRating":"1","latitude":"41.6797","longitude":"44.8378","state_id":899,"state_name":"Tbilisi","country_id":81},{"active":false,"Giataid":"448664","cityId":52126,"cityName":"Tbilisi","hotelId":448664,"hotelName":"Kope Hotel","address":"Agmashenebeli Avenue 52,Chugureti,0102 Tbilisi,Georgia","phones":"","fax":"","email":"","url":"","countryIso2":"GE","countryName":"Georgia","hotelRating":"3","latitude":"41.7059","longitude":"44.7998","state_id":899,"state_name":"Tbilisi","country_id":81},{"active":false,"Giataid":"448680","cityId":52053,"cityName":"Batumi","hotelId":448680,"hotelName":"Hotel Rio","address":"","phones":"","fax":"","email":"","url":"","countryIso2":"GE","countryName":"Georgia","hotelRating":"3","latitude":"41.6481","longitude":"41.6315","state_id":900,"state_name":"Adjara","country_id":81},{"active":false,"Giataid":"448733","cityId":52053,"cityName":"Batumi","hotelId":448733,"hotelName":"Hotel Verona","address":"Noe Zhordania Street 17,6009 Batumi,Georgia","phones":"","fax":"","email":"","url":"","countryIso2":"GE","countryName":"Georgia","hotelRating":"2","latitude":"41.6505","longitude":"41.6409","state_id":900,"state_name":"Adjara","country_id":81},{"active":false,"Giataid":"448751","cityId":52126,"cityName":"Tbilisi","hotelId":448751,"hotelName":"Hotel Tbilisi Garden","address":"Atskuris Street 10,Tbilisi 0144,Georgia","phones":"","fax":"","email":"","url":"","countryIso2":"GE","countryName":"Georgia","hotelRating":"3","latitude":"41.6892","longitude":"44.8358","state_id":899,"state_name":"Tbilisi","country_id":81},{"active":false,"Giataid":"448786","cityId":52126,"cityName":"Tbilisi","hotelId":448786,"hotelName":"Hotel Margi","address":"142 Agmashenebeli ave","phones":"","fax":"","email":"","url":"","countryIso2":"GE","countryName":"Georgia","hotelRating":"3","latitude":"41.7142","longitude":"44.7938","state_id":899,"state_name":"Tbilisi","country_id":81},{"active":false,"Giataid":"448787","cityId":52126,"cityName":"Tbilisi","hotelId":448787,"hotelName":"Chveni Sakhli","address":"","phones":"","fax":"","email":"","url":"","countryIso2":"GE","countryName":"Georgia","hotelRating":"1","latitude":"41.692","longitude":"44.8748","state_id":899,"state_name":"Tbilisi","country_id":81},{"active":false,"Giataid":"448795","cityId":52126,"cityName":"Tbilisi","hotelId":448795,"hotelName":"GS Hotel","address":"","phones":"","fax":"","email":"","url":"","countryIso2":"GE","countryName":"Georgia","hotelRating":"1","latitude":"41.6954","longitude":"44.8175","state_id":899,"state_name":"Tbilisi","country_id":81},{"active":false,"Giataid":"448797","cityId":52126,"cityName":"Tbilisi","hotelId":448797,"hotelName":"Roses Garden Hotel","address":"Davit Agmashenebeli Avenue 79,0102 Tbilisi,Georgia","phones":"","fax":"","email":"","url":"","countryIso2":"GE","countryName":"Georgia","hotelRating":"3","latitude":"41.709","longitude":"44.7993","state_id":899,"state_name":"Tbilisi","country_id":81},{"active":false,"Giataid":"448809","cityId":null,"cityName":"Ureki","hotelId":448809,"hotelName":"Theodora","address":"","phones":"","fax":"","email":"","url":"","countryIso2":"GE","countryName":"Georgia","hotelRating":"1","latitude":"41.9968","longitude":"41.7623","state_id":null,"state_name":null,"country_id":null},{"active":false,"Giataid":"448810","cityId":52126,"cityName":"Tbilisi","hotelId":448810,"hotelName":"Elite Lux Hotel","address":"74 Archil Tsagareli Str.","phones":"","fax":"","email":"","url":"","countryIso2":"GE","countryName":"Georgia","hotelRating":"2","latitude":"41.7235","longitude":"44.7628","state_id":899,"state_name":"Tbilisi","country_id":81},{"active":false,"Giataid":"448811","cityId":52053,"cityName":"Batumi","hotelId":448811,"hotelName":"Paradise Hotel","address":"","phones":"","fax":"","email":"","url":"","countryIso2":"GE","countryName":"Georgia","hotelRating":"3","latitude":"41.6427","longitude":"41.6501","state_id":900,"state_name":"Adjara","country_id":81},{"active":false,"Giataid":"448813","cityId":52072,"cityName":"Gudauri","hotelId":448813,"hotelName":"Ski House Panorama","address":"4702 Gudauri,Georgia","phones":"","fax":"","email":"","url":"","countryIso2":"GE","countryName":"Georgia","hotelRating":"3","latitude":"42.4774","longitude":"44.4746","state_id":902,"state_name":"Mtskheta-Mtianeti","country_id":81},{"active":false,"Giataid":"448900","cityId":52053,"cityName":"Batumi","hotelId":448900,"hotelName":"Hotel Luxor","address":"Akhvlediani Street 15,6000 Batumi,Georgia","phones":"","fax":"","email":"","url":"","countryIso2":"GE","countryName":"Georgia","hotelRating":"1","latitude":"41.6442","longitude":"41.6335","state_id":900,"state_name":"Adjara","country_id":81},{"active":false,"Giataid":"448903","cityId":52126,"cityName":"Tbilisi","hotelId":448903,"hotelName":"7 Baits Hotel","address":"","phones":"","fax":"","email":"","url":"","countryIso2":"GE","countryName":"Georgia","hotelRating":"3","latitude":"41.6895","longitude":"44.8075","state_id":899,"state_name":"Tbilisi","country_id":81},{"active":false,"Giataid":"448905","cityId":null,"cityName":"Ureki","hotelId":448905,"hotelName":"Hotel Temkri","address":"Agmashenebeli Street 100,6000 Ureki,Georgia","phones":"+99537410320210","fax":"+99537410320210","email":"info@iskuhitravel.com","url":"http://www.iskuhitravel.com","countryIso2":"GE","countryName":"Georgia","hotelRating":"2","latitude":"41.9975","longitude":"41.7613","state_id":null,"state_name":null,"country_id":null},{"active":false,"Giataid":"448907","cityId":52126,"cityName":"Tbilisi","hotelId":448907,"hotelName":"Lowell Hotel","address":"","phones":"","fax":"","email":"","url":"","countryIso2":"GE","countryName":"Georgia","hotelRating":"3","latitude":"41.7034","longitude":"44.7869","state_id":899,"state_name":"Tbilisi","country_id":81},{"active":false,"Giataid":"448908","cityId":52085,"cityName":"Kobuleti","hotelId":448908,"hotelName":"Hotel Amigo II","address":"","phones":"","fax":"","email":"","url":"","countryIso2":"GE","countryName":"Georgia","hotelRating":"3","latitude":"41.8341","longitude":"41.779","state_id":900,"state_name":"Adjara","country_id":81},{"active":false,"Giataid":"448916","cityId":52126,"cityName":"Tbilisi","hotelId":448916,"hotelName":"Sofia Hotel","address":"","phones":"","fax":"","email":"","url":"","countryIso2":"GE","countryName":"Georgia","hotelRating":"1","latitude":"41.6984","longitude":"44.8131","state_id":899,"state_name":"Tbilisi","country_id":81},{"active":false,"Giataid":"448947","cityId":52053,"cityName":"Batumi","hotelId":448947,"hotelName":"Hotel Lavro","address":"","phones":"","fax":"","email":"","url":"","countryIso2":"GE","countryName":"Georgia","hotelRating":"1","latitude":"41.6437","longitude":"41.644","state_id":900,"state_name":"Adjara","country_id":81},{"active":false,"Giataid":"448954","cityId":null,"cityName":"Ureki","hotelId":448954,"hotelName":"Hotel Exotica","address":"","phones":"","fax":"","email":"","url":"","countryIso2":"GE","countryName":"Georgia","hotelRating":"3","latitude":"41.9906","longitude":"41.7602","state_id":null,"state_name":null,"country_id":null},{"active":false,"Giataid":"448956","cityId":null,"cityName":"Ureki","hotelId":448956,"hotelName":"Unikala","address":"","phones":"","fax":"","email":"","url":"","countryIso2":"GE","countryName":"Georgia","hotelRating":"3","latitude":"41.9916","longitude":"41.7611","state_id":null,"state_name":null,"country_id":null},{"active":false,"Giataid":"448957","cityId":null,"cityName":"Ureki","hotelId":448957,"hotelName":"Hotel National","address":"","phones":"","fax":"","email":"","url":"","countryIso2":"GE","countryName":"Georgia","hotelRating":"1","latitude":"41.9928","longitude":"41.7605","state_id":null,"state_name":null,"country_id":null},{"active":false,"Giataid":"448971","cityId":52126,"cityName":"Tbilisi","hotelId":448971,"hotelName":"Hotel Delisi","address":"","phones":"","fax":"","email":"","url":"","countryIso2":"GE","countryName":"Georgia","hotelRating":"3","latitude":"41.7291","longitude":"44.7461","state_id":899,"state_name":"Tbilisi","country_id":81},{"active":false,"Giataid":"448992","cityId":52126,"cityName":"Tbilisi","hotelId":448992,"hotelName":"Boutique","address":"","phones":"","fax":"","email":"","url":"","countryIso2":"GE","countryName":"Georgia","hotelRating":"1","latitude":"41.6905","longitude":"44.8122","state_id":899,"state_name":"Tbilisi","country_id":81},{"active":false,"Giataid":"448993","cityId":52126,"cityName":"Tbilisi","hotelId":448993,"hotelName":"White Hart","address":"","phones":"","fax":"","email":"","url":"","countryIso2":"GE","countryName":"Georgia","hotelRating":"2","latitude":"41.6883","longitude":"44.8111","state_id":899,"state_name":"Tbilisi","country_id":81},{"active":false,"Giataid":"449022","cityId":52126,"cityName":"Tbilisi","hotelId":449022,"hotelName":"Eurasia Hotel","address":"","phones":"","fax":"","email":"","url":"","countryIso2":"GE","countryName":"Georgia","hotelRating":"3","latitude":"41.6946","longitude":"44.8688","state_id":899,"state_name":"Tbilisi","country_id":81},{"active":false,"Giataid":"449040","cityId":52126,"cityName":"Tbilisi","hotelId":449040,"hotelName":"Irmeni Hotel","address":"1 Martkopi St.","phones":"","fax":"","email":"","url":"","countryIso2":"GE","countryName":"Georgia","hotelRating":"3","latitude":"41.6933","longitude":"44.8186","state_id":899,"state_name":"Tbilisi","country_id":81},{"active":false,"Giataid":"449041","cityId":52126,"cityName":"Tbilisi","hotelId":449041,"hotelName":"Lions","address":"","phones":"","fax":"","email":"","url":"","countryIso2":"GE","countryName":"Georgia","hotelRating":"2","latitude":"41.6911","longitude":"44.8151","state_id":899,"state_name":"Tbilisi","country_id":81},{"active":false,"Giataid":"449082","cityId":52053,"cityName":"Batumi","hotelId":449082,"hotelName":"Batumi Tennis Club","address":"","phones":"","fax":"","email":"","url":"","countryIso2":"GE","countryName":"Georgia","hotelRating":"1","latitude":"41.6518","longitude":"41.6302","state_id":900,"state_name":"Adjara","country_id":81},{"active":false,"Giataid":"449087","cityId":52053,"cityName":"Batumi","hotelId":449087,"hotelName":"Pharnavaz 2010","address":"","phones":"","fax":"","email":"","url":"","countryIso2":"GE","countryName":"Georgia","hotelRating":"1","latitude":"41.6441","longitude":"41.6263","state_id":900,"state_name":"Adjara","country_id":81},{"active":false,"Giataid":"449143","cityId":52126,"cityName":"Tbilisi","hotelId":449143,"hotelName":"Oriental Hotel","address":"","phones":"","fax":"","email":"","url":"","countryIso2":"GE","countryName":"Georgia","hotelRating":"3","latitude":"41.6937","longitude":"44.8182","state_id":899,"state_name":"Tbilisi","country_id":81},{"active":false,"Giataid":"449146","cityId":52052,"cityName":"Bakuriani","hotelId":449146,"hotelName":"Europe Hotel Bakuriani","address":"","phones":"","fax":"","email":"","url":"","countryIso2":"GE","countryName":"Georgia","hotelRating":"3","latitude":"41.7471","longitude":"43.5318","state_id":906,"state_name":"Samtskhe-Javakheti","country_id":81},{"active":false,"Giataid":"449147","cityId":52072,"cityName":"Gudauri","hotelId":449147,"hotelName":"Edelweiss Hotel","address":"","phones":"","fax":"","email":"","url":"","countryIso2":"GE","countryName":"Georgia","hotelRating":"3","latitude":"42.4774","longitude":"44.4739","state_id":902,"state_name":"Mtskheta-Mtianeti","country_id":81},{"active":false,"Giataid":"449173","cityId":52126,"cityName":"Tbilisi","hotelId":449173,"hotelName":"Tbilisi House","address":"","phones":"","fax":"","email":"","url":"","countryIso2":"GE","countryName":"Georgia","hotelRating":"1","latitude":"41.6944","longitude":"44.8198","state_id":899,"state_name":"Tbilisi","country_id":81},{"active":false,"Giataid":"449226","cityId":52053,"cityName":"Batumi","hotelId":449226,"hotelName":"Hotel Argo","address":"","phones":"","fax":"","email":"","url":"","countryIso2":"GE","countryName":"Georgia","hotelRating":"1","latitude":"41.6462","longitude":"41.6279","state_id":900,"state_name":"Adjara","country_id":81},{"active":false,"Giataid":"449223","cityId":52053,"cityName":"Batumi","hotelId":449223,"hotelName":"Mardi Plaza Hotel","address":"5 Chavchavadze Street","phones":"","fax":"","email":"","url":"","countryIso2":"GE","countryName":"Georgia","hotelRating":"3","latitude":"41.6469","longitude":"41.6435","state_id":900,"state_name":"Adjara","country_id":81},{"active":false,"Giataid":"449224","cityId":52126,"cityName":"Tbilisi","hotelId":449224,"hotelName":"Old City","address":"Mshrali Bridge","phones":"","fax":"","email":"","url":"","countryIso2":"GE","countryName":"Georgia","hotelRating":"1","latitude":"41.7001","longitude":"44.8019","state_id":899,"state_name":"Tbilisi","country_id":81},{"active":false,"Giataid":"449311","cityId":null,"cityName":"Ureki","hotelId":449311,"hotelName":"Argo Hotel","address":"Takhaishvili Street 65,3522 Ureki,Georgia","phones":"","fax":"","email":"","url":"","countryIso2":"GE","countryName":"Georgia","hotelRating":"3","latitude":"41.9975","longitude":"41.7594","state_id":null,"state_name":null,"country_id":null},{"active":false,"Giataid":"449337","cityId":52053,"cityName":"Batumi","hotelId":449337,"hotelName":"Eiffel Hotel","address":"","phones":"","fax":"","email":"","url":"","countryIso2":"GE","countryName":"Georgia","hotelRating":"2","latitude":"41.6442","longitude":"41.6335","state_id":900,"state_name":"Adjara","country_id":81},{"active":false,"Giataid":"449365","cityId":52053,"cityName":"Batumi","hotelId":449365,"hotelName":"Sky-G Hotel","address":"","phones":"","fax":"","email":"","url":"","countryIso2":"GE","countryName":"Georgia","hotelRating":"1","latitude":"41.6426","longitude":"41.6177","state_id":900,"state_name":"Adjara","country_id":81},{"active":false,"Giataid":"449484","cityId":52126,"cityName":"Tbilisi","hotelId":449484,"hotelName":"Barsuna Hotel","address":"","phones":"","fax":"","email":"","url":"","countryIso2":"GE","countryName":"Georgia","hotelRating":"1","latitude":"41.6929","longitude":"44.8069","state_id":899,"state_name":"Tbilisi","country_id":81},{"active":false,"Giataid":"449486","cityId":52137,"cityName":"Tsqaltubo","hotelId":449486,"hotelName":"Tskaltubo Plaza Hotel & Resort","address":"Rustaveli Street 15a,5400 Tskaltubo,Georgia","phones":"+995436222393","fax":"","email":"info@tph.ge","url":"http://www.tskaltuboplaza.ge","countryIso2":"GE","countryName":"Georgia","hotelRating":"4","latitude":"42.327","longitude":"42.6057","state_id":905,"state_name":"Imereti","country_id":81},{"active":false,"Giataid":"449548","cityId":52053,"cityName":"Batumi","hotelId":449548,"hotelName":"Prime Hotel","address":"","phones":"","fax":"","email":"","url":"","countryIso2":"GE","countryName":"Georgia","hotelRating":"1","latitude":"41.6269","longitude":"41.6191","state_id":900,"state_name":"Adjara","country_id":81},{"active":false,"Giataid":"449583","cityId":52126,"cityName":"Tbilisi","hotelId":449583,"hotelName":"Basilon Hotel","address":"","phones":"","fax":"","email":"","url":"","countryIso2":"GE","countryName":"Georgia","hotelRating":"3","latitude":"41.7172","longitude":"44.7822","state_id":899,"state_name":"Tbilisi","country_id":81},{"active":false,"Giataid":"449590","cityId":52053,"cityName":"Batumi","hotelId":449590,"hotelName":"Piazza Four Colours","address":"","phones":"","fax":"","email":"","url":"","countryIso2":"GE","countryName":"Georgia","hotelRating":"4","latitude":"41.6496","longitude":"41.6419","state_id":900,"state_name":"Adjara","country_id":81},{"active":false,"Giataid":"449593","cityId":52126,"cityName":"Tbilisi","hotelId":449593,"hotelName":"Quiet Corner Hotel","address":"","phones":"","fax":"","email":"","url":"","countryIso2":"GE","countryName":"Georgia","hotelRating":"1","latitude":"41.69","longitude":"44.8044","state_id":899,"state_name":"Tbilisi","country_id":81},{"active":false,"Giataid":"449609","cityId":null,"cityName":"Ureki","hotelId":449609,"hotelName":"Imeri Hotel","address":"","phones":"","fax":"","email":"","url":"","countryIso2":"GE","countryName":"Georgia","hotelRating":"1","latitude":"41.997","longitude":"41.764","state_id":null,"state_name":null,"country_id":null},{"active":false,"Giataid":"449682","cityId":52053,"cityName":"Batumi","hotelId":449682,"hotelName":"City Star Hotel","address":"Griboedov Street 21,6000 Batumi,Georgia","phones":"","fax":"","email":"","url":"","countryIso2":"GE","countryName":"Georgia","hotelRating":"3","latitude":"41.6436","longitude":"41.623","state_id":900,"state_name":"Adjara","country_id":81},{"active":false,"Giataid":"449701","cityId":52085,"cityName":"Kobuleti","hotelId":449701,"hotelName":"Tetri Etli","address":"","phones":"","fax":"","email":"","url":"","countryIso2":"GE","countryName":"Georgia","hotelRating":"1","latitude":"41.8529","longitude":"41.7797","state_id":900,"state_name":"Adjara","country_id":81},{"active":false,"Giataid":"449704","cityId":52052,"cityName":"Bakuriani","hotelId":449704,"hotelName":"Bakuriani Resorts Hotel","address":"","phones":"","fax":"","email":"","url":"","countryIso2":"GE","countryName":"Georgia","hotelRating":"1","latitude":"41.7471","longitude":"43.5405","state_id":906,"state_name":"Samtskhe-Javakheti","country_id":81},{"active":false,"Giataid":"449712","cityId":52052,"cityName":"Bakuriani","hotelId":449712,"hotelName":"Hotel King David","address":"Agmashenebeli Street 72,1204  Bakuriani,Samtskhe-Javakheti,Georgia","phones":"+995322952002","fax":"","email":"","url":"","countryIso2":"GE","countryName":"Georgia","hotelRating":"4","latitude":"41.747","longitude":"43.5301","state_id":906,"state_name":"Samtskhe-Javakheti","country_id":81},{"active":false,"Giataid":"449727","cityId":52053,"cityName":"Batumi","hotelId":449727,"hotelName":"Royal Palace Hotel","address":"","phones":"","fax":"","email":"","url":"","countryIso2":"GE","countryName":"Georgia","hotelRating":"3","latitude":"41.6302","longitude":"41.6067","state_id":900,"state_name":"Adjara","country_id":81},{"active":false,"Giataid":"449732","cityId":null,"cityName":"Ureki","hotelId":449732,"hotelName":"Tornado Hotel","address":"","phones":"","fax":"","email":"","url":"","countryIso2":"GE","countryName":"Georgia","hotelRating":"1","latitude":"41.9944","longitude":"41.7616","state_id":null,"state_name":null,"country_id":null},{"active":false,"Giataid":"449741","cityId":52085,"cityName":"Kobuleti","hotelId":449741,"hotelName":"Ponto Hotel","address":"","phones":"","fax":"","email":"","url":"","countryIso2":"GE","countryName":"Georgia","hotelRating":"1","latitude":"41.8447","longitude":"41.7792","state_id":900,"state_name":"Adjara","country_id":81},{"active":false,"Giataid":"449742","cityId":52053,"cityName":"Batumi","hotelId":449742,"hotelName":"Hotel Iliko","address":"","phones":"","fax":"","email":"","url":"","countryIso2":"GE","countryName":"Georgia","hotelRating":"1","latitude":"41.6472","longitude":"41.6406","state_id":900,"state_name":"Adjara","country_id":81},{"active":false,"Giataid":"449752","cityId":null,"cityName":"Ureki","hotelId":449752,"hotelName":"Laguna Hotel","address":"","phones":"","fax":"","email":"","url":"","countryIso2":"GE","countryName":"Georgia","hotelRating":"1","latitude":"42.0012","longitude":"41.7606","state_id":null,"state_name":null,"country_id":null},{"active":false,"Giataid":"449768","cityId":52053,"cityName":"Batumi","hotelId":449768,"hotelName":"M-Palace Hotel","address":"Bagrationi Street 79,6000 Batumi,Georgia","phones":"","fax":"","email":"","url":"","countryIso2":"GE","countryName":"Georgia","hotelRating":"1","latitude":"41.6374","longitude":"41.6434","state_id":900,"state_name":"Adjara","country_id":81},{"active":false,"Giataid":"449793","cityId":52053,"cityName":"Batumi","hotelId":449793,"hotelName":"Boni Hotel","address":"","phones":"","fax":"","email":"","url":"","countryIso2":"GE","countryName":"Georgia","hotelRating":"1","latitude":"41.6438","longitude":"41.6566","state_id":900,"state_name":"Adjara","country_id":81},{"active":false,"Giataid":"449815","cityId":52126,"cityName":"Tbilisi","hotelId":449815,"hotelName":"Tetri Sakhli Hotel","address":"Mitkvari River,Left Side,Tbilisi,Georgia","phones":"","fax":"","email":"","url":"","countryIso2":"GE","countryName":"Georgia","hotelRating":"1","latitude":"41.7409","longitude":"44.7718","state_id":899,"state_name":"Tbilisi","country_id":81},{"active":false,"Giataid":"449842","cityId":52126,"cityName":"Tbilisi","hotelId":449842,"hotelName":"Arena Hotel","address":"University Street 2,0177 Tbilisi,Georgia","phones":"","fax":"","email":"","url":"","countryIso2":"GE","countryName":"Georgia","hotelRating":"1","latitude":"41.718","longitude":"44.744","state_id":899,"state_name":"Tbilisi","country_id":81},{"active":false,"Giataid":"449847","cityId":52126,"cityName":"Tbilisi","hotelId":449847,"hotelName":"Bonus Hotel","address":"","phones":"","fax":"","email":"","url":"","countryIso2":"GE","countryName":"Georgia","hotelRating":"3","latitude":"41.6954","longitude":"44.8142","state_id":899,"state_name":"Tbilisi","country_id":81},{"active":false,"Giataid":"449848","cityId":null,"cityName":"Qwareli","hotelId":449848,"hotelName":"Royal Batoni","address":"","phones":"+995595996611","fax":"","email":"","url":"","countryIso2":"GE","countryName":"Georgia","hotelRating":"1","latitude":"41.9589","longitude":"45.796","state_id":null,"state_name":null,"country_id":null},{"active":false,"Giataid":"449849","cityId":52053,"cityName":"Batumi","hotelId":449849,"hotelName":"Mazairi Hotel","address":"","phones":"","fax":"","email":"","url":"","countryIso2":"GE","countryName":"Georgia","hotelRating":"1","latitude":"41.6442","longitude":"41.6335","state_id":900,"state_name":"Adjara","country_id":81},{"active":false,"Giataid":"449856","cityId":52053,"cityName":"Batumi","hotelId":449856,"hotelName":"Kakhaberi Street Hotel","address":"","phones":"","fax":"","email":"","url":"","countryIso2":"GE","countryName":"Georgia","hotelRating":"1","latitude":"41.6442","longitude":"41.6335","state_id":900,"state_name":"Adjara","country_id":81},{"active":false,"Giataid":"449857","cityId":52086,"cityName":"Kutaisi","hotelId":449857,"hotelName":"Hotel Gora","address":"Debi Ishkhneli Street 22,4600 Kutaisi,Georgia","phones":"","fax":"","email":"","url":"","countryIso2":"GE","countryName":"Georgia","hotelRating":"1","latitude":"42.2731","longitude":"42.6971","state_id":905,"state_name":"Imereti","country_id":81},{"active":false,"Giataid":"449858","cityId":52126,"cityName":"Tbilisi","hotelId":449858,"hotelName":"Hotel Gelens","address":"","phones":"","fax":"","email":"","url":"","countryIso2":"GE","countryName":"Georgia","hotelRating":"3","latitude":"41.7027","longitude":"44.7835","state_id":899,"state_name":"Tbilisi","country_id":81},{"active":false,"Giataid":"449866","cityId":52053,"cityName":"Batumi","hotelId":449866,"hotelName":"Kral Hotel","address":"","phones":"","fax":"","email":"","url":"","countryIso2":"GE","countryName":"Georgia","hotelRating":"1","latitude":"41.6427","longitude":"41.63","state_id":900,"state_name":"Adjara","country_id":81},{"active":false,"Giataid":"449889","cityId":52053,"cityName":"Batumi","hotelId":449889,"hotelName":"The Admiral Hotel","address":"Gogebashvili Street 20,Batumi,Georgia","phones":"","fax":"","email":"","url":"","countryIso2":"GE","countryName":"Georgia","hotelRating":"4","latitude":"41.6498","longitude":"41.6443","state_id":900,"state_name":"Adjara","country_id":81},{"active":false,"Giataid":"449894","cityId":52053,"cityName":"Batumi","hotelId":449894,"hotelName":"Hotel Chveni Sakhli","address":"","phones":"","fax":"","email":"","url":"","countryIso2":"GE","countryName":"Georgia","hotelRating":"1","latitude":"41.6444","longitude":"41.6459","state_id":900,"state_name":"Adjara","country_id":81},{"active":false,"Giataid":"449895","cityId":52126,"cityName":"Tbilisi","hotelId":449895,"hotelName":"Hotel Dalida","address":"","phones":"","fax":"","email":"","url":"","countryIso2":"GE","countryName":"Georgia","hotelRating":"4","latitude":"41.7168","longitude":"44.7672","state_id":899,"state_name":"Tbilisi","country_id":81},{"active":false,"Giataid":"449896","cityId":null,"cityName":"Ureki","hotelId":449896,"hotelName":"Gageta Hotel","address":"","phones":"","fax":"","email":"","url":"","countryIso2":"GE","countryName":"Georgia","hotelRating":"1","latitude":"41.9944","longitude":"41.7616","state_id":null,"state_name":null,"country_id":null},{"active":false,"Giataid":"449923","cityId":52053,"cityName":"Batumi","hotelId":449923,"hotelName":"Old Batumi Hotel","address":"","phones":"","fax":"","email":"","url":"","countryIso2":"GE","countryName":"Georgia","hotelRating":"1","latitude":"41.6506","longitude":"41.6438","state_id":900,"state_name":"Adjara","country_id":81},{"active":false,"Giataid":"449935","cityId":52126,"cityName":"Tbilisi","hotelId":449935,"hotelName":"Hotel Ayla","address":"","phones":"","fax":"","email":"","url":"","countryIso2":"GE","countryName":"Georgia","hotelRating":"1","latitude":"41.7011","longitude":"44.8019","state_id":899,"state_name":"Tbilisi","country_id":81},{"active":false,"Giataid":"449951","cityId":52053,"cityName":"Batumi","hotelId":449951,"hotelName":"Royal Hotel","address":"","phones":"","fax":"","email":"","url":"","countryIso2":"GE","countryName":"Georgia","hotelRating":"3","latitude":"41.6178","longitude":"41.6103","state_id":900,"state_name":"Adjara","country_id":81},{"active":false,"Giataid":"449962","cityId":52126,"cityName":"Tbilisi","hotelId":449962,"hotelName":"Kalasi Hotel","address":"","phones":"","fax":"","email":"","url":"","countryIso2":"GE","countryName":"Georgia","hotelRating":"3","latitude":"41.6932","longitude":"44.8043","state_id":899,"state_name":"Tbilisi","country_id":81},{"active":false,"Giataid":"449972","cityId":52053,"cityName":"Batumi","hotelId":449972,"hotelName":"Light Palace Hotel","address":"Chavchavadze Street 18 /","phones":"","fax":"","email":"","url":"","countryIso2":"GE","countryName":"Georgia","hotelRating":"3","latitude":"41.6469","longitude":"41.6424","state_id":900,"state_name":"Adjara","country_id":81},{"active":false,"Giataid":"449976","cityId":52053,"cityName":"Batumi","hotelId":449976,"hotelName":"Grand Rixoss Palace","address":"Airport Settlement 124,Batumi,Georgia","phones":"","fax":"","email":"","url":"","countryIso2":"GE","countryName":"Georgia","hotelRating":"1","latitude":"41.6215","longitude":"41.6102","state_id":900,"state_name":"Adjara","country_id":81},{"active":false,"Giataid":"449977","cityId":52086,"cityName":"Kutaisi","hotelId":449977,"hotelName":"Hotel NNN","address":"Zviad Gamsakhurdia Street 39a,4600 Kutaisi,Georgia","phones":"","fax":"","email":"","url":"","countryIso2":"GE","countryName":"Georgia","hotelRating":"3","latitude":"42.2557","longitude":"42.664","state_id":905,"state_name":"Imereti","country_id":81},{"active":false,"Giataid":"450040","cityId":52126,"cityName":"Tbilisi","hotelId":450040,"hotelName":"Aphra Hotel","address":"","phones":"","fax":"","email":"","url":"","countryIso2":"GE","countryName":"Georgia","hotelRating":"1","latitude":"41.7627","longitude":"44.8407","state_id":899,"state_name":"Tbilisi","country_id":81},{"active":false,"Giataid":"450041","cityId":52126,"cityName":"Tbilisi","hotelId":450041,"hotelName":"Hotel Tourist Tbilisi","address":"","phones":"","fax":"","email":"","url":"","countryIso2":"GE","countryName":"Georgia","hotelRating":"1","latitude":"41.6933","longitude":"44.8146","state_id":899,"state_name":"Tbilisi","country_id":81},{"active":false,"Giataid":"450042","cityId":52126,"cityName":"Tbilisi","hotelId":450042,"hotelName":"Hotel Sololaki","address":"","phones":"","fax":"","email":"","url":"","countryIso2":"GE","countryName":"Georgia","hotelRating":"1","latitude":"41.6934","longitude":"44.7981","state_id":899,"state_name":"Tbilisi","country_id":81},{"active":false,"Giataid":"450080","cityId":52053,"cityName":"Batumi","hotelId":450080,"hotelName":"Nini Hotel","address":"Bagrationi Street 67,0133 Batumi,Georgia","phones":"","fax":"","email":"","url":"","countryIso2":"GE","countryName":"Georgia","hotelRating":"1","latitude":"41.6375","longitude":"41.645","state_id":900,"state_name":"Adjara","country_id":81},{"active":false,"Giataid":"450120","cityId":52126,"cityName":"Tbilisi","hotelId":450120,"hotelName":"Hotel Vaki","address":"","phones":"","fax":"","email":"","url":"","countryIso2":"GE","countryName":"Georgia","hotelRating":"1","latitude":"41.7272","longitude":"44.7281","state_id":899,"state_name":"Tbilisi","country_id":81},{"active":false,"Giataid":"450122","cityId":52126,"cityName":"Tbilisi","hotelId":450122,"hotelName":"Hotel Batoni","address":"Revaz Mamisashvili Str. 1","phones":"","fax":"","email":"","url":"","countryIso2":"GE","countryName":"Georgia","hotelRating":"1","latitude":"41.6827","longitude":"44.871","state_id":899,"state_name":"Tbilisi","country_id":81},{"active":false,"Giataid":"450141","cityId":52126,"cityName":"Tbilisi","hotelId":450141,"hotelName":"Hotel Kavela","address":"","phones":"","fax":"","email":"","url":"","countryIso2":"GE","countryName":"Georgia","hotelRating":"1","latitude":"41.7011","longitude":"44.8019","state_id":899,"state_name":"Tbilisi","country_id":81},{"active":false,"Giataid":"450155","cityId":52043,"cityName":"Akhaltsikhe","hotelId":450155,"hotelName":"Hotel Shin","address":"","phones":"","fax":"","email":"","url":"","countryIso2":"GE","countryName":"Georgia","hotelRating":"1","latitude":"41.6422","longitude":"42.9948","state_id":906,"state_name":"Samtskhe-Javakheti","country_id":81},{"active":false,"Giataid":"450197","cityId":52043,"cityName":"Akhaltsikhe","hotelId":450197,"hotelName":"Star","address":"","phones":"","fax":"","email":"","url":"","countryIso2":"GE","countryName":"Georgia","hotelRating":"1","latitude":"41.6387","longitude":"42.9927","state_id":906,"state_name":"Samtskhe-Javakheti","country_id":81},{"active":false,"Giataid":"450208","cityId":52126,"cityName":"Tbilisi","hotelId":450208,"hotelName":"Antiques Hotel","address":"Davit Agmashenebeli 124,0102 Tbilisi,Georgia","phones":"","fax":"","email":"","url":"","countryIso2":"GE","countryName":"Georgia","hotelRating":"1","latitude":"41.7122","longitude":"44.7951","state_id":899,"state_name":"Tbilisi","country_id":81},{"active":false,"Giataid":"450210","cityId":52053,"cityName":"Batumi","hotelId":450210,"hotelName":"Beso Hotel","address":"","phones":"","fax":"","email":"","url":"","countryIso2":"GE","countryName":"Georgia","hotelRating":"1","latitude":"41.6442","longitude":"41.6335","state_id":900,"state_name":"Adjara","country_id":81},{"active":false,"Giataid":"450214","cityId":52126,"cityName":"Tbilisi","hotelId":450214,"hotelName":"Old Key Hotel","address":"","phones":"","fax":"","email":"","url":"","countryIso2":"GE","countryName":"Georgia","hotelRating":"1","latitude":"41.7113","longitude":"44.7958","state_id":899,"state_name":"Tbilisi","country_id":81},{"active":false,"Giataid":"450248","cityId":52126,"cityName":"Tbilisi","hotelId":450248,"hotelName":"Hotel Levili","address":"","phones":"","fax":"","email":"","url":"","countryIso2":"GE","countryName":"Georgia","hotelRating":"3","latitude":"41.7206","longitude":"44.776","state_id":899,"state_name":"Tbilisi","country_id":81},{"active":false,"Giataid":"450359","cityId":52057,"cityName":"Borjomi","hotelId":450359,"hotelName":"Villa Likani","address":"Meskheti street 4,1200 Borjomi,Georgia","phones":"+995595222015","fax":"","email":"","url":"","countryIso2":"GE","countryName":"Georgia","hotelRating":"1","latitude":"41.8286","longitude":"43.3593","state_id":906,"state_name":"Samtskhe-Javakheti","country_id":81},{"active":false,"Giataid":"450551","cityId":52137,"cityName":"Tsqaltubo","hotelId":450551,"hotelName":"Imereti Health resort","address":"Tsereteli Street 8,5400 Tskaltubo,Georgia","phones":"","fax":"","email":"","url":"","countryIso2":"GE","countryName":"Georgia","hotelRating":"1","latitude":"42.3298","longitude":"42.5985","state_id":905,"state_name":"Imereti","country_id":81},{"active":false,"Giataid":"450698","cityId":52100,"cityName":"Mtskheta","hotelId":450698,"hotelName":"Hotel Mtskheta Palace","address":"David Agmashenebeli Alley 7a,3301 Mtskheta,Georgia","phones":"","fax":"","email":"","url":"","countryIso2":"GE","countryName":"Georgia","hotelRating":"1","latitude":"41.8369","longitude":"44.7276","state_id":902,"state_name":"Mtskheta-Mtianeti","country_id":81},{"active":false,"Giataid":"450828","cityId":52126,"cityName":"Tbilisi","hotelId":450828,"hotelName":"Kopala Rikhe Hotel","address":"0103 Tbilisi,Europe Square,Rikhe,Georgia","phones":"+995322775580","fax":"","email":"hotel@kopala.ge","url":"http://www.kopala.ge/en/hotels/9-kopala-rikhe","countryIso2":"GE","countryName":"Georgia","hotelRating":"3","latitude":"41.6914","longitude":"44.8121","state_id":899,"state_name":"Tbilisi","country_id":81},{"active":false,"Giataid":"451569","cityId":52086,"cityName":"Kutaisi","hotelId":451569,"hotelName":"Hotel Oldtown","address":"Grishashvili Street 3/4,4600 Kutaisi,Georgia","phones":"+995431251451","fax":"","email":"dzvelikalaki@gmail.com","url":"http://www.oldtown.ge/","countryIso2":"GE","countryName":"Georgia","hotelRating":"3","latitude":"42.2689","longitude":"42.7016","state_id":905,"state_name":"Imereti","country_id":81},{"active":false,"Giataid":"452223","cityId":null,"cityName":"Kvesheti","hotelId":452223,"hotelName":"Kvesheti","address":"Dusheti Region,1815  Kvesheti,Georgia","phones":"","fax":"","email":"","url":"","countryIso2":"GE","countryName":"Georgia","hotelRating":"1","latitude":"42.4275","longitude":"44.5515","state_id":null,"state_name":null,"country_id":null},{"active":false,"Giataid":"452627","cityId":52047,"cityName":"Ambrolauri","hotelId":452627,"hotelName":"Hotel Metekhara","address":"","phones":"","fax":"","email":"","url":"","countryIso2":"GE","countryName":"Georgia","hotelRating":"1","latitude":"42.5167","longitude":"43.1531","state_id":909,"state_name":"Racha-Lechkhumi and Kvemo Svaneti","country_id":81},{"active":false,"Giataid":"452682","cityId":null,"cityName":"Gonio","hotelId":452682,"hotelName":"Apartment in Mgzavrebi Batumi-Gonio Hotel","address":"Gonio 132, 6406 Gonio,Georgia Building 3 . Apt 220,6406 Gonio,Georgia","phones":"","fax":"","email":"","url":"","countryIso2":"GE","countryName":"Georgia","hotelRating":"1","latitude":"41.5574","longitude":"41.5678","state_id":null,"state_name":null,"country_id":null},{"active":false,"Giataid":"452902","cityId":52055,"cityName":"Bolnisi","hotelId":452902,"hotelName":"Hotel Deutsche Muehle Bolnisi","address":"Sioni Street 4,1100 Bolnisi,Georgia","phones":"+995322614750","fax":"+995322602878","email":"service(at)muehle-bolnisi.com","url":"http://www.muehle-bolnisi.com/?page_id=175","countryIso2":"GE","countryName":"Georgia","hotelRating":"3","latitude":"41.4448","longitude":"44.5369","state_id":904,"state_name":"Kvemo Kartli","country_id":81},{"active":false,"Giataid":"453062","cityId":null,"cityName":"Gonio","hotelId":453062,"hotelName":"Sheriff Calder Hotel","address":"","phones":"","fax":"","email":"","url":"","countryIso2":"GE","countryName":"Georgia","hotelRating":"1","latitude":"41.5628","longitude":"41.571","state_id":null,"state_name":null,"country_id":null},{"active":false,"Giataid":"453485","cityId":52137,"cityName":"Tsqaltubo","hotelId":453485,"hotelName":"Hotel Nikala","address":"Tsereteli Avenue 6,Tskaltubo,Georgia","phones":"+995790151502","fax":"","email":"hotelnikala@mail.ru","url":"http://hotelnikala.ge/?lang=en","countryIso2":"GE","countryName":"Georgia","hotelRating":"1","latitude":"42.3307","longitude":"42.5981","state_id":905,"state_name":"Imereti","country_id":81},{"active":false,"Giataid":"453821","cityId":null,"cityName":"Natachtari","hotelId":453821,"hotelName":"Vanilla Sky Georgia","address":"Mtskheta,0176 Nataxtari,Georgia","phones":"+995322428428","fax":"","email":"info@vanillasky.ge","url":"http://vanillasky.ge","countryIso2":"GE","countryName":"Georgia","hotelRating":"3","latitude":"41.9211","longitude":"44.7184","state_id":null,"state_name":null,"country_id":null},{"active":false,"Giataid":"455067","cityId":52093,"cityName":"Makhinjauri","hotelId":455067,"hotelName":"Golden Anchor","address":"Memed Bedia Street 1,6010 Makhinjauri,Batumi,Georgia","phones":"","fax":"","email":"","url":"","countryIso2":"GE","countryName":"Georgia","hotelRating":"1","latitude":"41.672","longitude":"41.6909","state_id":900,"state_name":"Adjara","country_id":81},{"active":false,"Giataid":"455298","cityId":52137,"cityName":"Tsqaltubo","hotelId":455298,"hotelName":"Argo Tsqaltubo","address":"Rustaveli Street 8,5400 Tsqaltubo,Georgia","phones":"","fax":"","email":"","url":"","countryIso2":"GE","countryName":"Georgia","hotelRating":"1","latitude":"42.3203","longitude":"42.6386","state_id":905,"state_name":"Imereti","country_id":81},{"active":false,"Giataid":"455472","cityId":52126,"cityName":"Tbilisi","hotelId":455472,"hotelName":"Artists Residence in Tbilisi","address":"Teleti Street 4,0105 Tbilisi,Georgia","phones":"","fax":"","email":"","url":"","countryIso2":"GE","countryName":"Georgia","hotelRating":"1","latitude":"41.6851","longitude":"44.817","state_id":899,"state_name":"Tbilisi","country_id":81},{"active":false,"Giataid":"461256","cityId":52085,"cityName":"Kobuleti","hotelId":461256,"hotelName":"Hotel Amigo I","address":"Tabidze Kucha 6,6200 Kobuleti,Georgia","phones":"","fax":"","email":"","url":"","countryIso2":"GE","countryName":"Georgia","hotelRating":"1","latitude":"41.834","longitude":"41.7791","state_id":900,"state_name":"Adjara","country_id":81},{"active":false,"Giataid":"461303","cityId":52086,"cityName":"Kutaisi","hotelId":461303,"hotelName":"Diplomati","address":"","phones":"","fax":"","email":"","url":"","countryIso2":"GE","countryName":"Georgia","hotelRating":"1","latitude":"42.263","longitude":"42.6994","state_id":905,"state_name":"Imereti","country_id":81},{"active":false,"Giataid":"461338","cityId":52053,"cityName":"Batumi","hotelId":461338,"hotelName":"Hotel & Cafe Batus","address":"Javakhishvili Kucha 6A,6000 Batumi,Georgia","phones":"","fax":"","email":"","url":"","countryIso2":"GE","countryName":"Georgia","hotelRating":"1","latitude":"41.641","longitude":"41.6198","state_id":900,"state_name":"Adjara","country_id":81},{"active":false,"Giataid":"461437","cityId":null,"cityName":"Kwariati","hotelId":461437,"hotelName":"Hotel Neptun","address":"Andrews Avenue 90-E,Batumi,Kvariati,Georgia","phones":"+995593554545","fax":"","email":"info@hotel-neptun.ge","url":"http://hotel-neptun.ge","countryIso2":"GE","countryName":"Georgia","hotelRating":"1","latitude":"41.5488","longitude":"41.564","state_id":null,"state_name":null,"country_id":null},{"active":false,"Giataid":"461445","cityId":null,"cityName":"Kwariati","hotelId":461445,"hotelName":"Green Hotel","address":"","phones":"+995558778485","fax":"","email":"","url":"","countryIso2":"GE","countryName":"Georgia","hotelRating":"1","latitude":"41.5452","longitude":"41.5629","state_id":null,"state_name":null,"country_id":null},{"active":false,"Giataid":"461465","cityId":52086,"cityName":"Kutaisi","hotelId":461465,"hotelName":"Hotel Kutaisi Globus","address":"Solomon Pirveli Street 14,4600 Kutaisi,Georgia","phones":"","fax":"","email":"","url":"","countryIso2":"GE","countryName":"Georgia","hotelRating":"3","latitude":"42.2643","longitude":"42.7132","state_id":905,"state_name":"Imereti","country_id":81},{"active":false,"Giataid":"461469","cityId":null,"cityName":"Gonio","hotelId":461469,"hotelName":"Rio Hotel","address":"Andria Pirveltsodebuli Highway","phones":"","fax":"","email":"","url":"","countryIso2":"GE","countryName":"Georgia","hotelRating":"1","latitude":"41.5571","longitude":"41.567","state_id":null,"state_name":null,"country_id":null},{"active":false,"Giataid":"461506","cityId":null,"cityName":"Shekvetili","hotelId":461506,"hotelName":"Guria Palace Hotel","address":"3500 Shekvetili,Guria,Georgia","phones":"+995551262262","fax":"","email":"contact@guriapalace.ge","url":"http://guriapalace.ge/","countryIso2":"GE","countryName":"Georgia","hotelRating":"1","latitude":"41.9268","longitude":"41.7684","state_id":null,"state_name":null,"country_id":null},{"active":false,"Giataid":"461526","cityId":null,"cityName":"Eniseli","hotelId":461526,"hotelName":"Chateau Eniseli","address":"Eniseli Village,4807 Kvareli,Kakheti Region,Georgia","phones":"","fax":"","email":"","url":"","countryIso2":"GE","countryName":"Georgia","hotelRating":"3","latitude":"42.0017","longitude":"45.6717","state_id":null,"state_name":null,"country_id":null},{"active":false,"Giataid":"461531","cityId":52086,"cityName":"Kutaisi","hotelId":461531,"hotelName":"Aksai Hotel","address":"Lado Asatiani Street 96,4600 Kutaisi,Georgia","phones":"","fax":"","email":"","url":"","countryIso2":"GE","countryName":"Georgia","hotelRating":"1","latitude":"42.2533","longitude":"42.6957","state_id":905,"state_name":"Imereti","country_id":81},{"active":false,"Giataid":"461626","cityId":52126,"cityName":"Tbilisi","hotelId":461626,"hotelName":"Margo Palace","address":"Javakhishvili 12,Elbakidze,0108 Tbilisi,Georgia","phones":"+995322436043","fax":"","email":"info@margopalace.com","url":"http://www.margopalace.com","countryIso2":"GE","countryName":"Georgia","hotelRating":"4","latitude":"41.7067","longitude":"44.791","state_id":899,"state_name":"Tbilisi","country_id":81},{"active":false,"Giataid":"461665","cityId":null,"cityName":"Etseri","hotelId":461665,"hotelName":"Hotel Enguri","address":"Village Potskho,2100 Zugdidi,Georgia","phones":"","fax":"","email":"","url":"","countryIso2":"GE","countryName":"Georgia","hotelRating":"1","latitude":"42.7456","longitude":"42.0383","state_id":null,"state_name":null,"country_id":null},{"active":false,"Giataid":"461658","cityId":null,"cityName":"Shekvetili","hotelId":461658,"hotelName":"Alfa Shekvetili","address":"","phones":"+995597146905","fax":"","email":"","url":"","countryIso2":"GE","countryName":"Georgia","hotelRating":"1","latitude":"41.9265","longitude":"41.7692","state_id":null,"state_name":null,"country_id":null},{"active":false,"Giataid":"461687","cityId":null,"cityName":"Kwariati","hotelId":461687,"hotelName":"Black Sea Hotel","address":"","phones":"","fax":"","email":"","url":"","countryIso2":"GE","countryName":"Georgia","hotelRating":"1","latitude":"41.5477","longitude":"41.5627","state_id":null,"state_name":null,"country_id":null},{"active":false,"Giataid":"461693","cityId":null,"cityName":"Gonio","hotelId":461693,"hotelName":"Polaris Hotel","address":"Matata Mociquli Street 68,6406 Gonio,Georgia","phones":"","fax":"","email":"","url":"","countryIso2":"GE","countryName":"Georgia","hotelRating":"1","latitude":"41.5587","longitude":"41.5689","state_id":null,"state_name":null,"country_id":null},{"active":false,"Giataid":"461695","cityId":52086,"cityName":"Kutaisi","hotelId":461695,"hotelName":"Brothers","address":"Tabidze Street 31,4600 Kutaisi,Georgia","phones":"+995431251093","fax":"","email":"hotelbrothers@mail.ru","url":"http://hotelbrothers.weebly.com/rooms-and-rates.html","countryIso2":"GE","countryName":"Georgia","hotelRating":"1","latitude":"42.2652","longitude":"42.7117","state_id":905,"state_name":"Imereti","country_id":81},{"active":false,"Giataid":"461701","cityId":null,"cityName":"Gonio","hotelId":461701,"hotelName":"Gold Hotel","address":"","phones":"","fax":"","email":"","url":"","countryIso2":"GE","countryName":"Georgia","hotelRating":"1","latitude":"41.5561","longitude":"41.5658","state_id":null,"state_name":null,"country_id":null},{"active":false,"Giataid":"461706","cityId":52100,"cityName":"Mtskheta","hotelId":461706,"hotelName":"Hotel Bagineti","address":"M.Kostava Street 39,3300 Mtskheta,Georgia","phones":"","fax":"","email":"","url":"","countryIso2":"GE","countryName":"Georgia","hotelRating":"1","latitude":"41.8438","longitude":"44.7203","state_id":902,"state_name":"Mtskheta-Mtianeti","country_id":81},{"active":false,"Giataid":"461716","cityId":52043,"cityName":"Akhaltsikhe","hotelId":461716,"hotelName":"3D Hotel","address":"Tamarashvili Street 27,0800 Akhaltsikhe,Georgia","phones":"","fax":"","email":"","url":"","countryIso2":"GE","countryName":"Georgia","hotelRating":"1","latitude":"41.6443","longitude":"42.9841","state_id":906,"state_name":"Samtskhe-Javakheti","country_id":81},{"active":false,"Giataid":"461720","cityId":52085,"cityName":"Kobuleti","hotelId":461720,"hotelName":"Nana","address":"Agmashenebeli Street 606,6400 Kobuleti,Georgia","phones":"","fax":"","email":"","url":"","countryIso2":"GE","countryName":"Georgia","hotelRating":"1","latitude":"41.8524","longitude":"41.7795","state_id":900,"state_name":"Adjara","country_id":81},{"active":false,"Giataid":"461721","cityId":52085,"cityName":"Kobuleti","hotelId":461721,"hotelName":"Cristal GB Hotel","address":"9 April Street 33,6200 Kobuleti,Georgia","phones":"+995426261010","fax":"","email":"manager@cristalgbhotel.ge","url":"http://www.cristalgbhotel.ge/en/?action=about","countryIso2":"GE","countryName":"Georgia","hotelRating":"1","latitude":"41.8464","longitude":"41.7773","state_id":900,"state_name":"Adjara","country_id":81},{"active":false,"Giataid":"461730","cityId":52085,"cityName":"Kobuleti","hotelId":461730,"hotelName":"Nugo Hotel","address":"","phones":"","fax":"","email":"","url":"","countryIso2":"GE","countryName":"Georgia","hotelRating":"1","latitude":"41.8373","longitude":"41.7795","state_id":900,"state_name":"Adjara","country_id":81},{"active":false,"Giataid":"461737","cityId":52053,"cityName":"Batumi","hotelId":461737,"hotelName":"Hotel Old Town","address":"","phones":"","fax":"","email":"","url":"","countryIso2":"GE","countryName":"Georgia","hotelRating":"3","latitude":"41.6499","longitude":"41.6429","state_id":900,"state_name":"Adjara","country_id":81},{"active":false,"Giataid":"461750","cityId":52085,"cityName":"Kobuleti","hotelId":461750,"hotelName":"Sunrise Hotel","address":"","phones":"","fax":"","email":"","url":"","countryIso2":"GE","countryName":"Georgia","hotelRating":"1","latitude":"41.839","longitude":"41.7782","state_id":900,"state_name":"Adjara","country_id":81},{"active":false,"Giataid":"461751","cityId":52086,"cityName":"Kutaisi","hotelId":461751,"hotelName":"Lux Palace Hotel","address":"Gugunava street 20,4600 Kutaisi,Georgia","phones":"+995431292460","fax":"","email":"luxpalace@mail.ru","url":"http://luxpalace.ge/?lang=en","countryIso2":"GE","countryName":"Georgia","hotelRating":"4","latitude":"42.2537","longitude":"42.6651","state_id":905,"state_name":"Imereti","country_id":81},{"active":false,"Giataid":"461755","cityId":52086,"cityName":"Kutaisi","hotelId":461755,"hotelName":"Continental Hotel","address":"Bukhaidze Street 63 A,4600 Kutaisi,Georgia","phones":"","fax":"","email":"","url":"http://hotel-continental.ge/","countryIso2":"GE","countryName":"Georgia","hotelRating":"1","latitude":"42.2638","longitude":"42.6715","state_id":905,"state_name":"Imereti","country_id":81},{"active":false,"Giataid":"461766","cityId":null,"cityName":"Shekvetili","hotelId":461766,"hotelName":"Iberia","address":"","phones":"","fax":"","email":"","url":"","countryIso2":"GE","countryName":"Georgia","hotelRating":"1","latitude":"41.9374","longitude":"41.7662","state_id":null,"state_name":null,"country_id":null},{"active":false,"Giataid":"461853","cityId":52086,"cityName":"Kutaisi","hotelId":461853,"hotelName":"Discovery Hotel","address":"","phones":"","fax":"","email":"","url":"","countryIso2":"GE","countryName":"Georgia","hotelRating":"3","latitude":"42.2735","longitude":"42.7074","state_id":905,"state_name":"Imereti","country_id":81},{"active":false,"Giataid":"461859","cityId":52057,"cityName":"Borjomi","hotelId":461859,"hotelName":"Hotel Natali","address":"Ruben Vepkhvadze Street 20,Likani,1200 Borjomi,Georgia","phones":"+995597706613","fax":"","email":"hotelnatali1@gmail.com","url":"http://hotelnatali.ge/indexEN.html","countryIso2":"GE","countryName":"Georgia","hotelRating":"4","latitude":"41.829","longitude":"43.3597","state_id":906,"state_name":"Samtskhe-Javakheti","country_id":81},{"active":false,"Giataid":"461946","cityId":52100,"cityName":"Mtskheta","hotelId":461946,"hotelName":"Old Capital","address":"","phones":"","fax":"","email":"","url":"","countryIso2":"GE","countryName":"Georgia","hotelRating":"1","latitude":"41.8431","longitude":"44.72","state_id":902,"state_name":"Mtskheta-Mtianeti","country_id":81},{"active":false,"Giataid":"462073","cityId":null,"cityName":"Qwareli","hotelId":462073,"hotelName":"Shaloshvili's Cellar Hotel","address":"Village Silda,4800 Kvareli,Georgia","phones":"+995577409041","fax":"","email":"info@shcellar.ge","url":"http://www.shcellar.ge/en","countryIso2":"GE","countryName":"Georgia","hotelRating":"3","latitude":"41.9491","longitude":"45.8169","state_id":null,"state_name":null,"country_id":null},{"active":false,"Giataid":"462074","cityId":52053,"cityName":"Batumi","hotelId":462074,"hotelName":"G-Bakuri Hotel","address":"","phones":"","fax":"","email":"","url":"","countryIso2":"GE","countryName":"Georgia","hotelRating":"1","latitude":"41.6498","longitude":"41.6372","state_id":900,"state_name":"Adjara","country_id":81},{"active":false,"Giataid":"462077","cityId":52127,"cityName":"Telavi","hotelId":462077,"hotelName":"Hotel Sweet Home","address":"Maisi Street 26, 35,2200 Telavi,Georgia","phones":"","fax":"","email":"","url":"","countryIso2":"GE","countryName":"Georgia","hotelRating":"1","latitude":"41.9223","longitude":"45.4484","state_id":910,"state_name":"Kakheti","country_id":81},{"active":false,"Giataid":"462119","cityId":52053,"cityName":"Batumi","hotelId":462119,"hotelName":"L Bakuri Hotel","address":"","phones":"","fax":"","email":"","url":"","countryIso2":"GE","countryName":"Georgia","hotelRating":"1","latitude":"41.6446","longitude":"41.6369","state_id":900,"state_name":"Adjara","country_id":81},{"active":false,"Giataid":"462126","cityId":52126,"cityName":"Tbilisi","hotelId":462126,"hotelName":"PM Palace","address":"","phones":"","fax":"","email":"","url":"","countryIso2":"GE","countryName":"Georgia","hotelRating":"1","latitude":"41.7011","longitude":"44.8019","state_id":899,"state_name":"Tbilisi","country_id":81},{"active":false,"Giataid":"462148","cityId":52057,"cityName":"Borjomi","hotelId":462148,"hotelName":"Alma-Ata Hotel","address":"","phones":"","fax":"","email":"","url":"","countryIso2":"GE","countryName":"Georgia","hotelRating":"1","latitude":"41.8387","longitude":"43.3871","state_id":906,"state_name":"Samtskhe-Javakheti","country_id":81},{"active":false,"Giataid":"462231","cityId":52053,"cityName":"Batumi","hotelId":462231,"hotelName":"Porto Franco","address":"","phones":"","fax":"","email":"","url":"","countryIso2":"GE","countryName":"Georgia","hotelRating":"1","latitude":"41.6436","longitude":"41.6397","state_id":900,"state_name":"Adjara","country_id":81},{"active":false,"Giataid":"462233","cityId":52043,"cityName":"Akhaltsikhe","hotelId":462233,"hotelName":"Rio","address":"Akhalkalaki Street 1,0800 Akhaltsikhe,Georgia","phones":"","fax":"","email":"","url":"","countryIso2":"GE","countryName":"Georgia","hotelRating":"1","latitude":"41.6446","longitude":"43.0045","state_id":906,"state_name":"Samtskhe-Javakheti","country_id":81},{"active":false,"Giataid":"462235","cityId":null,"cityName":"Kwariati","hotelId":462235,"hotelName":"Cameo Hotel","address":"Andria Pirveltsodebuli Street 101,6010 Kvariati,Georgia","phones":"+99511920","fax":"","email":"infohotelcameo@gmail.com","url":"http://www.hotelcameo.ge/geo/index.php?lang=en","countryIso2":"GE","countryName":"Georgia","hotelRating":"1","latitude":"41.5508","longitude":"41.5646","state_id":null,"state_name":null,"country_id":null},{"active":false,"Giataid":"462246","cityId":52127,"cityName":"Telavi","hotelId":462246,"hotelName":"Zuzumbo Hotel","address":"5A Qartuli Universitetis,Telavi,Georgia","phones":"+995591110106","fax":"","email":"hotelzuzumbo@gmail.com","url":"http://hotelzuzumbo.com","countryIso2":"GE","countryName":"Georgia","hotelRating":"1","latitude":"41.9141","longitude":"45.458","state_id":910,"state_name":"Kakheti","country_id":81},{"active":false,"Giataid":"462291","cityId":null,"cityName":"Qwareli","hotelId":462291,"hotelName":"Kvareli Lake Resort","address":"Kvareli Lake,4800 Kvareli,Georgia","phones":"","fax":"","email":"welcome@kvarelilakeresort.ge","url":"http://www.kvarelilakeresort.ge/site.swf","countryIso2":"GE","countryName":"Georgia","hotelRating":"1","latitude":"41.919","longitude":"45.8798","state_id":null,"state_name":null,"country_id":null},