[{"active":false,"Giataid":"426989","cityId":null,"cityName":"Nouakchott","hotelId":426989,"hotelName":"Residence Iman Apparts-Hotel","address":"Avenue El Quods,En Face De l'ambassade Des Usa,Nouakchott,Mauritanie,Mauritania","phones":"","fax":"","email":"","url":"","countryIso2":"MR","countryName":"Mauritania","hotelRating":"1","latitude":"18.087","longitude":"-15.9784","state_id":null,"state_name":null,"country_id":null},{"active":false,"Giataid":"458687","cityId":67753,"cityName":"Rosso","hotelId":458687,"hotelName":"Hotel Mauritour","address":"Lot 78 Medina1,Rosso,Nouakchott,Mauritania","phones":"","fax":"","email":"","url":"","countryIso2":"MR","countryName":"Mauritania","hotelRating":"1","latitude":"16.5123","longitude":"-15.8049","state_id":3348,"state_name":"Trarza Region","country_id":139},{"active":false,"Giataid":"459280","cityId":null,"cityName":"Nouakchott","hotelId":459280,"hotelName":"Hotel Appartement Raha","address":"Avenue Moktar Ould Daddah,Nouakchott,Mauritania","phones":"","fax":"","email":"","url":"","countryIso2":"MR","countryName":"Mauritania","hotelRating":"1","latitude":"18.087","longitude":"-15.9784","state_id":null,"state_name":null,"country_id":null},{"active":false,"Giataid":"471549","cityId":null,"cityName":"Nouakchott","hotelId":471549,"hotelName":"Holiday Hotel","address":"1 Extension Ilot D,En Face De I'Autorite De Regulation,Nouakchott,Mauritania","phones":"","fax":"","email":"","url":"","countryIso2":"MR","countryName":"Mauritania","hotelRating":"3","latitude":"18.0919","longitude":"-15.9661","state_id":null,"state_name":null,"country_id":null},{"active":false,"Giataid":"474133","cityId":67750,"cityName":"Kiffa","hotelId":474133,"hotelName":"Auberge Le Phare du Desert","address":"","phones":"","fax":"","email":"","url":"","countryIso2":"MR","countryName":"Mauritania","hotelRating":"1","latitude":"16.6247","longitude":"-11.3993","state_id":3349,"state_name":"Assaba Region","country_id":139},{"active":false,"Giataid":"474936","cityId":67751,"cityName":"Nouadhibou","hotelId":474936,"hotelName":"Hotel Aljazira","address":"556 Boulevard Maritime,Nouadhibou,Mauritanie,Mauritania","phones":"","fax":"","email":"","url":"","countryIso2":"MR","countryName":"Mauritania","hotelRating":"1","latitude":"20.9179","longitude":"-17.0442","state_id":3346,"state_name":"Dakhlet Nouadhibou","country_id":139},{"active":false,"Giataid":"497985","cityId":null,"cityName":"Nouakchott","hotelId":497985,"hotelName":"Hotel Wissal","address":"Rue De L'Ambassade Du Senegal,Nouakchott,Mauritania","phones":"","fax":"","email":"","url":"","countryIso2":"MR","countryName":"Mauritania","hotelRating":"4","latitude":"18.1023","longitude":"-15.9737","state_id":null,"state_name":null,"country_id":null},{"active":false,"Giataid":"623483","cityId":67751,"cityName":"Nouadhibou","hotelId":623483,"hotelName":"Apparts Hotel Esma","address":"Quartier Dubai ilot 327,Nouadhibou,Mauritania","phones":"","fax":"","email":"","url":"","countryIso2":"MR","countryName":"Mauritania","hotelRating":"1","latitude":"20.9333","longitude":"-17.0381","state_id":3346,"state_name":"Dakhlet Nouadhibou","country_id":139},{"active":false,"Giataid":"623496","cityId":67751,"cityName":"Nouadhibou","hotelId":623496,"hotelName":"Hotel Sahel","address":"Boulevard Maritime,Nouadhibou,Mauritania","phones":"+22245743857","fax":"","email":"reservation@hotel-shael.com","url":"http://www.hotel-sahel.com/","countryIso2":"MR","countryName":"Mauritania","hotelRating":"1","latitude":"20.9224","longitude":"-17.042","state_id":3346,"state_name":"Dakhlet Nouadhibou","country_id":139},{"active":false,"Giataid":"798012","cityId":67751,"cityName":"Nouadhibou","hotelId":798012,"hotelName":"Hotel Tasiast","address":"Boulevard Maritime J25,BP 4350,Nouadhibou,Mauritania","phones":"+22245745107","fax":"+22245745104","email":"hoteltasiast@hoteltasiast.com","url":"http://www.hoteltasiast.com","countryIso2":"MR","countryName":"Mauritania","hotelRating":"1","latitude":"20.9333","longitude":"-17.0381","state_id":3346,"state_name":"Dakhlet Nouadhibou","country_id":139},{"active":false,"Giataid":"798188","cityId":null,"cityName":"Nouakchott","hotelId":798188,"hotelName":"Nouakchott Business Hotel","address":"149 Tevrag Zegna,Nouakchott,Mauritania","phones":"","fax":"","email":"","url":"","countryIso2":"MR","countryName":"Mauritania","hotelRating":"1","latitude":"18.087","longitude":"-15.9784","state_id":null,"state_name":null,"country_id":null},{"active":false,"Giataid":"798408","cityId":null,"cityName":"Nouakchott","hotelId":798408,"hotelName":"Selsebil Apparthotel","address":"Nouakchott Soukouk,Nouakchott,Mauritania","phones":"","fax":"","email":"","url":"","countryIso2":"MR","countryName":"Mauritania","hotelRating":"1","latitude":"18.087","longitude":"-15.9784","state_id":null,"state_name":null,"country_id":null},{"active":false,"Giataid":"798701","cityId":67751,"cityName":"Nouadhibou","hotelId":798701,"hotelName":"Centre de Peche Sportive et de Loisirs","address":"Cabano 4,Nouadhibou,Mauritania","phones":"","fax":"","email":"","url":"","countryIso2":"MR","countryName":"Mauritania","hotelRating":"1","latitude":"20.9333","longitude":"-17.0381","state_id":3346,"state_name":"Dakhlet Nouadhibou","country_id":139},{"active":false,"Giataid":"798929","cityId":null,"cityName":"Nouakchott","hotelId":798929,"hotelName":"Hotel Dune","address":"Najah 13,Nouakchott Sud,Nouakchott,Mauritania","phones":"","fax":"","email":"","url":"","countryIso2":"MR","countryName":"Mauritania","hotelRating":"1","latitude":"18.087","longitude":"-15.9784","state_id":null,"state_name":null,"country_id":null},{"active":false,"Giataid":"800101","cityId":null,"cityName":"Nouakchott","hotelId":800101,"hotelName":"Hotel Elkheir","address":"543 Avenue Sheikh Zayed,Nouakchott,Mauritania","phones":"","fax":"","email":"","url":"","countryIso2":"MR","countryName":"Mauritania","hotelRating":"1","latitude":"18.087","longitude":"-15.9784","state_id":null,"state_name":null,"country_id":null},{"active":false,"Giataid":"810295","cityId":null,"cityName":"Nouakchott","hotelId":810295,"hotelName":"Casablu Hotel","address":"Near European Union,Nouakchott,Mauritania","phones":"","fax":"","email":"","url":"","countryIso2":"MR","countryName":"Mauritania","hotelRating":"1","latitude":"18.087","longitude":"-15.9784","state_id":null,"state_name":null,"country_id":null},{"active":false,"Giataid":"814211","cityId":null,"cityName":"Nouakchott","hotelId":814211,"hotelName":"Nouakchott Hotel","address":"Avenue Moctar Ould Daddah Block 1,Olympic Stadium of Nouakchott,Facing the Congress Palace,Nouakchott,Mauritania","phones":"+22225000030","fax":"","email":"reservation@nouakchotthotel.com","url":"http://nouakchotthotel.com","countryIso2":"MR","countryName":"Mauritania","hotelRating":"1","latitude":"18.1075","longitude":"-15.9863","state_id":null,"state_name":null,"country_id":null},{"active":false,"Giataid":"458847","cityId":null,"cityName":"Nouakchott","hotelId":10106404,"hotelName":"Royal Suites Hotel","address":"Avenue Abdel Nasser,Nouakchott,Mauritania","phones":"NULL","fax":"NULL","email":"NULL","url":"NULL","countryIso2":"MR","countryName":"Mauritania","hotelRating":"4","latitude":"18.086","longitude":"-15.9849","state_id":null,"state_name":null,"country_id":null},{"active":false,"Giataid":"529901","cityId":null,"cityName":"Nouakchott","hotelId":10122455,"hotelName":"Hotel Atlantic","address":"Rue Ambassade du Senegal,Tevragh zeina,Lot 176  Nouakchott,Mauritania","phones":"+22245250004","fax":"NULL","email":"NULL","url":"NULL","countryIso2":"MR","countryName":"Mauritania","hotelRating":"3","latitude":"18.1037","longitude":"-15.982","state_id":null,"state_name":null,"country_id":null},{"active":false,"Giataid":"550897","cityId":null,"cityName":"Nouakchott","hotelId":20012056,"hotelName":"Azalai Marhaba Hotel","address":"Avenue Gamal Abdel Nasser,Nouakchott,Mauritania","phones":"+22245295051","fax":"+22245295055","email":"info@azalaihotels.com","url":"http://www.azalaihotels.com/ezalai-hotel-marhaba","countryIso2":"MR","countryName":"Mauritania","hotelRating":"4","latitude":"18.0873","longitude":"-15.9732","state_id":null,"state_name":null,"country_id":null},{"active":false,"Giataid":"551116","cityId":null,"cityName":"Nouakchott","hotelId":20012199,"hotelName":"Hotel Tfeila","address":"Charles De Gaulle Avenue,BP 40157,Nouakchott,Mauritania","phones":"+22245257400","fax":"+22245257429","email":"info@hotelteflia.com","url":"http://www.hoteltfeila.com/en","countryIso2":"MR","countryName":"Mauritania","hotelRating":"4","latitude":"18.1007","longitude":"-15.9754","state_id":null,"state_name":null,"country_id":null},{"active":false,"Giataid":"458166","cityId":null,"cityName":"Nouakchott","hotelId":20012353,"hotelName":"Al Khaima City Center","address":"10 Rue Mamadou Konat?,BP 5219,Nouakchott,Mauritania","phones":"+22245242222","fax":"","email":"hotel@alkhaimacitycenter.com","url":"http://www.alkhaimacitycenter.com/","countryIso2":"MR","countryName":"Mauritania","hotelRating":"5","latitude":"18.0892","longitude":"-15.9767","state_id":null,"state_name":null,"country_id":null},{"active":false,"Giataid":"457743","cityId":null,"cityName":"Nouakchott","hotelId":20012473,"hotelName":"MauriCenter Hotel","address":"Avenue Moctar Ould Daddah Rond Point Cite Smar,BP 3469,Nouakchott,Mauritania","phones":"+22245298001","fax":"+22245298003","email":"info@hotelmauricenter.com","url":"http://hotelmauricenter.com/","countryIso2":"MR","countryName":"Mauritania","hotelRating":"4","latitude":"18.1077","longitude":"-15.9731","state_id":null,"state_name":null,"country_id":null},{"active":false,"Giataid":"678814","cityId":null,"cityName":"Nouakchott","hotelId":20012761,"hotelName":"Hotel El Amane","address":"Avenue Gamal Abdel Nasser,Nouakchott 1147,Mauritania","phones":"+22245252178","fax":"+22245257043","email":"Contact@hotel-el-amane.com","url":"http://www.hotel-el-amane.com","countryIso2":"MR","countryName":"Mauritania","hotelRating":"0","latitude":"18.087","longitude":"-15.9784","state_id":null,"state_name":null,"country_id":null},{"active":false,"Giataid":"686904","cityId":null,"cityName":"Nouakchott","hotelId":20012988,"hotelName":"Inimich","address":"Tevragh Zeina Centre Emetteur,Nouakchott,Mauritania,Mauritania","phones":"","fax":"","email":"","url":"","countryIso2":"MR","countryName":"Mauritania","hotelRating":"0","latitude":"18.087","longitude":"-15.9784","state_id":null,"state_name":null,"country_id":null},{"active":false,"Giataid":"457828","cityId":null,"cityName":"Nouakchott","hotelId":20013138,"hotelName":"Hotel Monotel Dar El Barka","address":"Route Des Ambassades,Zones Des Ambassades,Nouakchott,Mauritania","phones":"+22245242333","fax":"","email":"contact@monotel-mr.com","url":"https://www.monotel-mr.com","countryIso2":"MR","countryName":"Mauritania","hotelRating":"4","latitude":"18.0976","longitude":"-15.9837","state_id":null,"state_name":null,"country_id":null},{"active":false,"Giataid":"623468","cityId":null,"cityName":"Nouakchott","hotelId":20013266,"hotelName":"Hotel Mouna","address":"Av General Desgaules, Tevrag Zeina,Nouakchott,Mauritania","phones":"","fax":"","email":"","url":"","countryIso2":"MR","countryName":"Mauritania","hotelRating":"0","latitude":"18.1047","longitude":"-15.9749","state_id":null,"state_name":null,"country_id":null},{"active":false,"Giataid":"283564","cityId":null,"cityName":"Nouakchott","hotelId":20013341,"hotelName":"Decapolis Marhaba","address":"160 Avenue Gamal Abdel Nasser,Nouakchott,Mauritania","phones":"","fax":"","email":"","url":"","countryIso2":"MR","countryName":"Mauritania","hotelRating":"0","latitude":"18.087","longitude":"-15.9735","state_id":null,"state_name":null,"country_id":null},{"active":false,"Giataid":"550623","cityId":null,"cityName":"Nouakchott","hotelId":20013437,"hotelName":"Semiramis Hotel","address":"Ilot O 18,Zone des ambassades,4350 Nouakchott,Mauritania","phones":"+22245240038","fax":"","email":"info@hotelsemiramis-mr.com","url":"http://www.hotelsemiramis-mr.com/","countryIso2":"MR","countryName":"Mauritania","hotelRating":"4","latitude":"18.0944","longitude":"-15.9789","state_id":null,"state_name":null,"country_id":null},{"active":false,"Giataid":"623463","cityId":null,"cityName":"Nouakchott","hotelId":20013697,"hotelName":"Residence Aghayla","address":"Rue 43027/43040 Martyr Yasser Arafat,BP: 2072,Nouakchott,Mauritania","phones":"+22245292526","fax":"","email":"","url":"https://aghayla.com/","countryIso2":"MR","countryName":"Mauritania","hotelRating":"0","latitude":"18.087","longitude":"-15.9784","state_id":null,"state_name":null,"country_id":null},{"active":false,"Giataid":"546781","cityId":null,"cityName":"Nouakchott","hotelId":20013822,"hotelName":"Istanbul Hotel","address":"Rue de l Ambassade du Senegal,Quartier Tevragh Zeinah,Nouakchott,Mauritania","phones":"","fax":"","email":"","url":"","countryIso2":"MR","countryName":"Mauritania","hotelRating":"3","latitude":"18.1028","longitude":"-15.9864","state_id":null,"state_name":null,"country_id":null},{"active":false,"Giataid":"936672","cityId":null,"cityName":"Nouakchott","hotelId":20351243,"hotelName":"Zahra Appart Hotel","address":"Rue Mamadou Konate Lot A 629,Tevragh Zeina,BP 40101,Nouakchott,Mauritania","phones":"","fax":"","email":"","url":"","countryIso2":"MR","countryName":"Mauritania","hotelRating":"0","latitude":"18.087","longitude":"-15.9784","state_id":null,"state_name":null,"country_id":null},{"active":false,"Giataid":"936656","cityId":67751,"cityName":"Nouadhibou","hotelId":20351244,"hotelName":"El Medina","address":"Zone Dubai Lot 72,Ext. P5,BP 4350,Nouadhibou,Mauritania","phones":"","fax":"","email":"","url":"","countryIso2":"MR","countryName":"Mauritania","hotelRating":"0","latitude":"20.9333","longitude":"-17.0381","state_id":3346,"state_name":"Dakhlet Nouadhibou","country_id":139},{"active":false,"Giataid":"936713","cityId":null,"cityName":"Nouakchott","hotelId":20351245,"hotelName":"Auberge Samiraa","address":"Route Nouadhibou,Nouakchott,Mauritania","phones":"+22241718242","fax":"","email":"","url":"http://aubergesamiraa.com","countryIso2":"MR","countryName":"Mauritania","hotelRating":"0","latitude":"18.087","longitude":"-15.9784","state_id":null,"state_name":null,"country_id":null},{"active":false,"Giataid":"856493","cityId":null,"cityName":"Nouakchott","hotelId":20351247,"hotelName":"Residence Jihane","address":"Route De Nouadhibou,Centre Emetteur,Nouakchott,Mauritania","phones":"","fax":"","email":"","url":"","countryIso2":"MR","countryName":"Mauritania","hotelRating":"0","latitude":"18.087","longitude":"-15.9784","state_id":null,"state_name":null,"country_id":null},{"active":false,"Giataid":"866131","cityId":null,"cityName":"Nouakchott","hotelId":20351248,"hotelName":"Le k","address":"Bo?te postale 05,Ilot K 504,South-West Corner,French Embassy,Nouakchott,Mauritania","phones":"+22247815595","fax":"","email":"le.k.nktt@gmail.com","url":"","countryIso2":"MR","countryName":"Mauritania","hotelRating":"0","latitude":"18.087","longitude":"-15.9784","state_id":null,"state_name":null,"country_id":null},{"active":false,"Giataid":"936693","cityId":null,"cityName":"Nouakchott","hotelId":20351249,"hotelName":"Palm Grove Oasis","address":"Bustan Malik Toujounine,Nouakchott,Mauritania","phones":"","fax":"","email":"","url":"","countryIso2":"MR","countryName":"Mauritania","hotelRating":"0","latitude":"18.087","longitude":"-15.9784","state_id":null,"state_name":null,"country_id":null},{"active":false,"Giataid":"936703","cityId":null,"cityName":"Nouakchott","hotelId":20351251,"hotelName":"Hotel Le Diplomate","address":"Zra 563,Tevragh Zeina,Nouakchott,Mauritania","phones":"","fax":"","email":"","url":"","countryIso2":"MR","countryName":"Mauritania","hotelRating":"0","latitude":"18.087","longitude":"-15.9784","state_id":null,"state_name":null,"country_id":null},{"active":false,"Giataid":"936687","cityId":null,"cityName":"Nouakchott","hotelId":20351252,"hotelName":"Ziwanya Hotel","address":"ZRB 427,Tevragh Zeina,Au Centre Du Quartier Des Ambassades,a 10mn De l'Aeroport,Nouachoutt,Mauritania","phones":"+22245240164","fax":"+22245291137","email":"","url":"http://www.ziwanya.com","countryIso2":"MR","countryName":"Mauritania","hotelRating":"0","latitude":"18.087","longitude":"-15.9784","state_id":null,"state_name":null,"country_id":null},{"active":false,"Giataid":"936666","cityId":67751,"cityName":"Nouadhibou","hotelId":20351253,"hotelName":"Hotel Prestige","address":"Avenue Boulevard Maritime,BP 551,Nouadhibou,Mauritania","phones":"","fax":"","email":"","url":"","countryIso2":"MR","countryName":"Mauritania","hotelRating":"0","latitude":"20.9333","longitude":"-17.0381","state_id":3346,"state_name":"Dakhlet Nouadhibou","country_id":139},{"active":false,"Giataid":"936726","cityId":null,"cityName":"Nouakchott","hotelId":20351254,"hotelName":"Residence Hammed","address":"488 Tevrag Zeina,Nouakchott,Mauritania","phones":"","fax":"","email":"","url":"","countryIso2":"MR","countryName":"Mauritania","hotelRating":"0","latitude":"18.087","longitude":"-15.9784","state_id":null,"state_name":null,"country_id":null},{"active":false,"Giataid":"956995","cityId":null,"cityName":"Nouakchott","hotelId":20413053,"hotelName":"Hotel Houda","address":"Avenue Kennedy,Centre Ville,Nouakchott,Mauritania","phones":"","fax":"","email":"","url":"","countryIso2":"MR","countryName":"Mauritania","hotelRating":"1","latitude":"18.087","longitude":"-15.9784","state_id":null,"state_name":null,"country_id":null},{"active":false,"Giataid":"958860","cityId":null,"cityName":"Nouakchott","hotelId":20413054,"hotelName":"Hotel Semiramis HMJ","address":"Ilot C,Zrc N0470,4350 Nouakchott,Mauritania","phones":"","fax":"","email":"","url":"","countryIso2":"MR","countryName":"Mauritania","hotelRating":"1","latitude":"18.087","longitude":"-15.9784","state_id":null,"state_name":null,"country_id":null},{"active":false,"Giataid":"1000013","cityId":null,"cityName":"Nouakchott","hotelId":20436768,"hotelName":"Rim Guests","address":"Rue Abdallaye Rond Point De l'ambassade De France,Nouakchott,Mauritania","phones":"","fax":"","email":"","url":"","countryIso2":"MR","countryName":"Mauritania","hotelRating":"1","latitude":"18.087","longitude":"-15.9784","state_id":null,"state_name":null,"country_id":null}]