[{"active":false,"Giataid":"27732","cityId":null,"cityName":"Chobe River","hotelId":27732,"hotelName":"Chobe Game Lodge","address":"Kasane,Chobe River,Chobe National Park,Botswana","phones":"+26727214241037","fax":"+26727214241036","email":"","url":"http://www.chobegamelodge.com","countryIso2":"BW","countryName":"Botswana","hotelRating":"5","latitude":"-17.8408","longitude":"25.0762","state_id":null,"state_name":null,"country_id":null},{"active":false,"Giataid":"27733","cityId":null,"cityName":"Okavango","hotelId":27733,"hotelName":"Sandibe Okavango Safari Lodge","address":"Okavango-Delta,Moremi Wildlife Reserve,Botswana","phones":"+26727118094300","fax":"","email":"talktous@andbeyond.com","url":"http://www.sandibe.com/","countryIso2":"BW","countryName":"Botswana","hotelRating":"4","latitude":"-19.1706","longitude":"23.6192","state_id":null,"state_name":null,"country_id":null},{"active":false,"Giataid":"38910","cityId":null,"cityName":"Chief's Island","hotelId":38910,"hotelName":"Mombo Camp ","address":"Okavango Delta,Botswana,Botswana","phones":"","fax":"","email":"info@africaodyssey.com","url":"http://www.mombo.co.uk/mombo-camp.aspx","countryIso2":"BW","countryName":"Botswana","hotelRating":"5","latitude":"-19.2268","longitude":"22.7774","state_id":null,"state_name":null,"country_id":null},{"active":false,"Giataid":"38912","cityId":null,"cityName":"Okavango","hotelId":38912,"hotelName":"Vumbura Plains Camp","address":"Okavango Delta,Botswana","phones":"+26727118071800","fax":"","email":"enquiry@wilderness.co.za","url":"http://www.wilderness-safaris.com/camps/vumbura-plains","countryIso2":"BW","countryName":"Botswana","hotelRating":"5","latitude":"-18.9785","longitude":"22.8948","state_id":null,"state_name":null,"country_id":null},{"active":false,"Giataid":"38915","cityId":null,"cityName":"Okavango","hotelId":38915,"hotelName":"Kanana Camp","address":"Okavango Delta,Botswana","phones":"+2676860375","fax":"","email":"","url":"","countryIso2":"BW","countryName":"Botswana","hotelRating":"4","latitude":"-19.5672","longitude":"22.8801","state_id":null,"state_name":null,"country_id":null},{"active":false,"Giataid":"38916","cityId":null,"cityName":"Chobe National Park","hotelId":38916,"hotelName":"Elephant Valley Lodge","address":"Kasane Forest Reserve,Chobe Nationalpark,Botswana","phones":"+26727117811661","fax":"+26727117817129","email":"sherryl@africananthology.co.za","url":"http://www.evlodge.com","countryIso2":"BW","countryName":"Botswana","hotelRating":"3","latitude":"-17.8528","longitude":"25.2437","state_id":null,"state_name":null,"country_id":null},{"active":false,"Giataid":"47447","cityId":null,"cityName":"Savuti","hotelId":47447,"hotelName":"Savute Safari Lodge","address":"Savute Channel,Savuti Area,Chobe National Park,Botswana","phones":"+2676861559","fax":"","email":"","url":"","countryIso2":"BW","countryName":"Botswana","hotelRating":"4","latitude":"-18.5645","longitude":"24.0578","state_id":null,"state_name":null,"country_id":null},{"active":false,"Giataid":"47448","cityId":null,"cityName":"Chobe National Park","hotelId":47448,"hotelName":"Muchenje Safari Lodge","address":"Chobe Forest Reserve,Chobe National Park,Kasane,Botswana","phones":"+2676200013","fax":"","email":"info@muchenje.com","url":"http://www.muchenje.com/","countryIso2":"BW","countryName":"Botswana","hotelRating":"4","latitude":"-17.9432","longitude":"24.7033","state_id":null,"state_name":null,"country_id":null},{"active":false,"Giataid":"47449","cityId":null,"cityName":"Kasane","hotelId":47449,"hotelName":"Santuary Chobe Chilwero","address":"near Kasane,Chobe National Park,Chobe District,Botswana","phones":"+26727114384650","fax":"","email":"info@sanctuaryretreats.com","url":"http://www.sanctuaryretreats.com/","countryIso2":"BW","countryName":"Botswana","hotelRating":"4","latitude":"-17.8278","longitude":"25.1371","state_id":null,"state_name":null,"country_id":null},{"active":false,"Giataid":"47452","cityId":null,"cityName":"Linyanti Area","hotelId":47452,"hotelName":"Linyanti Walking Trails","address":"NULL","phones":"","fax":"","email":"","url":"","countryIso2":"BW","countryName":"Botswana","hotelRating":"4","latitude":"-18.2945","longitude":"23.9113","state_id":null,"state_name":null,"country_id":null},{"active":false,"Giataid":"47454","cityId":null,"cityName":"Linyanti Area","hotelId":47454,"hotelName":"Kwando Lagoon Camp","address":"Linyanti,Kwando Reserve,Botswana","phones":"","fax":"","email":"","url":"","countryIso2":"BW","countryName":"Botswana","hotelRating":"4","latitude":"-18.295","longitude":"23.9095","state_id":null,"state_name":null,"country_id":null},{"active":false,"Giataid":"47455","cityId":null,"cityName":"Kasane","hotelId":47455,"hotelName":"Cresta Mowana Safari Resort & Spa","address":"Plot 2239 Close To Chobe Game Reserve,Chobe River,P.O. Box 266,Kasane,Botswana","phones":"+2676250300","fax":"","email":"","url":"http://www.cresta-hospitality.com","countryIso2":"BW","countryName":"Botswana","hotelRating":"4","latitude":"-17.7826","longitude":"25.1591","state_id":null,"state_name":null,"country_id":null},{"active":false,"Giataid":"47457","cityId":null,"cityName":"Okavango","hotelId":47457,"hotelName":"Nxabega Okavango Tented Camp","address":"Okavango Delta,Botswana","phones":"","fax":"","email":"","url":"","countryIso2":"BW","countryName":"Botswana","hotelRating":"5","latitude":"-19.3007","longitude":"22.9219","state_id":null,"state_name":null,"country_id":null},{"active":false,"Giataid":"47462","cityId":null,"cityName":"Okavango","hotelId":47462,"hotelName":"Camp Okavango","address":"Okavango Delta,Botswana","phones":"+2676861559","fax":"","email":"info@desertdelta.com","url":"http://www.desertdelta.com/botswana-safari-lodges/camp-okavango-botswana.html","countryIso2":"BW","countryName":"Botswana","hotelRating":"4","latitude":"-19.1321","longitude":"23.0978","state_id":null,"state_name":null,"country_id":null},{"active":false,"Giataid":"47465","cityId":null,"cityName":"Gabarone","hotelId":47465,"hotelName":"Avani Gaborone Hotel & Casino","address":"Chuma Drive,Gaborone,Botswana","phones":"+2673616000","fax":"+2672613484","email":"gaborone.enquiries@za.suninternational.com","url":"http://www.avanihotels.com","countryIso2":"BW","countryName":"Botswana","hotelRating":"4","latitude":"-24.652","longitude":"25.9294","state_id":null,"state_name":null,"country_id":null},{"active":false,"Giataid":"136014","cityId":null,"cityName":"Chobe River","hotelId":136014,"hotelName":"Savute Under Canvas","address":"","phones":"","fax":"","email":"","url":"","countryIso2":"BW","countryName":"Botswana","hotelRating":"3","latitude":"-17.8165","longitude":"25.1409","state_id":null,"state_name":null,"country_id":null},{"active":false,"Giataid":"142899","cityId":15737,"cityName":"Ghanzi","hotelId":142899,"hotelName":"Edo's Camp","address":"NULL","phones":"+26772120399","fax":"","email":"","url":"http://www.edoscamp.com","countryIso2":"BW","countryName":"Botswana","hotelRating":"1","latitude":"-21.4969","longitude":"21.8434","state_id":3061,"state_name":"Ghanzi District","country_id":29},{"active":false,"Giataid":"144183","cityId":null,"cityName":"Gabarone","hotelId":144183,"hotelName":"Cresta Lodge Gaborone","address":"Samora Machel Drive,Gaborone,Botswana","phones":"+2673975375","fax":"","email":"","url":"","countryIso2":"BW","countryName":"Botswana","hotelRating":"3","latitude":"-24.6817","longitude":"25.9087","state_id":null,"state_name":null,"country_id":null},{"active":false,"Giataid":"144184","cityId":null,"cityName":"Francistown","hotelId":144184,"hotelName":"Cresta Thapama","address":"6386 Blue Jacket Street,Francistown,Botswana","phones":"","fax":"","email":"","url":"","countryIso2":"BW","countryName":"Botswana","hotelRating":"3","latitude":"-21.1729","longitude":"27.5125","state_id":null,"state_name":null,"country_id":null},{"active":false,"Giataid":"144185","cityId":15783,"cityName":"Palapye","hotelId":144185,"hotelName":"Cresta Botsalo","address":"Along Gaborone And Francistown Road,Palapye,Botswana","phones":"+2674920245","fax":"","email":"","url":"","countryIso2":"BW","countryName":"Botswana","hotelRating":"3","latitude":"-22.5506","longitude":"27.1141","state_id":3067,"state_name":"Central District","country_id":29},{"active":false,"Giataid":"144186","cityId":null,"cityName":"Gabarone","hotelId":144186,"hotelName":"Peermont Metcourt at The Grand Palm","address":"Bonnington Farm,Molepolole Road,BR105,Gaborone,Botswana","phones":"+26712673637777","fax":"+26712673637777","email":"info@grandpalm.bw","url":"http://www.grandpalm.co.za/peermont/content/en/grand/grand-home","countryIso2":"BW","countryName":"Botswana","hotelRating":"3","latitude":"-24.6401","longitude":"25.8781","state_id":null,"state_name":null,"country_id":null},{"active":false,"Giataid":"144187","cityId":null,"cityName":"Gabarone","hotelId":144187,"hotelName":"Cresta President Hotel","address":"Botswana Road,Main Mall,Gaborone,Botswana","phones":"+2673953631","fax":"","email":"","url":"","countryIso2":"BW","countryName":"Botswana","hotelRating":"3","latitude":"-24.6587","longitude":"25.9161","state_id":null,"state_name":null,"country_id":null},{"active":false,"Giataid":"144188","cityId":null,"cityName":"Gabarone","hotelId":144188,"hotelName":"Peermont Mondior","address":"Plot 21117, Corner Mobuto and Maratadiba Street,The Village,Gaborone,Botswana,Botswana","phones":"+2673190600","fax":"","email":"","url":"","countryIso2":"BW","countryName":"Botswana","hotelRating":"4","latitude":"-24.6696","longitude":"25.9278","state_id":null,"state_name":null,"country_id":null},{"active":false,"Giataid":"144189","cityId":null,"cityName":"Gabarone","hotelId":144189,"hotelName":"Phakalane Golf Estate","address":"Golf Drive,P.O. Box 132,Phakalane,Gaborone,Botswana","phones":"+2673500422","fax":"","email":"","url":"","countryIso2":"BW","countryName":"Botswana","hotelRating":"4","latitude":"-24.5772","longitude":"25.9849","state_id":null,"state_name":null,"country_id":null},{"active":false,"Giataid":"144191","cityId":null,"cityName":"Gabarone","hotelId":144191,"hotelName":"Peermont Walmont at The Grand Palm Hotel","address":"Plot 17989 Bonnington Farm,Molepolole Road,Gaborone,Botswana","phones":"+2673637777","fax":"","email":"","url":"http://www.walmont.com/grandPalm/","countryIso2":"BW","countryName":"Botswana","hotelRating":"4","latitude":"-24.641","longitude":"25.8779","state_id":null,"state_name":null,"country_id":null},{"active":false,"Giataid":"144192","cityId":15764,"cityName":"Maun","hotelId":144192,"hotelName":"John Chase Safaris","address":"","phones":"","fax":"","email":"","url":"","countryIso2":"BW","countryName":"Botswana","hotelRating":"1","latitude":"-19.9765","longitude":"23.4468","state_id":3065,"state_name":"North-West District","country_id":29},{"active":false,"Giataid":"144195","cityId":null,"cityName":"Selebi Phikwe","hotelId":144195,"hotelName":"Cresta Bosele","address":"Plot 276 Tshekedi Road,Selebi Phikwe,Botswana","phones":"+2672610675","fax":"","email":"","url":"","countryIso2":"BW","countryName":"Botswana","hotelRating":"3","latitude":"-21.9758","longitude":"27.8306","state_id":null,"state_name":null,"country_id":null},{"active":false,"Giataid":"182851","cityId":null,"cityName":"Okavango","hotelId":182851,"hotelName":"Moremi Crossing","address":"Okavango Delta,Botswana","phones":"+2676860023","fax":"+2676860040","email":"reservations@moremicrossing.com","url":"http://underonebotswanasky.com/camps/moremi-crossing.php","countryIso2":"BW","countryName":"Botswana","hotelRating":"4","latitude":"-19.5269","longitude":"23.1494","state_id":null,"state_name":null,"country_id":null},{"active":false,"Giataid":"196072","cityId":null,"cityName":"Okavango","hotelId":196072,"hotelName":"Shinde Camp","address":"Okavango-Delta,Maun,Botswana","phones":"+2676860375","fax":"","email":"","url":"","countryIso2":"BW","countryName":"Botswana","hotelRating":"3","latitude":"-19.5035","longitude":"22.8962","state_id":null,"state_name":null,"country_id":null},{"active":false,"Giataid":"196073","cityId":null,"cityName":"Moremi National Park","hotelId":196073,"hotelName":"Okuti Camp","address":"Moremi Nationalpark,Botswana","phones":"","fax":"","email":"","url":"","countryIso2":"BW","countryName":"Botswana","hotelRating":"3","latitude":"-19.1813","longitude":"23.4113","state_id":null,"state_name":null,"country_id":null},{"active":false,"Giataid":"196074","cityId":null,"cityName":"Okavango","hotelId":196074,"hotelName":"Footsteps Across the Delta Camp","address":"Okavango-Delta,Botswana","phones":"+2676860375","fax":"+2676861282","email":"info@kerdowney.bw","url":"http://www.kerdowneybotswana.com/our-safaris/walking-safaris/walking-safari-footsteps-across-the-delta/","countryIso2":"BW","countryName":"Botswana","hotelRating":"3","latitude":"-19.5035","longitude":"22.8962","state_id":null,"state_name":null,"country_id":null},{"active":false,"Giataid":"196075","cityId":null,"cityName":"Okavango","hotelId":196075,"hotelName":"Kanana Mokoro Trail","address":"Okavango-Delta,Botswana","phones":"+2676860375","fax":"+2676861282","email":"info@kerdowney.bw","url":"http://www.kerdowneybotswana.com/wp-content/uploads/2014/06/Itinerary-2014-KMT.pdf","countryIso2":"BW","countryName":"Botswana","hotelRating":"1","latitude":"-19.5087","longitude":"22.8989","state_id":null,"state_name":null,"country_id":null},{"active":false,"Giataid":"201982","cityId":null,"cityName":"Okavango","hotelId":201982,"hotelName":"Xaranna Okavango Delta Camp","address":"Okavango Delta,Botswana","phones":"","fax":"","email":"","url":"http://www.andbeyond.com/xaranna-okavango-delta-camp","countryIso2":"BW","countryName":"Botswana","hotelRating":"5","latitude":"-19.632","longitude":"22.8986","state_id":null,"state_name":null,"country_id":null},{"active":false,"Giataid":"229815","cityId":15778,"cityName":"Nata","hotelId":229815,"hotelName":"Nata Lodge","address":"P.O. Box 10,Nata,Botswana","phones":"+2676200070","fax":"+2676200071","email":"reservations@natalodge.com","url":"http://underonebotswanasky.com/camps/nata-lodge.php","countryIso2":"BW","countryName":"Botswana","hotelRating":"3","latitude":"-20.224","longitude":"26.2677","state_id":3067,"state_name":"Central District","country_id":29},{"active":false,"Giataid":"231734","cityId":null,"cityName":"Khwai","hotelId":231734,"hotelName":"Sango Safari Camp","address":"Khwai River,Khwai,Moremi Game Reserve,Botswana","phones":"+2676863763","fax":"+2676800937","email":"lodge-res@bushways.com","url":"http://www.sangosafaricamp.com/","countryIso2":"BW","countryName":"Botswana","hotelRating":"3","latitude":"-19.1634","longitude":"23.7628","state_id":null,"state_name":null,"country_id":null},{"active":false,"Giataid":"246027","cityId":null,"cityName":"Gabarone","hotelId":246027,"hotelName":"Masa Square Hotel","address":"Western Commercial Road,Plot 54353,Gaborone,Botswana,Botswana","phones":"+2673159954","fax":"","email":"gm.hig@africansunhotels.com","url":"","countryIso2":"BW","countryName":"Botswana","hotelRating":"4","latitude":"-24.6522","longitude":"25.9041","state_id":null,"state_name":null,"country_id":null},{"active":false,"Giataid":"292713","cityId":15744,"cityName":"Kanye","hotelId":292713,"hotelName":"Motse Lodge","address":"","phones":"","fax":"","email":"","url":"","countryIso2":"BW","countryName":"Botswana","hotelRating":"1","latitude":"-24.9589","longitude":"25.3436","state_id":3063,"state_name":"Southern District","country_id":29},{"active":false,"Giataid":"322247","cityId":null,"cityName":"Gabarone","hotelId":322247,"hotelName":"Khutse Kalahari Lodge","address":"","phones":"","fax":"","email":"","url":"","countryIso2":"BW","countryName":"Botswana","hotelRating":"1","latitude":"-24.646","longitude":"25.8928","state_id":null,"state_name":null,"country_id":null},{"active":false,"Giataid":"368781","cityId":null,"cityName":"Gabarone","hotelId":368781,"hotelName":"Holiday Inn Gaborone","address":"","phones":"","fax":"","email":"","url":"","countryIso2":"BW","countryName":"Botswana","hotelRating":"3","latitude":"-24.646","longitude":"25.8928","state_id":null,"state_name":null,"country_id":null},{"active":false,"Giataid":"368782","cityId":null,"cityName":"Gabarone","hotelId":368782,"hotelName":"Town Lodge Gaborone","address":"Airport Junction Shopping Centre,Corner Airport and A1 Road,Gaborone,Botswana","phones":"+2673160490","fax":"","email":"","url":"","countryIso2":"BW","countryName":"Botswana","hotelRating":"3","latitude":"-24.6042","longitude":"25.9229","state_id":null,"state_name":null,"country_id":null},{"active":false,"Giataid":"370838","cityId":null,"cityName":"Francistown","hotelId":370838,"hotelName":"Tati River Lodge","address":"","phones":"","fax":"","email":"","url":"","countryIso2":"BW","countryName":"Botswana","hotelRating":"1","latitude":"-21.1759","longitude":"27.5203","state_id":null,"state_name":null,"country_id":null},{"active":false,"Giataid":"372255","cityId":15755,"cityName":"Mahalapye","hotelId":372255,"hotelName":"Cresta Mahalapye","address":"9250 Moko Ward,Mahalapye,Botswana","phones":"+2674719000","fax":"","email":"","url":"","countryIso2":"BW","countryName":"Botswana","hotelRating":"3","latitude":"-23.0943","longitude":"26.8458","state_id":3067,"state_name":"Central District","country_id":29},{"active":false,"Giataid":"399810","cityId":null,"cityName":"Seronga","hotelId":399810,"hotelName":"Kana Kara Camp","address":"Seronga,Okavango-Delta,Botswana","phones":"+267861010200","fax":"","email":"res3@anthology.co.za","url":"http://www.kanakaracamp.com/","countryIso2":"BW","countryName":"Botswana","hotelRating":"3","latitude":"-18.9167","longitude":"22.7385","state_id":null,"state_name":null,"country_id":null},{"active":false,"Giataid":"405159","cityId":null,"cityName":"Seronga","hotelId":405159,"hotelName":"Kadizora Camp","address":"Seronga,Okavango Delta,Botswana","phones":"+26727117811661","fax":"","email":"res@anthology.co.za","url":"http://kadizoracamp.com","countryIso2":"BW","countryName":"Botswana","hotelRating":"4","latitude":"-18.9344","longitude":"22.4365","state_id":null,"state_name":null,"country_id":null},{"active":false,"Giataid":"406544","cityId":null,"cityName":"Okavango","hotelId":406544,"hotelName":"Baines River Camp","address":"Okavango-Delta,Botswana","phones":"","fax":"","email":"","url":"http://www.sanctuaryretreats.com/botswana-camps-baines","countryIso2":"BW","countryName":"Botswana","hotelRating":"5","latitude":"-20.0007","longitude":"23.4127","state_id":null,"state_name":null,"country_id":null},{"active":false,"Giataid":"419168","cityId":null,"cityName":"Okavango","hotelId":419168,"hotelName":"Kwara Camp & Little Kwara","address":"Okavango-Delta,Botswana","phones":"+2676861449","fax":"+2676861457","email":"info@kwando.co.bw","url":"http://www.kwando.co.za/kwara.html","countryIso2":"BW","countryName":"Botswana","hotelRating":"1","latitude":"-19.1979","longitude":"23.4169","state_id":null,"state_name":null,"country_id":null},{"active":false,"Giataid":"419169","cityId":null,"cityName":"Okavango","hotelId":419169,"hotelName":"Little Kwara","address":"Okavango-Delta,Botswana","phones":"+2676861449","fax":"+2676861457","email":"info@kwando.co.bw","url":"http://www.kwando.co.za/lkwara.html","countryIso2":"BW","countryName":"Botswana","hotelRating":"3","latitude":"-19.1056","longitude":"23.266","state_id":null,"state_name":null,"country_id":null},{"active":false,"Giataid":"429998","cityId":null,"cityName":"Okavango","hotelId":429998,"hotelName":"Pelo Camp","address":"Jao Concession,Okavango-Delta,Moremi Game Reserve,Botswana","phones":"","fax":"","email":"","url":"http://www.wilderness-safaris.com/camps/pelo-camp","countryIso2":"BW","countryName":"Botswana","hotelRating":"3","latitude":"-18.9478","longitude":"22.3607","state_id":null,"state_name":null,"country_id":null},{"active":false,"Giataid":"430114","cityId":null,"cityName":"Seronga","hotelId":430114,"hotelName":"Little Tubu Camp","address":"Okavango-Delta,Seronga,Moremi Game Reserve,Botswana","phones":"","fax":"","email":"","url":"","countryIso2":"BW","countryName":"Botswana","hotelRating":"3","latitude":"-19.1788","longitude":"22.2712","state_id":null,"state_name":null,"country_id":null},{"active":false,"Giataid":"430116","cityId":null,"cityName":"Chief's Island","hotelId":430116,"hotelName":"Little Mombo Camp","address":"Okavango-Delta,Botswana","phones":"","fax":"","email":"","url":"http://www.mombo.co.uk/mombo-camp.aspx","countryIso2":"BW","countryName":"Botswana","hotelRating":"5","latitude":"-18.9903","longitude":"22.2923","state_id":null,"state_name":null,"country_id":null},{"active":false,"Giataid":"432346","cityId":15778,"cityName":"Nata","hotelId":432346,"hotelName":"Pelican Lodge","address":"Main Road 5KM,South of Nata Village,Nata Sanctuary,Botswana","phones":"","fax":"","email":"book@comparesafaris.com","url":"http://www.pelicanlodgebotswana.com","countryIso2":"BW","countryName":"Botswana","hotelRating":"1","latitude":"-20.2187","longitude":"26.232","state_id":3067,"state_name":"Central District","country_id":29},{"active":false,"Giataid":"432803","cityId":null,"cityName":"Kasane","hotelId":432803,"hotelName":"Bridgetown Resort","address":"Kazungula,Chobe,Kasane,Botswana","phones":"","fax":"","email":"","url":"","countryIso2":"BW","countryName":"Botswana","hotelRating":"4","latitude":"-17.8224","longitude":"25.1874","state_id":null,"state_name":null,"country_id":null},{"active":false,"Giataid":"433557","cityId":null,"cityName":"Chief's Island","hotelId":433557,"hotelName":"Mombo Trails Camp","address":"Chief's Island,Okavango Delta,Botswana","phones":"","fax":"","email":"info@africaodyssey.com","url":"http://www.mombo.co.uk/mombo-trails.aspx","countryIso2":"BW","countryName":"Botswana","hotelRating":"4","latitude":"-19.7179","longitude":"22.8592","state_id":null,"state_name":null,"country_id":null},{"active":false,"Giataid":"433558","cityId":null,"cityName":"Linyanti Area","hotelId":433558,"hotelName":"Selinda Explorers Camp","address":"","phones":"","fax":"","email":"","url":"","countryIso2":"BW","countryName":"Botswana","hotelRating":"3","latitude":"-18.3798","longitude":"23.7451","state_id":null,"state_name":null,"country_id":null},{"active":false,"Giataid":"433723","cityId":null,"cityName":"Okavango","hotelId":433723,"hotelName":"Duba Expedition Camp","address":"","phones":"","fax":"","email":"","url":"","countryIso2":"BW","countryName":"Botswana","hotelRating":"3","latitude":"-19.3007","longitude":"22.9219","state_id":null,"state_name":null,"country_id":null},{"active":false,"Giataid":"504326","cityId":null,"cityName":"Kavimba","hotelId":504326,"hotelName":"Mwandi View","address":"B334 Transit Road,Kavimba,Chobe Nationalpark,Botswana","phones":"","fax":"","email":"","url":"","countryIso2":"BW","countryName":"Botswana","hotelRating":"1","latitude":"-18.2191","longitude":"24.7653","state_id":null,"state_name":null,"country_id":null},{"active":false,"Giataid":"522699","cityId":null,"cityName":"Gabarone","hotelId":522699,"hotelName":"Elegant & Exclusive Boutique Guest House","address":"","phones":"","fax":"","email":"","url":"","countryIso2":"BW","countryName":"Botswana","hotelRating":"1","latitude":"-24.646","longitude":"25.8928","state_id":null,"state_name":null,"country_id":null},{"active":false,"Giataid":"530075","cityId":15796,"cityName":"Shakawe","hotelId":530075,"hotelName":"Lawdons Lodge","address":"NULL","phones":"","fax":"","email":"lawdonslodge@comparesafaris.com","url":"http://www.lawdonslodge.com/","countryIso2":"BW","countryName":"Botswana","hotelRating":"1","latitude":"-18.3674","longitude":"21.8391","state_id":3065,"state_name":"North-West District","country_id":29},{"active":false,"Giataid":"530212","cityId":null,"cityName":"Selebi Phikwe","hotelId":530212,"hotelName":"Tuli Safari Lodge","address":"Tuli Block,Northern Tuli Game Reserve,Botswana","phones":"+26777402388","fax":"","email":"reservations@tulilodge.com","url":"http://www.tulilodge.com/","countryIso2":"BW","countryName":"Botswana","hotelRating":"1","latitude":"-22.0029","longitude":"27.8429","state_id":null,"state_name":null,"country_id":null},{"active":false,"Giataid":"530670","cityId":15778,"cityName":"Nata","hotelId":530670,"hotelName":"Elephant Sands","address":"53 kilometers north of Nata on the Nata - Kasane road,Nata Area,Botswana","phones":"+26773536473","fax":"","email":"bookings@elephantsandsbotswana.com","url":"http://www.elephantsands.com/","countryIso2":"BW","countryName":"Botswana","hotelRating":"1","latitude":"-20.2105","longitude":"26.1773","state_id":3067,"state_name":"Central District","country_id":29},{"active":false,"Giataid":"286813","cityId":null,"cityName":"Moremi National Park","hotelId":534335,"hotelName":"Belmond Safaris","address":"Moremi Reserve,Chobe National Park,Okavango Delta,Botswana","phones":"+26727214831600","fax":"","email":"safaris@belmond.com","url":"http://www.belmondsafaris.com/web/safaris/belmond_safaris.jsp","countryIso2":"BW","countryName":"Botswana","hotelRating":"1","latitude":"-19.3007","longitude":"22.9219","state_id":null,"state_name":null,"country_id":null},{"active":false,"Giataid":"553974","cityId":null,"cityName":"Khwai","hotelId":553974,"hotelName":"Khwai Guest House","address":"","phones":"","fax":"","email":"","url":"","countryIso2":"BW","countryName":"Botswana","hotelRating":"2","latitude":"-19.1439","longitude":"23.7882","state_id":null,"state_name":null,"country_id":null},{"active":false,"Giataid":"563052","cityId":15781,"cityName":"Orapa","hotelId":563052,"hotelName":"Seolo Hotel","address":"","phones":"","fax":"","email":"","url":"","countryIso2":"BW","countryName":"Botswana","hotelRating":"1","latitude":"-21.3201","longitude":"25.3151","state_id":3067,"state_name":"Central District","country_id":29},{"active":false,"Giataid":"144186","cityId":null,"cityName":"Gabarone","hotelId":584689,"hotelName":"The Grand Palm","address":"Plot 17989,Bonnington Farm,Molepolole Road,Gaborone,Botswana","phones":"+2673637777","fax":"+2673912989","email":"info@grandpalm.bw","url":"http://www.grandpalm.co.za/","countryIso2":"BW","countryName":"Botswana","hotelRating":"1","latitude":"-24.6399","longitude":"25.8781","state_id":null,"state_name":null,"country_id":null},{"active":false,"Giataid":"584712","cityId":15771,"cityName":"Mogoditshane","hotelId":584712,"hotelName":"Mogo Self-Catering Apartments","address":"Plot 11782,Off Molepolole Road,Kgatleng Ward,00267 Mogoditshane,Botswana","phones":"","fax":"","email":"","url":"","countryIso2":"BW","countryName":"Botswana","hotelRating":"1","latitude":"-24.6287","longitude":"25.8728","state_id":3069,"state_name":"Kweneng District","country_id":29},{"active":false,"Giataid":"584734","cityId":null,"cityName":"Tlokweng","hotelId":584734,"hotelName":"The Gibeon Ville","address":"Tlokweng Branch,Plot 808,T-Junction of Ratumelo and Mmaseroka road,Tlokweng,Botswana","phones":"+26771726067","fax":"","email":"inquiries@thegibeonville.com","url":"http://www.thegibeonville.com/","countryIso2":"BW","countryName":"Botswana","hotelRating":"1","latitude":"-24.6524","longitude":"25.9712","state_id":null,"state_name":null,"country_id":null},{"active":false,"Giataid":"584799","cityId":15771,"cityName":"Mogoditshane","hotelId":584799,"hotelName":"Gae Apartments","address":"Lot 1481,Mogoditshane,Gaborone,Botswana","phones":"+26773863737","fax":"","email":"info@gaeapartments.com","url":"http://www.gaeapartments.com/","countryIso2":"BW","countryName":"Botswana","hotelRating":"1","latitude":"-24.6273","longitude":"25.8525","state_id":3069,"state_name":"Kweneng District","country_id":29},{"active":false,"Giataid":"595116","cityId":null,"cityName":"Central Kalahari Game Reserve","hotelId":595116,"hotelName":"Deception Mobile Camp","address":"Central Kalahari Game Reserve,Botswana","phones":"","fax":"","email":"","url":"","countryIso2":"BW","countryName":"Botswana","hotelRating":"1","latitude":"-21.4205","longitude":"23.7916","state_id":null,"state_name":null,"country_id":null},{"active":false,"Giataid":"598677","cityId":null,"cityName":"Kasane","hotelId":598677,"hotelName":"Sedudu Campsite","address":"Chobe National Park,Kasane,Botswana","phones":"","fax":"","email":"","url":"","countryIso2":"BW","countryName":"Botswana","hotelRating":"2","latitude":"-17.8224","longitude":"25.1874","state_id":null,"state_name":null,"country_id":null},{"active":false,"Giataid":"613238","cityId":null,"cityName":"Makgadikgadi Pan National Park","hotelId":613238,"hotelName":"Camp Kalahari","address":"","phones":"","fax":"","email":"","url":"","countryIso2":"BW","countryName":"Botswana","hotelRating":"3","latitude":"-20.4819","longitude":"25.0394","state_id":null,"state_name":null,"country_id":null},{"active":false,"Giataid":"649927","cityId":null,"cityName":"Okavango","hotelId":649927,"hotelName":"Rra Dinare Camp","address":"","phones":"","fax":"","email":"","url":"","countryIso2":"BW","countryName":"Botswana","hotelRating":"3","latitude":"-19.3007","longitude":"22.9219","state_id":null,"state_name":null,"country_id":null},{"active":false,"Giataid":"654943","cityId":null,"cityName":"Okavango","hotelId":654943,"hotelName":"Tubu Tree Camp & Little Tubu Camp","address":"","phones":"","fax":"","email":"","url":"","countryIso2":"BW","countryName":"Botswana","hotelRating":"4","latitude":"-19.3007","longitude":"22.9219","state_id":null,"state_name":null,"country_id":null},{"active":false,"Giataid":"654954","cityId":null,"cityName":"Okavango","hotelId":654954,"hotelName":"Xaranna Okavango Delta Camp & Xudum Okavango Delta Lodge","address":"","phones":"","fax":"","email":"","url":"","countryIso2":"BW","countryName":"Botswana","hotelRating":"5","latitude":"-19.3007","longitude":"22.9219","state_id":null,"state_name":null,"country_id":null},{"active":false,"Giataid":"654960","cityId":null,"cityName":"Chief's Island","hotelId":654960,"hotelName":"Mombo Camp & Little Mombo","address":"","phones":"","fax":"","email":"","url":"","countryIso2":"BW","countryName":"Botswana","hotelRating":"5","latitude":"0","longitude":"0","state_id":null,"state_name":null,"country_id":null},{"active":false,"Giataid":"654981","cityId":null,"cityName":"Linyanti Area","hotelId":654981,"hotelName":"Selinda Private Reserve","address":"","phones":"","fax":"","email":"","url":"","countryIso2":"BW","countryName":"Botswana","hotelRating":"3","latitude":"-18.3798","longitude":"23.7451","state_id":null,"state_name":null,"country_id":null},{"active":false,"Giataid":"654984","cityId":null,"cityName":"Linyanti Area","hotelId":654984,"hotelName":"Zarafa Dhow Suite","address":"","phones":"","fax":"","email":"","url":"","countryIso2":"BW","countryName":"Botswana","hotelRating":"1","latitude":"-18.3798","longitude":"23.7451","state_id":null,"state_name":null,"country_id":null},{"active":false,"Giataid":"47457","cityId":null,"cityName":"Okavango","hotelId":667155,"hotelName":"Nxabega Okavango Safari Camp","address":"Okavango Delta,North West District,Botswana","phones":"+26727118094300","fax":"","email":"contactus@andbeyond.com","url":"https://www.andbeyond.com/our-lodges/africa/botswana/okavango-delta/andbeyond-nxabega-okavango-tented-camp/","countryIso2":"BW","countryName":"Botswana","hotelRating":"1","latitude":"-19.3007","longitude":"22.9219","state_id":null,"state_name":null,"country_id":null},{"active":false,"Giataid":"667204","cityId":null,"cityName":"Okavango","hotelId":667204,"hotelName":"Oddballs' Enclave","address":"","phones":"","fax":"","email":"","url":"","countryIso2":"BW","countryName":"Botswana","hotelRating":"1","latitude":"-19.3007","longitude":"22.9219","state_id":null,"state_name":null,"country_id":null},{"active":false,"Giataid":"676402","cityId":null,"cityName":"Chobe River","hotelId":676402,"hotelName":"Botswana Safari Lodges","address":"","phones":"","fax":"","email":"","url":"","countryIso2":"BW","countryName":"Botswana","hotelRating":"1","latitude":"-17.8165","longitude":"25.1409","state_id":null,"state_name":null,"country_id":null},{"active":false,"Giataid":"678447","cityId":15778,"cityName":"Nata","hotelId":678447,"hotelName":"Northgate Lodge","address":"Nata CBD- A3 Road,Main Road,Nata,Botswana","phones":"","fax":"","email":"","url":"","countryIso2":"BW","countryName":"Botswana","hotelRating":"1","latitude":"-20.2145","longitude":"26.199","state_id":3067,"state_name":"Central District","country_id":29},{"active":false,"Giataid":"678555","cityId":15778,"cityName":"Nata","hotelId":678555,"hotelName":"Maya Guest Inn","address":"A3 Highway,Nata,Botswana","phones":"+2676211296","fax":"+2676211295","email":"reservations@mayaguestinn.net","url":"http://www.mayaguestinn.net","countryIso2":"BW","countryName":"Botswana","hotelRating":"1","latitude":"-20.2145","longitude":"26.199","state_id":3067,"state_name":"Central District","country_id":29},{"active":false,"Giataid":"692464","cityId":15778,"cityName":"Nata","hotelId":692464,"hotelName":"Bel Rea Guest House","address":"A3 Road,Nata,Botswana","phones":"","fax":"","email":"","url":"https://uk.hotels.com/ho582503","countryIso2":"BW","countryName":"Botswana","hotelRating":"1","latitude":"-20.2145","longitude":"26.199","state_id":3067,"state_name":"Central District","country_id":29},{"active":false,"Giataid":"694083","cityId":null,"cityName":"Gabarone","hotelId":694083,"hotelName":"Cosy Palms Guest House","address":"Plot 17566 Masokaphala Road,Gaborone West,Phase 1 BKT Gaborone,PO BOX 504037,Gaborone,Botswana","phones":"","fax":"+2673114200","email":"res@cosypalms.info","url":"http://cosypalms.info/","countryIso2":"BW","countryName":"Botswana","hotelRating":"3","latitude":"-24.6475","longitude":"25.8857","state_id":null,"state_name":null,"country_id":null},{"active":false,"Giataid":"694108","cityId":15771,"cityName":"Mogoditshane","hotelId":694108,"hotelName":"Camels Inn Lodge","address":"Maipei Ward,Mmopane,PO Box 1176,Mogoditshane,Botswana","phones":"+2673167005","fax":"+2673184274","email":"camelsinn@hotmail.comInn","url":"http://www.camelsinn.com/","countryIso2":"BW","countryName":"Botswana","hotelRating":"1","latitude":"-24.5788","longitude":"25.8622","state_id":3069,"state_name":"Kweneng District","country_id":29},{"active":false,"Giataid":"694316","cityId":15781,"cityName":"Orapa","hotelId":694316,"hotelName":"Makumutu Lodge & Campsite","address":"Along A114 Highway,Mopipi Juxion,Orapa,Botswana","phones":"","fax":"","email":"info@makumutulodge.com","url":"http://www.makumutulodge.com/","countryIso2":"BW","countryName":"Botswana","hotelRating":"1","latitude":"-21.3201","longitude":"25.3151","state_id":3067,"state_name":"Central District","country_id":29},{"active":false,"Giataid":"725718","cityId":null,"cityName":"Ramokgwebana","hotelId":725718,"hotelName":"Chitawa Lodge","address":"Along A1,Ramokgwebana,Francistown,Botswana","phones":"","fax":"","email":"","url":"","countryIso2":"BW","countryName":"Botswana","hotelRating":"1","latitude":"-21.1759","longitude":"27.5203","state_id":null,"state_name":null,"country_id":null},{"active":false,"Giataid":"725779","cityId":null,"cityName":"Sepako","hotelId":725779,"hotelName":"Dzibanana Lodge And Camping","address":"Dzibanani,Sepako,Nata,Botswana","phones":"","fax":"","email":"","url":"","countryIso2":"BW","countryName":"Botswana","hotelRating":"1","latitude":"-20.2145","longitude":"26.199","state_id":null,"state_name":null,"country_id":null},{"active":false,"Giataid":"725779","cityId":null,"cityName":"Sepako","hotelId":725779,"hotelName":"Dzibanana Lodge And Camping","address":"Dzibanani,Sepako,Nata,Botswana","phones":"","fax":"","email":"","url":"","countryIso2":"BW","countryName":"Botswana","hotelRating":"1","latitude":"-20.2145","longitude":"26.199","state_id":null,"state_name":null,"country_id":null},{"active":false,"Giataid":"725930","cityId":null,"cityName":"Gabarone","hotelId":725930,"hotelName":"Sethare Guest House","address":"Aresutalane Street And Khokhowe Street,Gaborone,Botswana","phones":"","fax":"","email":"","url":"","countryIso2":"BW","countryName":"Botswana","hotelRating":"1","latitude":"-24.646","longitude":"25.8928","state_id":null,"state_name":null,"country_id":null},{"active":false,"Giataid":"725980","cityId":15764,"cityName":"Maun","hotelId":725980,"hotelName":"Residence Inn Guest House","address":"Moeti Ward,Maun,Botswana","phones":"","fax":"","email":"","url":"","countryIso2":"BW","countryName":"Botswana","hotelRating":"1","latitude":"-19.9765","longitude":"23.4468","state_id":3065,"state_name":"North-West District","country_id":29},{"active":false,"Giataid":"726762","cityId":15764,"cityName":"Maun","hotelId":726762,"hotelName":"Cresta Maun","address":"Plot 16719 Thamalakane River,Maun,Botswana","phones":"","fax":"","email":"enquiry@crestahotels.com","url":"http://www.crestahotels.com/hotels/cresta-maun-2/","countryIso2":"BW","countryName":"Botswana","hotelRating":"1","latitude":"-19.9765","longitude":"23.4468","state_id":3065,"state_name":"North-West District","country_id":29},{"active":false,"Giataid":"727013","cityId":null,"cityName":"Gabarone","hotelId":727013,"hotelName":"First Avenue Guest House","address":"Plot 12931 Kautsi Close,Gaborone,Botswana","phones":"","fax":"","email":"","url":"","countryIso2":"BW","countryName":"Botswana","hotelRating":"1","latitude":"-24.646","longitude":"25.8928","state_id":null,"state_name":null,"country_id":null},{"active":false,"Giataid":"727387","cityId":null,"cityName":"Gabarone","hotelId":727387,"hotelName":"River Ridge Guest House","address":"Plot 2572 Extension 9,Gaborone,Botswana","phones":"","fax":"","email":"","url":"","countryIso2":"BW","countryName":"Botswana","hotelRating":"1","latitude":"-24.6452","longitude":"25.9285","state_id":null,"state_name":null,"country_id":null},{"active":false,"Giataid":"729607","cityId":15783,"cityName":"Palapye","hotelId":729607,"hotelName":"Palapye Guest House","address":"Along A1 Road,Near Palapye Post Office,PO Box 34,Palapye,Botswana","phones":"+2674922274","fax":"+2674920415","email":"reservations@palapyeguesthouse.com","url":"http://palapyeguesthouse.com","countryIso2":"BW","countryName":"Botswana","hotelRating":"1","latitude":"-22.5456","longitude":"27.1082","state_id":3067,"state_name":"Central District","country_id":29},{"active":false,"Giataid":"729975","cityId":15737,"cityName":"Ghanzi","hotelId":729975,"hotelName":"Eagle Suites Guest House","address":"Plot 2791 Molapo Ward,Along A35 Highway,Ghanzi,Botswana","phones":"","fax":"","email":"","url":"","countryIso2":"BW","countryName":"Botswana","hotelRating":"1","latitude":"-21.6685","longitude":"21.7132","state_id":3061,"state_name":"Ghanzi District","country_id":29},{"active":false,"Giataid":"730381","cityId":15737,"cityName":"Ghanzi","hotelId":730381,"hotelName":"Nkwe Safari Lodge","address":"30km off Ghanzi,Ghanzi,Botswana","phones":"","fax":"","email":"","url":"","countryIso2":"BW","countryName":"Botswana","hotelRating":"1","latitude":"-21.6685","longitude":"21.7132","state_id":3061,"state_name":"Ghanzi District","country_id":29},{"active":false,"Giataid":"734676","cityId":null,"cityName":"Northern Tuli Game Reserve","hotelId":734676,"hotelName":"Molema Bush Camp - Campground","address":"Tuli Block,Lentswelemoriti,Northern Tuli Game Reserve,Botswana","phones":"","fax":"","email":"","url":"","countryIso2":"BW","countryName":"Botswana","hotelRating":"1","latitude":"-22.1951","longitude":"29.0541","state_id":null,"state_name":null,"country_id":null},{"active":false,"Giataid":"736574","cityId":null,"cityName":"Francistown","hotelId":736574,"hotelName":"Mathlyn Guest House","address":"Plot 2948,Newstands,Tati Siding,Francistown,Botswana","phones":"","fax":"","email":"","url":"","countryIso2":"BW","countryName":"Botswana","hotelRating":"1","latitude":"-21.1759","longitude":"27.5203","state_id":null,"state_name":null,"country_id":null},{"active":false,"Giataid":"739997","cityId":15778,"cityName":"Nata","hotelId":739997,"hotelName":"Gomwe Guest Inn","address":"Sekao Ward,Nata,Botswana","phones":"","fax":"","email":"","url":"","countryIso2":"BW","countryName":"Botswana","hotelRating":"1","latitude":"-20.2145","longitude":"26.199","state_id":3067,"state_name":"Central District","country_id":29},{"active":false,"Giataid":"746414","cityId":null,"cityName":"Gabarone","hotelId":746414,"hotelName":"Lifestyle Apartments","address":"Boteti,Gaborone,Botswana","phones":"","fax":"","email":"","url":"","countryIso2":"BW","countryName":"Botswana","hotelRating":"1","latitude":"-24.646","longitude":"25.8928","state_id":null,"state_name":null,"country_id":null},{"active":false,"Giataid":"746691","cityId":15795,"cityName":"Serowe","hotelId":746691,"hotelName":"Masama Lodge and Camp Site","address":"Masama Along A14 High Way,PO Box 30628,Serowe,Botswana","phones":"+26772996286","fax":"","email":"masama@yahoo.com","url":"http://www.masamalodge.co.bw","countryIso2":"BW","countryName":"Botswana","hotelRating":"1","latitude":"-22.3658","longitude":"26.7322","state_id":3067,"state_name":"Central District","country_id":29},{"active":false,"Giataid":"747766","cityId":15764,"cityName":"Maun","hotelId":747766,"hotelName":"The New Mall Guest House","address":"37652 Koro Street,Newtown Ward,Maun,Botswana","phones":"","fax":"","email":"","url":"","countryIso2":"BW","countryName":"Botswana","hotelRating":"1","latitude":"-19.9765","longitude":"23.4468","state_id":3065,"state_name":"North-West District","country_id":29},{"active":false,"Giataid":"749418","cityId":null,"cityName":"Chobe National Park","hotelId":749418,"hotelName":"Tlouwana Camp","address":"Plot 1015 Chobe,Botswana,Botswana","phones":"","fax":"","email":"danny@oldhousekasane.com","url":"http://www.tlouwanacamp.com","countryIso2":"BW","countryName":"Botswana","hotelRating":"1","latitude":"-18.2191","longitude":"24.7653","state_id":null,"state_name":null,"country_id":null},{"active":false,"Giataid":"749428","cityId":null,"cityName":"Savuti","hotelId":749428,"hotelName":"Nogatsaa Pans Lodge","address":"Chobe National Park,Savuti,Botswana","phones":"","fax":"","email":"","url":"","countryIso2":"BW","countryName":"Botswana","hotelRating":"1","latitude":"-18.4937","longitude":"24.2569","state_id":null,"state_name":null,"country_id":null},{"active":false,"Giataid":"756596","cityId":null,"cityName":"Moremi National Park","hotelId":756596,"hotelName":"Sky Beds Moremi","address":"Moremi Game Reserve,Sable Alley,Khwai,Okavango Delta,Botswana","phones":"","fax":"","email":"","url":"","countryIso2":"BW","countryName":"Botswana","hotelRating":"3","latitude":"-19.3309","longitude":"23.4369","state_id":null,"state_name":null,"country_id":null},{"active":false,"Giataid":"759077","cityId":null,"cityName":"Gabarone","hotelId":759077,"hotelName":"Indaba Lodge Hotel Gaborone","address":"Tlokweng Road,Gaborone,Botswana","phones":"+2673999500","fax":"","email":"gm@indabagaborone.co.bw","url":"https://www.indabagaborone.co.bw/","countryIso2":"BW","countryName":"Botswana","hotelRating":"1","latitude":"-24.6761","longitude":"25.9314","state_id":null,"state_name":null,"country_id":null},{"active":false,"Giataid":"759878","cityId":null,"cityName":"Gabarone","hotelId":759878,"hotelName":"Abundance Palace Guest House","address":"Plot 56794,Block 10,Gaborone,Botswana","phones":"","fax":"","email":"","url":"","countryIso2":"BW","countryName":"Botswana","hotelRating":"3","latitude":"-24.6021","longitude":"25.9067","state_id":null,"state_name":null,"country_id":null},{"active":false,"Giataid":"767540","cityId":null,"cityName":"Gabarone","hotelId":767540,"hotelName":"Woodlane Hotel","address":"Plot 54515 Riverwalk Mall,Gaborone,Botswana","phones":"","fax":"","email":"","url":"","countryIso2":"BW","countryName":"Botswana","hotelRating":"1","latitude":"-24.646","longitude":"25.8928","state_id":null,"state_name":null,"country_id":null},{"active":false,"Giataid":"768141","cityId":null,"cityName":"Gabarone","hotelId":768141,"hotelName":"Bridge Town Resort","address":"Lot 80-RO Kazungula,Gaborone,Botswana","phones":"","fax":"","email":"","url":"http://www.bridgetownlodge.com","countryIso2":"BW","countryName":"Botswana","hotelRating":"1","latitude":"-24.646","longitude":"25.8928","state_id":null,"state_name":null,"country_id":null},{"active":false,"Giataid":"768309","cityId":15755,"cityName":"Mahalapye","hotelId":768309,"hotelName":"Keeme Nao Hotel","address":"1265 Madiba Ward Madiba,Mahalapye,Botswana","phones":"","fax":"","email":"","url":"","countryIso2":"BW","countryName":"Botswana","hotelRating":"1","latitude":"-23.1006","longitude":"26.8425","state_id":3067,"state_name":"Central District","country_id":29},{"active":false,"Giataid":"768339","cityId":15755,"cityName":"Mahalapye","hotelId":768339,"hotelName":"Premier Hotel","address":"Madiba Ward,Mahalapye,Botswana","phones":"","fax":"","email":"","url":"","countryIso2":"BW","countryName":"Botswana","hotelRating":"1","latitude":"-23.1006","longitude":"26.8425","state_id":3067,"state_name":"Central District","country_id":29},{"active":false,"Giataid":"769116","cityId":null,"cityName":"Francistown","hotelId":769116,"hotelName":"Kondwane Boutique Hotel","address":"932 Marang Road,Francistown,Botswana","phones":"","fax":"","email":"","url":"","countryIso2":"BW","countryName":"Botswana","hotelRating":"1","latitude":"-21.1759","longitude":"27.5203","state_id":null,"state_name":null,"country_id":null},{"active":false,"Giataid":"769188","cityId":null,"cityName":"Francistown","hotelId":769188,"hotelName":"The Enclave Hotel","address":"Plot 6745 Tati River Plots,Francistown,Botswana","phones":"","fax":"","email":"","url":"","countryIso2":"BW","countryName":"Botswana","hotelRating":"1","latitude":"-21.1759","longitude":"27.5203","state_id":null,"state_name":null,"country_id":null},{"active":false,"Giataid":"769381","cityId":15771,"cityName":"Mogoditshane","hotelId":769381,"hotelName":"Regie's Hotel","address":"Plot 4860 Block 1,Mmopane,PO Box 682,Mogoditshane,Botswana","phones":"","fax":"","email":"","url":"","countryIso2":"BW","countryName":"Botswana","hotelRating":"1","latitude":"-24.6273","longitude":"25.87","state_id":3069,"state_name":"Kweneng District","country_id":29},{"active":false,"Giataid":"769528","cityId":15795,"cityName":"Serowe","hotelId":769528,"hotelName":"Hotel 23","address":"Plot 21029,Mere Ward,Along Main A14 Road,Serowe,Botswana","phones":"","fax":"","email":"","url":"","countryIso2":"BW","countryName":"Botswana","hotelRating":"1","latitude":"-22.3658","longitude":"26.7322","state_id":3067,"state_name":"Central District","country_id":29},{"active":false,"Giataid":"770340","cityId":15764,"cityName":"Maun","hotelId":770340,"hotelName":"Adansonia Hotel","address":"Plot 2592,Sedie Road,Moremi Game Reserve Highway,Maun,Botswana","phones":"","fax":"","email":"","url":"","countryIso2":"BW","countryName":"Botswana","hotelRating":"1","latitude":"-19.9898","longitude":"23.4194","state_id":3065,"state_name":"North-West District","country_id":29},{"active":false,"Giataid":"770828","cityId":null,"cityName":"Gabarone","hotelId":770828,"hotelName":"Falcon Crest Suites","address":"PO Box 4873,Gaborone,Botswana","phones":"+2673935373","fax":"","email":"falconcrest@falconcrest.co.bw","url":"http://www.falconcrest.co.bw","countryIso2":"BW","countryName":"Botswana","hotelRating":"1","latitude":"-24.646","longitude":"25.8928","state_id":null,"state_name":null,"country_id":null},{"active":false,"Giataid":"1080210","cityId":null,"cityName":"Gabarone","hotelId":771146,"hotelName":"Room50Two","address":"Western Commercial RD iTowers CBD,Po Box 339 ABF,Gaborone,Botswana","phones":"","fax":"","email":"","url":"","countryIso2":"BW","countryName":"Botswana","hotelRating":"1","latitude":"-24.646","longitude":"25.8928","state_id":null,"state_name":null,"country_id":null},{"active":false,"Giataid":"774196","cityId":null,"cityName":"Okavango","hotelId":774196,"hotelName":"Jumbo Junction","address":"NG12 Concession,Okavango Delta,Seronga,Botswana","phones":"+26775856213","fax":"","email":"reservations@jumbojunction.com","url":"http://www.jumbojunction.com","countryIso2":"BW","countryName":"Botswana","hotelRating":"1","latitude":"-19.3007","longitude":"22.9219","state_id":null,"state_name":null,"country_id":null},{"active":false,"Giataid":"829908","cityId":null,"cityName":"Gabarone","hotelId":829908,"hotelName":"Yana Bed & Breakfast","address":"Plot 60558 43 Bakgatla Cresent,PO Box 40430,Gaborone,Botswana","phones":"","fax":"","email":"","url":"","countryIso2":"BW","countryName":"Botswana","hotelRating":"1","latitude":"-24.6261","longitude":"25.8929","state_id":null,"state_name":null,"country_id":null},{"active":false,"Giataid":"829934","cityId":null,"cityName":"Gabarone","hotelId":829934,"hotelName":"Linville Bed & Breakfast","address":"Plot 59865 Block 7,Gaborone,Botswana","phones":"","fax":"","email":"","url":"","countryIso2":"BW","countryName":"Botswana","hotelRating":"1","latitude":"-24.646","longitude":"25.8928","state_id":null,"state_name":null,"country_id":null},{"active":false,"Giataid":"829966","cityId":null,"cityName":"Gabarone","hotelId":829966,"hotelName":"Corner Cottage B&B","address":"Boritse Road,Phase 2,Gaborone,Botswana","phones":"","fax":"","email":"","url":"","countryIso2":"BW","countryName":"Botswana","hotelRating":"1","latitude":"-24.646","longitude":"25.8928","state_id":null,"state_name":null,"country_id":null},{"active":false,"Giataid":"834245","cityId":null,"cityName":"Gabarone","hotelId":834245,"hotelName":"Mmalai Guest House","address":"Plot 20801 Batsadi street,Block 3,Gaborone,Botswana","phones":"","fax":"","email":"","url":"","countryIso2":"BW","countryName":"Botswana","hotelRating":"1","latitude":"-24.6337","longitude":"25.899","state_id":null,"state_name":null,"country_id":null},{"active":false,"Giataid":"834254","cityId":null,"cityName":"Gabarone","hotelId":834254,"hotelName":"Khokhamoya Guest House","address":"Plot 18547 Phase 2,New Lobatse,Gaborone,Botswana","phones":"","fax":"","email":"","url":"","countryIso2":"BW","countryName":"Botswana","hotelRating":"1","latitude":"-24.6508","longitude":"25.9022","state_id":null,"state_name":null,"country_id":null},{"active":false,"Giataid":"834272","cityId":null,"cityName":"Gabarone","hotelId":834272,"hotelName":"Ezzela House Bed & Breakfast","address":"Plot 21075 Kgaladua Street,Gaborone,Botswana","phones":"","fax":"","email":"","url":"","countryIso2":"BW","countryName":"Botswana","hotelRating":"1","latitude":"-24.646","longitude":"25.8928","state_id":null,"state_name":null,"country_id":null},{"active":false,"Giataid":"834300","cityId":null,"cityName":"Gabarone","hotelId":834300,"hotelName":"The Farm Bed & Breakfast","address":"Plot 12276 Maboana,Next to Tlokweng,Zeerust Boader,Gaborone,Botswana","phones":"","fax":"","email":"","url":"","countryIso2":"BW","countryName":"Botswana","hotelRating":"1","latitude":"-24.646","longitude":"25.8928","state_id":null,"state_name":null,"country_id":null},{"active":false,"Giataid":"834320","cityId":null,"cityName":"Gabarone","hotelId":834320,"hotelName":"Serenity Lodging Bed & Breakfast","address":"Plot 35023 ATR 42 Drive,Citation Street,Gaborone,Botswana","phones":"","fax":"","email":"","url":"","countryIso2":"BW","countryName":"Botswana","hotelRating":"1","latitude":"-24.646","longitude":"25.8928","state_id":null,"state_name":null,"country_id":null},{"active":false,"Giataid":"834341","cityId":null,"cityName":"Gabarone","hotelId":834341,"hotelName":"Phokoje Bed & Breakfast","address":"Plot 207 Gaborone Stables Road,Gaborone,Botswana","phones":"","fax":"","email":"","url":"","countryIso2":"BW","countryName":"Botswana","hotelRating":"1","latitude":"-24.646","longitude":"25.8928","state_id":null,"state_name":null,"country_id":null},{"active":false,"Giataid":"834355","cityId":null,"cityName":"Gabarone","hotelId":834355,"hotelName":"Blue Olive Bed & Breakfast","address":"28543 Makoba Street,Block 3,Gaborone,Botswana","phones":"","fax":"","email":"","url":"","countryIso2":"BW","countryName":"Botswana","hotelRating":"1","latitude":"-24.646","longitude":"25.8928","state_id":null,"state_name":null,"country_id":null},{"active":false,"Giataid":"834371","cityId":null,"cityName":"Gabarone","hotelId":834371,"hotelName":"Speedway Court","address":"Plot 24121 Block 9,Ntshwabi Crescent,Gaborone,Botswana","phones":"","fax":"","email":"","url":"","countryIso2":"BW","countryName":"Botswana","hotelRating":"1","latitude":"-24.646","longitude":"25.8928","state_id":null,"state_name":null,"country_id":null},{"active":false,"Giataid":"834383","cityId":null,"cityName":"Gabarone","hotelId":834383,"hotelName":"Mews Park Bed & Breakfast","address":"38071 Lemonyana Street,Block 6,Gaborone,Botswana","phones":"","fax":"","email":"","url":"","countryIso2":"BW","countryName":"Botswana","hotelRating":"1","latitude":"-24.646","longitude":"25.8928","state_id":null,"state_name":null,"country_id":null},{"active":false,"Giataid":"834404","cityId":null,"cityName":"Gabarone","hotelId":834404,"hotelName":"Seamless","address":"Plot 34837 GQUO Crescent,Block 8,Gaborone,Botswana","phones":"","fax":"","email":"","url":"","countryIso2":"BW","countryName":"Botswana","hotelRating":"1","latitude":"-24.646","longitude":"25.8928","state_id":null,"state_name":null,"country_id":null},{"active":false,"Giataid":"834415","cityId":null,"cityName":"Gabarone","hotelId":834415,"hotelName":"Stay Easy Inn","address":"Plot 2676 Phiri Crescent,Extension 9,Gaborone,Botswana","phones":"","fax":"","email":"","url":"","countryIso2":"BW","countryName":"Botswana","hotelRating":"1","latitude":"-24.646","longitude":"25.8928","state_id":null,"state_name":null,"country_id":null},{"active":false,"Giataid":"834451","cityId":null,"cityName":"Gabarone","hotelId":834451,"hotelName":"Sunflower Court Bed & Breakfast","address":"Plot 60381 Block 7,Gaborone,Botswana","phones":"","fax":"","email":"","url":"","countryIso2":"BW","countryName":"Botswana","hotelRating":"1","latitude":"-24.646","longitude":"25.8928","state_id":null,"state_name":null,"country_id":null},{"active":false,"Giataid":"834476","cityId":null,"cityName":"Gabarone","hotelId":834476,"hotelName":"Desmelima Bed & Breakfast","address":"Plot 1888 Mmopane,Block 1,Gaborone,Botswana","phones":"","fax":"","email":"","url":"","countryIso2":"BW","countryName":"Botswana","hotelRating":"1","latitude":"-24.646","longitude":"25.8928","state_id":null,"state_name":null,"country_id":null},{"active":false,"Giataid":"834550","cityId":null,"cityName":"Gabarone","hotelId":834550,"hotelName":"The Kleynhans Home","address":"Plot 25 Kolobe Drive,Sentlhane Conservation Area,Gaborone,South East District,Botswana","phones":"+26771377100","fax":"","email":"kleynhans@opqnet.net","url":"http://thekleynhanshome.com","countryIso2":"BW","countryName":"Botswana","hotelRating":"1","latitude":"-24.646","longitude":"25.8928","state_id":null,"state_name":null,"country_id":null},{"active":false,"Giataid":"834556","cityId":null,"cityName":"Gabarone","hotelId":834556,"hotelName":"Earth Bed And Breakfast","address":"Lerala 12707,Broadhurst Taung,Gaborone,Botswana","phones":"","fax":"","email":"","url":"","countryIso2":"BW","countryName":"Botswana","hotelRating":"1","latitude":"-24.646","longitude":"25.8928","state_id":null,"state_name":null,"country_id":null},{"active":false,"Giataid":"834563","cityId":null,"cityName":"Gabarone","hotelId":834563,"hotelName":"Corner Stay","address":"Plot 19812 Boritse Phase 2,Gaborone,Botswana","phones":"","fax":"","email":"","url":"","countryIso2":"BW","countryName":"Botswana","hotelRating":"1","latitude":"-24.646","longitude":"25.8928","state_id":null,"state_name":null,"country_id":null},{"active":false,"Giataid":"834575","cityId":null,"cityName":"Gabarone","hotelId":834575,"hotelName":"Jay Mews Bed & Breakfast","address":"1405 Mmankgodi,Tobgat,Gaborone,Botswana","phones":"","fax":"","email":"","url":"","countryIso2":"BW","countryName":"Botswana","hotelRating":"1","latitude":"-24.646","longitude":"25.8928","state_id":null,"state_name":null,"country_id":null},{"active":false,"Giataid":"834588","cityId":null,"cityName":"Gabarone","hotelId":834588,"hotelName":"The Chancery Guesthouse","address":"Plot 3190 Metlhabeng,Gaborone,Botswana","phones":"","fax":"","email":"","url":"http://www.thechancery.co.bw","countryIso2":"BW","countryName":"Botswana","hotelRating":"1","latitude":"-24.646","longitude":"25.8928","state_id":null,"state_name":null,"country_id":null},{"active":false,"Giataid":"840833","cityId":15771,"cityName":"Mogoditshane","hotelId":840833,"hotelName":"Basanti Guest House","address":"Block 5,PO Box 40331,Mogoditshane,Botswana","phones":"+2673957189","fax":"+2673957189","email":"basantty@yahoo.com","url":"http://basantiguesthouse.wordpress.com","countryIso2":"BW","countryName":"Botswana","hotelRating":"1","latitude":"-24.6273","longitude":"25.87","state_id":3069,"state_name":"Kweneng District","country_id":29},{"active":false,"Giataid":"840861","cityId":null,"cityName":"Tlokweng","hotelId":840861,"hotelName":"Barbie's Bed & Breakfast","address":"Plot 236 Mafitlhakgosi Ward,Tlokweng,Botswana","phones":"","fax":"","email":"info@barbiesbnb.com","url":"http://barbiesbnb.com","countryIso2":"BW","countryName":"Botswana","hotelRating":"1","latitude":"0","longitude":"0","state_id":null,"state_name":null,"country_id":null},{"active":false,"Giataid":"840906","cityId":null,"cityName":"Selebi Phikwe","hotelId":840906,"hotelName":"Jasper","address":"6919 Molwasekgoma Road,Newstance,Selebi-Pikwe,Botswana","phones":"","fax":"","email":"","url":"","countryIso2":"BW","countryName":"Botswana","hotelRating":"1","latitude":"-21.9893","longitude":"27.8367","state_id":null,"state_name":null,"country_id":null},{"active":false,"Giataid":"840960","cityId":null,"cityName":"Gabarone","hotelId":840960,"hotelName":"Golden Door Villa","address":"Plot 34961 Block 8,Gaborone,Botswana","phones":"+2673115505","fax":"","email":"bookings@goldendoorvilla.com","url":"https://www.goldendoorvilla.com/","countryIso2":"BW","countryName":"Botswana","hotelRating":"1","latitude":"-24.646","longitude":"25.8928","state_id":null,"state_name":null,"country_id":null},{"active":false,"Giataid":"841083","cityId":null,"cityName":"Gabarone","hotelId":841083,"hotelName":"Mango House","address":"Plot 43003 Kokonje Road,Phakalane,Gaborone,Botswana","phones":"","fax":"","email":"","url":"","countryIso2":"BW","countryName":"Botswana","hotelRating":"1","latitude":"-24.646","longitude":"25.8928","state_id":null,"state_name":null,"country_id":null},{"active":false,"Giataid":"841092","cityId":null,"cityName":"Gabarone","hotelId":841092,"hotelName":"City Island Bed & Breakfast","address":"Block 3,Gaborone,Botswana","phones":"","fax":"","email":"","url":"","countryIso2":"BW","countryName":"Botswana","hotelRating":"1","latitude":"-24.646","longitude":"25.8928","state_id":null,"state_name":null,"country_id":null},{"active":false,"Giataid":"841113","cityId":15755,"cityName":"Mahalapye","hotelId":841113,"hotelName":"Madiba Inn","address":"Plot 13369 Madiba Road,Mahalapye,Botswana","phones":"","fax":"","email":"","url":"","countryIso2":"BW","countryName":"Botswana","hotelRating":"1","latitude":"-23.1006","longitude":"26.8425","state_id":3067,"state_name":"Central District","country_id":29},{"active":false,"Giataid":"841131","cityId":null,"cityName":"Gabarone","hotelId":841131,"hotelName":"Lape Lodge","address":"Kabelo Way,Gaborone,Botswana","phones":"","fax":"","email":"","url":"","countryIso2":"BW","countryName":"Botswana","hotelRating":"1","latitude":"-24.646","longitude":"25.8928","state_id":null,"state_name":null,"country_id":null},{"active":false,"Giataid":"841168","cityId":null,"cityName":"Gabarone","hotelId":841168,"hotelName":"Linville Suites The Mimosa","address":"Julius Nyerere Drive,Extension 9,Gaborone,Botswana","phones":"","fax":"","email":"","url":"","countryIso2":"BW","countryName":"Botswana","hotelRating":"1","latitude":"-24.646","longitude":"25.8928","state_id":null,"state_name":null,"country_id":null},{"active":false,"Giataid":"841187","cityId":15783,"cityName":"Palapye","hotelId":841187,"hotelName":"Real Favour Suites","address":"Plot 7732 Serorome Ward,Palapye,Botswana","phones":"","fax":"","email":"","url":"","countryIso2":"BW","countryName":"Botswana","hotelRating":"1","latitude":"-22.5456","longitude":"27.1082","state_id":3067,"state_name":"Central District","country_id":29},{"active":false,"Giataid":"841249","cityId":null,"cityName":"Francistown","hotelId":841249,"hotelName":"Wagon Wheels Lodge","address":"Plot 11438 Block 8,PO Box 11762,Francistown,Botswana","phones":"","fax":"","email":"","url":"","countryIso2":"BW","countryName":"Botswana","hotelRating":"1","latitude":"-21.1759","longitude":"27.5203","state_id":null,"state_name":null,"country_id":null},{"active":false,"Giataid":"841273","cityId":null,"cityName":"Tlokweng","hotelId":841273,"hotelName":"Senthaga BnB","address":"Plot 4853 Brinks Road,Kentse Road,Tlokweng,Gaborone,Botswana","phones":"","fax":"","email":"","url":"","countryIso2":"BW","countryName":"Botswana","hotelRating":"1","latitude":"0","longitude":"0","state_id":null,"state_name":null,"country_id":null},{"active":false,"Giataid":"841286","cityId":15783,"cityName":"Palapye","hotelId":841286,"hotelName":"The Vineyard Cottages B&B","address":"Plot 24539,Palapye,Botswana","phones":"","fax":"","email":"","url":"","countryIso2":"BW","countryName":"Botswana","hotelRating":"1","latitude":"-22.5456","longitude":"27.1082","state_id":3067,"state_name":"Central District","country_id":29},{"active":false,"Giataid":"841379","cityId":null,"cityName":"Gabarone","hotelId":841379,"hotelName":"Bridgeville Guest House","address":"Plot 37671 Bohelabatho Crescent,Block 8,Marapoathutlwa,Gaborone,Botswana","phones":"","fax":"","email":"","url":"","countryIso2":"BW","countryName":"Botswana","hotelRating":"1","latitude":"-24.646","longitude":"25.8928","state_id":null,"state_name":null,"country_id":null},{"active":false,"Giataid":"841400","cityId":15783,"cityName":"Palapye","hotelId":841400,"hotelName":"Belle Vue Bed & Breakfast","address":"House 27928 Unnamed Road,Extension 2,Palapye,Botswana","phones":"+2674900191","fax":"","email":"bellevueguesthouse01@gmail.com","url":"http://belle-vue-bed-and-breakfast4.webnode.com","countryIso2":"BW","countryName":"Botswana","hotelRating":"1","latitude":"-22.5456","longitude":"27.1082","state_id":3067,"state_name":"Central District","country_id":29},{"active":false,"Giataid":"850466","cityId":null,"cityName":"Gabarone","hotelId":850466,"hotelName":"Annie's Inn","address":"Chabu Chabu Close plot 32357,Phakalane,Gaborone,Botswana","phones":"","fax":"","email":"","url":"","countryIso2":"BW","countryName":"Botswana","hotelRating":"1","latitude":"-24.646","longitude":"25.8928","state_id":null,"state_name":null,"country_id":null},{"active":false,"Giataid":"485586","cityId":null,"cityName":"Francistown","hotelId":10052306,"hotelName":"Digger Inn","address":"Plot 322/313,St Patrick Street,Village Mall,PO Box 698,Francistown,Botswana","phones":"+2672440544","fax":"","email":"","url":"","countryIso2":"BW","countryName":"Botswana","hotelRating":"3","latitude":"-21.1619","longitude":"27.51","state_id":null,"state_name":null,"country_id":null},{"active":false,"Giataid":"482089","cityId":null,"cityName":"Gabarone","hotelId":10070449,"hotelName":"The Capital Guesthouse","address":"28492 Batsadi Road,Block 3,Gaborone,Botswana","phones":"+2673915905","fax":"","email":"","url":"","countryIso2":"BW","countryName":"Botswana","hotelRating":"4","latitude":"-24.6349","longitude":"25.9002","state_id":null,"state_name":null,"country_id":null},{"active":false,"Giataid":"445413","cityId":null,"cityName":"Gabarone","hotelId":10071691,"hotelName":"Sunbeam Hotel","address":"Plot 148 Mogoditshane Road,Gaborone,Botswana","phones":"+2673500146","fax":"","email":"","url":"","countryIso2":"BW","countryName":"Botswana","hotelRating":"3","latitude":"-24.6121","longitude":"25.8561","state_id":null,"state_name":null,"country_id":null},{"active":false,"Giataid":"478715","cityId":null,"cityName":"Gabarone","hotelId":10072992,"hotelName":"Regent Select Hotel","address":"Plot 74344,Ext 10,PO Box 45006,Gaborone,Botswana","phones":"+2673182572","fax":"","email":"","url":"","countryIso2":"BW","countryName":"Botswana","hotelRating":"3","latitude":"-24.6583","longitude":"25.9128","state_id":null,"state_name":null,"country_id":null},{"active":false,"Giataid":"476162","cityId":15771,"cityName":"Mogoditshane","hotelId":10073328,"hotelName":"Covenant Hotel","address":"Plot 910,Mogoditshane,Botswana","phones":"+2673121178","fax":"","email":"","url":"","countryIso2":"BW","countryName":"Botswana","hotelRating":"3","latitude":"-24.6169","longitude":"25.87","state_id":3069,"state_name":"Kweneng District","country_id":29},{"active":false,"Giataid":"446165","cityId":null,"cityName":"Gabarone","hotelId":10073468,"hotelName":"Gaborone Hotel","address":"37799 Intercity Bus Rank,Gaborone,Botswana","phones":"+2673922777","fax":"","email":"","url":"","countryIso2":"BW","countryName":"Botswana","hotelRating":"1","latitude":"-24.6592","longitude":"25.9038","state_id":null,"state_name":null,"country_id":null},{"active":false,"Giataid":"429095","cityId":15783,"cityName":"Palapye","hotelId":10075863,"hotelName":"Majestic Five Hotel","address":"A1 Highway,Palapye,Botswana","phones":"267-492-1222","fax":"NULL","email":"reserve@majesticfive.co.bw","url":"http://www.majesticfive.co.bw","countryIso2":"BW","countryName":"Botswana","hotelRating":"4","latitude":"-22.5456","longitude":"27.1082","state_id":3067,"state_name":"Central District","country_id":29},{"active":false,"Giataid":"507248","cityId":null,"cityName":"Francistown","hotelId":10100560,"hotelName":"Tshimologo Farm Guest House","address":"Plot 35 Farm NQ 41,Francistown,Botswana","phones":"NULL","fax":"NULL","email":"NULL","url":"NULL","countryIso2":"BW","countryName":"Botswana","hotelRating":"2","latitude":"-21.2142","longitude":"27.5486","state_id":null,"state_name":null,"country_id":null},{"active":false,"Giataid":"510854","cityId":15764,"cityName":"Maun","hotelId":10105903,"hotelName":"Rivernest Boutique Cottages","address":"Matlapana Road,Along Sedie,Maun 1910,Botswana","phones":"+2676840400","fax":"NULL","email":"NULL","url":"NULL","countryIso2":"BW","countryName":"Botswana","hotelRating":"2","latitude":"-19.9426","longitude":"23.483","state_id":3065,"state_name":"North-West District","country_id":29},{"active":false,"Giataid":"522604","cityId":null,"cityName":"Kasane","hotelId":10109778,"hotelName":"Bakwena Lodge","address":"Kwena Road,Old Kazung,Kasane,Botswana","phones":"+2676252812","fax":"NULL","email":"NULL","url":"NULL","countryIso2":"BW","countryName":"Botswana","hotelRating":"2","latitude":"-17.8224","longitude":"25.1874","state_id":null,"state_name":null,"country_id":null},{"active":false,"Giataid":"400822","cityId":null,"cityName":"Jwaneng","hotelId":10116374,"hotelName":"Cresta Jwaneng","address":"Plot 5483 Unit 4,Alongside Trans Kalahari Highway,Mmathethe Road,Jwaneng,Botswana","phones":"+2675881090","fax":"NULL","email":"NULL","url":"NULL","countryIso2":"BW","countryName":"Botswana","hotelRating":"3","latitude":"-24.5922","longitude":"24.7265","state_id":null,"state_name":null,"country_id":null},{"active":false,"Giataid":"144193","cityId":null,"cityName":"Francistown","hotelId":10116376,"hotelName":"Cresta Marang Gardens","address":"Old Gaborone Road,Francistown,Botswana","phones":"+2672413991","fax":"NULL","email":"NULL","url":"NULL","countryIso2":"BW","countryName":"Botswana","hotelRating":"3","latitude":"-21.1974","longitude":"27.5347","state_id":null,"state_name":null,"country_id":null},{"active":false,"Giataid":"430002","cityId":null,"cityName":"Savuti","hotelId":10119319,"hotelName":"Ghoha Hills Savuti Lodge","address":"Chobe National Park,Chobe,Savuti,Botswana","phones":"+26727115164367","fax":"NULL","email":"NULL","url":"NULL","countryIso2":"BW","countryName":"Botswana","hotelRating":"4","latitude":"-18.4372","longitude":"24.2175","state_id":null,"state_name":null,"country_id":null},{"active":false,"Giataid":"510901","cityId":15783,"cityName":"Palapye","hotelId":10126940,"hotelName":"Isabel Guest Suites & Tours","address":"Mokgosi Road,Palapye,Botswana","phones":"NULL","fax":"NULL","email":"NULL","url":"NULL","countryIso2":"BW","countryName":"Botswana","hotelRating":"2","latitude":"-22.5382","longitude":"27.1296","state_id":3067,"state_name":"Central District","country_id":29},{"active":false,"Giataid":"510881","cityId":15764,"cityName":"Maun","hotelId":10127364,"hotelName":"Jump Street Chalets","address":"Kwena Road,Boseja Ward,Maun,Botswana","phones":"+2676864688","fax":"NULL","email":"NULL","url":"NULL","countryIso2":"BW","countryName":"Botswana","hotelRating":"2","latitude":"-20.0111","longitude":"23.4178","state_id":3065,"state_name":"North-West District","country_id":29},{"active":false,"Giataid":"510856","cityId":null,"cityName":"Kasane","hotelId":10128113,"hotelName":"Kwalape Safari Lodge","address":"Main Road,P.O. Box 504,Situated between Kazungula and Kasane,Kasane,Chobe National Park,Botswana","phones":"+2676251181","fax":"NULL","email":"NULL","url":"NULL","countryIso2":"BW","countryName":"Botswana","hotelRating":"2","latitude":"-17.7985","longitude":"25.2177","state_id":null,"state_name":null,"country_id":null},{"active":false,"Giataid":"585394","cityId":null,"cityName":"Gabarone","hotelId":10140321,"hotelName":"Tlotlo Hotel & Conference Center","address":"Plot No.11683,End Of Block 5,P.O Box 201439,Gaborone,Botswana","phones":"+2673935020","fax":"NULL","email":"NULL","url":"NULL","countryIso2":"BW","countryName":"Botswana","hotelRating":"4","latitude":"-24.6454","longitude":"25.8628","state_id":null,"state_name":null,"country_id":null},{"active":false,"Giataid":"38895","cityId":null,"cityName":"Linyanti Area","hotelId":20000565,"hotelName":"Kings Pool Camp","address":"Linyanti,Botswana,Botswana","phones":"","fax":"","email":"enquiry@wilderness.co.za","url":"http://www.wilderness-safaris.com/camps/kings-pool-camp","countryIso2":"BW","countryName":"Botswana","hotelRating":"5","latitude":"-18.4384","longitude":"23.7069","state_id":null,"state_name":null,"country_id":null},{"active":false,"Giataid":"509482","cityId":null,"cityName":"Gabarone","hotelId":20000592,"hotelName":"Broadhurst Inn","address":"Plot 6814, Broadhurst,Gaborone,Botswana","phones":"","fax":"","email":"","url":"","countryIso2":"BW","countryName":"Botswana","hotelRating":"2","latitude":"-24.6354","longitude":"25.9299","state_id":null,"state_name":null,"country_id":null},{"active":false,"Giataid":"38892","cityId":null,"cityName":"Linyanti Area","hotelId":20000674,"hotelName":"Duma Tau","address":"Linyanti,Botswana,Botswana","phones":"","fax":"","email":"enquiry@wilderness.co.za","url":"http://www.wilderness-safaris.com/camps/dumatau-camp","countryIso2":"BW","countryName":"Botswana","hotelRating":"4","latitude":"-18.5248","longitude":"23.5785","state_id":null,"state_name":null,"country_id":null},{"active":false,"Giataid":"584681","cityId":null,"cityName":"Gabarone","hotelId":20000721,"hotelName":"Planet Lodge 1","address":"Plot 514,Southring Road,Ext 4,P o Box 46015,Gaborone,Botswana","phones":"+2673903295","fax":"+2673903229","email":"admin@planetlodges.com","url":"http://www.planetlodges.com/index.php/contact-us.html","countryIso2":"BW","countryName":"Botswana","hotelRating":"1","latitude":"-24.646","longitude":"25.8928","state_id":null,"state_name":null,"country_id":null},{"active":false,"Giataid":"694338","cityId":15764,"cityName":"Maun","hotelId":20000781,"hotelName":"Queness Inn","address":"Plot 1485 Disaneng,Maun,Botswana","phones":"+2676841000","fax":"","email":"quenessinnmaun@gmail.com","url":"http://www.quenessinn.com/","countryIso2":"BW","countryName":"Botswana","hotelRating":"0","latitude":"-19.9765","longitude":"23.4468","state_id":3065,"state_name":"North-West District","country_id":29},{"active":false,"Giataid":"595103","cityId":15764,"cityName":"Maun","hotelId":20000810,"hotelName":"Enviro-Villa Luxury Inn","address":"Xabara,Maun,Botswana","phones":"","fax":"","email":"","url":"","countryIso2":"BW","countryName":"Botswana","hotelRating":"3","latitude":"-20.0228","longitude":"23.4272","state_id":3065,"state_name":"North-West District","country_id":29},{"active":false,"Giataid":"599050","cityId":null,"cityName":"Francistown","hotelId":20000853,"hotelName":"Road View Lodge","address":"On the A1 Road (Gabarone - Francistown),Tati Siding,Francistown,Botswana","phones":"","fax":"","email":"","url":"","countryIso2":"BW","countryName":"Botswana","hotelRating":"3","latitude":"-21.1759","longitude":"27.5203","state_id":null,"state_name":null,"country_id":null},{"active":false,"Giataid":"595085","cityId":null,"cityName":"Francistown","hotelId":20000922,"hotelName":"Kingbed Guest House","address":"CBD,Next to Nzano Centre,Francistown,Botswana","phones":"","fax":"","email":"","url":"","countryIso2":"BW","countryName":"Botswana","hotelRating":"3","latitude":"-21.176","longitude":"27.5105","state_id":null,"state_name":null,"country_id":null},{"active":false,"Giataid":"229814","cityId":15764,"cityName":"Maun","hotelId":20001019,"hotelName":"Maun Lodge","address":"Plot 459,Boseja,Maun,Botswana","phones":"+2676863939","fax":"+2676863969","email":"maun.lodge@info.bw","url":"http://www.maunlodge.com/","countryIso2":"BW","countryName":"Botswana","hotelRating":"1","latitude":"-20.0049","longitude":"23.4279","state_id":3065,"state_name":"North-West District","country_id":29},{"active":false,"Giataid":"613130","cityId":null,"cityName":"Francistown","hotelId":20001132,"hotelName":"Pierre-Yves Cottages","address":"Plot 32418,Garden View,Francistown,Botswana","phones":"","fax":"","email":"","url":"","countryIso2":"BW","countryName":"Botswana","hotelRating":"3","latitude":"-21.1759","longitude":"27.5203","state_id":null,"state_name":null,"country_id":null},{"active":false,"Giataid":"38897","cityId":null,"cityName":"Linyanti Area","hotelId":20001266,"hotelName":"Camp Linyanti","address":"Linyanti Reserve,Chobe National Park,Botswana","phones":"+26727217125285","fax":"","email":"reservations@sundestinations.co.za","url":"http://www.camplinyanti.com/","countryIso2":"BW","countryName":"Botswana","hotelRating":"0","latitude":"-18.348","longitude":"23.8477","state_id":null,"state_name":null,"country_id":null},{"active":false,"Giataid":"529993","cityId":15764,"cityName":"Maun","hotelId":20001432,"hotelName":"Camp Dizhana","address":"Sunrise Motors Complex,Sedia Ward,Maun,Botswana","phones":"+26727153073377","fax":"+26727153075554","email":"info@dizhana.co.za","url":"http://www.dizhana.co.za/","countryIso2":"BW","countryName":"Botswana","hotelRating":"0","latitude":"-19.9765","longitude":"23.4468","state_id":3065,"state_name":"North-West District","country_id":29},{"active":false,"Giataid":"595083","cityId":15764,"cityName":"Maun","hotelId":20001985,"hotelName":"Pacific Conqueror Self Catering Units","address":"Disaneng Ward 2,Maun,Botswana","phones":"","fax":"","email":"","url":"","countryIso2":"BW","countryName":"Botswana","hotelRating":"3","latitude":"-19.9736","longitude":"23.4597","state_id":3065,"state_name":"North-West District","country_id":29},{"active":false,"Giataid":"678459","cityId":15764,"cityName":"Maun","hotelId":20002200,"hotelName":"StayBridge Apartments & Suites","address":"Plot 43 Boseja,P.O Box 21192,Maun,Botswana","phones":"+2676865383","fax":"+2676865398","email":"reservations@staybridgeapartments.com","url":"http://ww.staybridgeapartments.com/","countryIso2":"BW","countryName":"Botswana","hotelRating":"0","latitude":"-19.9765","longitude":"23.4468","state_id":3065,"state_name":"North-West District","country_id":29},{"active":false,"Giataid":"527701","cityId":15795,"cityName":"Serowe","hotelId":20002608,"hotelName":"Serowe Hotel","address":"P.O. Box 150,Main road,Serowe,Botswana","phones":"+2674630234","fax":"","email":"reservations@serowehotel.com","url":"http://serowehotel.com/","countryIso2":"BW","countryName":"Botswana","hotelRating":"0","latitude":"-22.3658","longitude":"26.7322","state_id":3067,"state_name":"Central District","country_id":29},{"active":false,"Giataid":"693984","cityId":null,"cityName":"Gabarone","hotelId":20002825,"hotelName":"Desert Springs","address":"Plot 40890,Block 5,Gaborone,Botswana","phones":"","fax":"","email":"","url":"","countryIso2":"BW","countryName":"Botswana","hotelRating":"3","latitude":"-24.646","longitude":"25.8928","state_id":null,"state_name":null,"country_id":null},{"active":false,"Giataid":"671234","cityId":15764,"cityName":"Maun","hotelId":20003047,"hotelName":"Dolar Lodge","address":"P.O. Box 21839,Plot 5070 Wenela Ward,Maun,Botswana","phones":"","fax":"","email":"","url":"","countryIso2":"BW","countryName":"Botswana","hotelRating":"3","latitude":"-19.9765","longitude":"23.4468","state_id":3065,"state_name":"North-West District","country_id":29},{"active":false,"Giataid":"480435","cityId":null,"cityName":"Gabarone","hotelId":20003241,"hotelName":"Travelodge","address":"Plot 28295 Belabela Street, Block 3,Gaborone,Botswana","phones":"+2673105000","fax":"+2673924082","email":"reservations@travelodge.co.bw","url":"http://www.travelodge.co.bw/","countryIso2":"BW","countryName":"Botswana","hotelRating":"3","latitude":"-24.63","longitude":"25.9021","state_id":null,"state_name":null,"country_id":null},{"active":false,"Giataid":"694322","cityId":null,"cityName":"Gabarone","hotelId":20003428,"hotelName":"Cactus Inn","address":"577 Sefoke Road,Tlokweng Road,Gaborone,Botswana","phones":"","fax":"","email":"","url":"","countryIso2":"BW","countryName":"Botswana","hotelRating":"0","latitude":"-24.6832","longitude":"25.9539","state_id":null,"state_name":null,"country_id":null},{"active":false,"Giataid":"724278","cityId":null,"cityName":"Francistown","hotelId":20003812,"hotelName":"Upper Room Guest House","address":"Plot 15036,CBD Extension,Francistown,Botswana","phones":"","fax":"","email":"","url":"","countryIso2":"BW","countryName":"Botswana","hotelRating":"0","latitude":"-21.1759","longitude":"27.5203","state_id":null,"state_name":null,"country_id":null},{"active":false,"Giataid":"724293","cityId":null,"cityName":"Francistown","hotelId":20003981,"hotelName":"Sharon Avenue Guesthouse","address":"Plot 20948,Mornach,Phase 5,Francistown,Botswana","phones":"","fax":"","email":"sharonavenuegh@gmail.com","url":"http://www.sharonavenueguesthouse.com","countryIso2":"BW","countryName":"Botswana","hotelRating":"0","latitude":"-21.1759","longitude":"27.5203","state_id":null,"state_name":null,"country_id":null},{"active":false,"Giataid":"694217","cityId":null,"cityName":"Gabarone","hotelId":20004126,"hotelName":"Purix House","address":"Plot 20352 Phase 2 CBD,Gaborone,Botswana","phones":"","fax":"","email":"","url":"","countryIso2":"BW","countryName":"Botswana","hotelRating":"3","latitude":"-24.646","longitude":"25.8928","state_id":null,"state_name":null,"country_id":null},{"active":false,"Giataid":"694016","cityId":null,"cityName":"Gabarone","hotelId":20004287,"hotelName":"Overflow Guest House","address":"Plot 3721 Sefoke,Tlokweng,Gaborone,Botswana","phones":"+2673932636","fax":"","email":"overflowguesthouse@gmail.com","url":"http://www.overflowguesthousebw.com/","countryIso2":"BW","countryName":"Botswana","hotelRating":"3","latitude":"-24.6831","longitude":"25.9566","state_id":null,"state_name":null,"country_id":null},{"active":false,"Giataid":"584753","cityId":null,"cityName":"Gabarone","hotelId":20004468,"hotelName":"Waterside Cottages","address":"108C Crocodile Way,Ranku,Gaborone,Botswana","phones":"","fax":"","email":"","url":"","countryIso2":"BW","countryName":"Botswana","hotelRating":"0","latitude":"-24.7669","longitude":"25.8455","state_id":null,"state_name":null,"country_id":null},{"active":false,"Giataid":"580450","cityId":15764,"cityName":"Maun","hotelId":20004697,"hotelName":"Senthaga Guest House & Safaris","address":"PO Box 350015,Maun,Botswana","phones":"+2676863793","fax":"","email":"senthaga.reservations@gmail.com","url":"http://www.sentlhaga.com/","countryIso2":"BW","countryName":"Botswana","hotelRating":"0","latitude":"-19.995","longitude":"23.4181","state_id":3065,"state_name":"North-West District","country_id":29},{"active":false,"Giataid":"678334","cityId":15755,"cityName":"Mahalapye","hotelId":20004829,"hotelName":"Gaetsho Lodge","address":"Along A1 Highway,After Watershed Plaza,Mahalapye,Botswana","phones":"","fax":"","email":"","url":"","countryIso2":"BW","countryName":"Botswana","hotelRating":"0","latitude":"-23.1093","longitude":"26.8342","state_id":3067,"state_name":"Central District","country_id":29},{"active":false,"Giataid":"678347","cityId":15783,"cityName":"Palapye","hotelId":20004990,"hotelName":"Sahara Stones Hotel","address":"Along A1 Highway,Palapye,Botswana","phones":"","fax":"","email":"","url":"","countryIso2":"BW","countryName":"Botswana","hotelRating":"0","latitude":"-22.5871","longitude":"27.0814","state_id":3067,"state_name":"Central District","country_id":29},{"active":false,"Giataid":"584781","cityId":null,"cityName":"Gabarone","hotelId":20005144,"hotelName":"Leopard Lengau Lodge","address":"B111 Road,Ranku,Gaborone,Botswana","phones":"","fax":"","email":"","url":"","countryIso2":"BW","countryName":"Botswana","hotelRating":"2","latitude":"-24.7532","longitude":"25.6734","state_id":null,"state_name":null,"country_id":null},{"active":false,"Giataid":"298809","cityId":15737,"cityName":"Ghanzi","hotelId":20005316,"hotelName":"Tautona Lodge","address":"P.O. Box 888,Ghanzi,Botswana","phones":"+2676597499","fax":"+2676597500","email":"info@tautonalodge.com","url":"http://www.tautonalodge.com/","countryIso2":"BW","countryName":"Botswana","hotelRating":"0","latitude":"-21.7047","longitude":"21.7018","state_id":3061,"state_name":"Ghanzi District","country_id":29},{"active":false,"Giataid":"595092","cityId":15796,"cityName":"Shakawe","hotelId":20005466,"hotelName":"Ditlhapi Guest House","address":"Gaoxa Village,Shakawe,Botswana","phones":"","fax":"","email":"","url":"","countryIso2":"BW","countryName":"Botswana","hotelRating":"0","latitude":"-18.3953","longitude":"21.8539","state_id":3065,"state_name":"North-West District","country_id":29},{"active":false,"Giataid":"47453","cityId":null,"cityName":"Linyanti Area","hotelId":20005616,"hotelName":"Kwando Lebala Camp","address":"Linyanti Marshes,Kwando Concession,Botswana","phones":"+2676861449","fax":"+2676861457","email":"info@kwando.co.bw","url":"http://www.kwando.com/lebala.html","countryIso2":"BW","countryName":"Botswana","hotelRating":"3","latitude":"-18.358","longitude":"23.526","state_id":null,"state_name":null,"country_id":null},{"active":false,"Giataid":"298785","cityId":15737,"cityName":"Ghanzi","hotelId":20006015,"hotelName":"Dqae Qare San Lodge","address":"PO Box 605,Ghanzi,Botswana","phones":"+26772527321","fax":"","email":"dqaeqare@gmail.com","url":"http://www.dqae.org/","countryIso2":"BW","countryName":"Botswana","hotelRating":"0","latitude":"-21.635","longitude":"21.8176","state_id":3061,"state_name":"Ghanzi District","country_id":29},{"active":false,"Giataid":"671898","cityId":15764,"cityName":"Maun","hotelId":20006194,"hotelName":"Peo Luxury Apartments","address":"P.O. Box 10008,Matlapana Ward,Maun,Botswana","phones":"","fax":"","email":"","url":"","countryIso2":"BW","countryName":"Botswana","hotelRating":"3","latitude":"-19.9393","longitude":"23.4948","state_id":3065,"state_name":"North-West District","country_id":29},{"active":false,"Giataid":"678332","cityId":15764,"cityName":"Maun","hotelId":20006334,"hotelName":"Motsebe Backpackers","address":"Plot 11159 Koro Road,Wenela,Maun,Botswana","phones":"","fax":"","email":"","url":"","countryIso2":"BW","countryName":"Botswana","hotelRating":"0","latitude":"-19.9765","longitude":"23.4468","state_id":3065,"state_name":"North-West District","country_id":29},{"active":false,"Giataid":"692525","cityId":null,"cityName":"Francistown","hotelId":20006519,"hotelName":"Inca-Rose Guest House","address":"Plot 20562,Molapo Estates,Francistown,Botswana","phones":"","fax":"","email":"","url":"","countryIso2":"BW","countryName":"Botswana","hotelRating":"0","latitude":"-21.1759","longitude":"27.5203","state_id":null,"state_name":null,"country_id":null},{"active":false,"Giataid":"678583","cityId":15755,"cityName":"Mahalapye","hotelId":20006700,"hotelName":"Moko Motel","address":"3268 Along A1 Highway,Mahalapye,Botswana","phones":"","fax":"","email":"","url":"http://www.hotels.com/ho633334","countryIso2":"BW","countryName":"Botswana","hotelRating":"0","latitude":"-23.1006","longitude":"26.8425","state_id":3067,"state_name":"Central District","country_id":29},{"active":false,"Giataid":"668023","cityId":15764,"cityName":"Maun","hotelId":20006814,"hotelName":"Audi Camp","address":"Road to Moremi Game Reserve,P.O Box 21439,Maun,North-West District,Botswana","phones":"","fax":"","email":"","url":"http://www.audicamp.com/","countryIso2":"BW","countryName":"Botswana","hotelRating":"0","latitude":"-19.9765","longitude":"23.4468","state_id":3065,"state_name":"North-West District","country_id":29},{"active":false,"Giataid":"671214","cityId":15764,"cityName":"Maun","hotelId":20007111,"hotelName":"Airport Hotel Maun","address":"Plot 515,Light Industrial Area,Maun Airport Center,Maun,Botswana","phones":"","fax":"","email":"","url":"","countryIso2":"BW","countryName":"Botswana","hotelRating":"3","latitude":"-19.9762","longitude":"23.4282","state_id":3065,"state_name":"North-West District","country_id":29},{"active":false,"Giataid":"678631","cityId":null,"cityName":"Gabarone","hotelId":20007250,"hotelName":"Room 50 Two","address":"Plot 54368,ITower South,Gaborone,Botswana","phones":"","fax":"","email":"","url":"http://www.hotels.com/ho688776","countryIso2":"BW","countryName":"Botswana","hotelRating":"3","latitude":"-24.6479","longitude":"25.9052","state_id":null,"state_name":null,"country_id":null},{"active":false,"Giataid":"678336","cityId":15795,"cityName":"Serowe","hotelId":20007440,"hotelName":"White Palace Hotel","address":"Plot 2083 Along Main Road,Mere Ward,A14 Highway,Serowe,Botswana","phones":"","fax":"","email":"","url":"","countryIso2":"BW","countryName":"Botswana","hotelRating":"0","latitude":"-22.3658","longitude":"26.7322","state_id":3067,"state_name":"Central District","country_id":29},{"active":false,"Giataid":"694114","cityId":null,"cityName":"Gabarone","hotelId":20007613,"hotelName":"Exec Closets Hotel","address":"Plot 2134 Pholokabatho Road,Ext 17,Gaborone,Botswana","phones":"","fax":"","email":"","url":"","countryIso2":"BW","countryName":"Botswana","hotelRating":"3","latitude":"-24.6773","longitude":"25.8806","state_id":null,"state_name":null,"country_id":null},{"active":false,"Giataid":"694574","cityId":null,"cityName":"Gabarone","hotelId":20007719,"hotelName":"Strand Meadows B&B","address":"Plot 60446 Koi Street,Block 7,Gaborone,Botswana","phones":"","fax":"","email":"","url":"","countryIso2":"BW","countryName":"Botswana","hotelRating":"3","latitude":"-24.6281","longitude":"25.897","state_id":null,"state_name":null,"country_id":null},{"active":false,"Giataid":"584740","cityId":null,"cityName":"Gabarone","hotelId":20007918,"hotelName":"Hana Guest House Lodge","address":"Plot 5143 Oodi Crescent,Village Ext 15,Gaborone,Botswana","phones":"","fax":"","email":"","url":"","countryIso2":"BW","countryName":"Botswana","hotelRating":"0","latitude":"-24.6691","longitude":"25.9327","state_id":null,"state_name":null,"country_id":null},{"active":false,"Giataid":"678333","cityId":15795,"cityName":"Serowe","hotelId":20008058,"hotelName":"Ronberry Guest Lodge","address":"Plot 656 Mathiba Ward,Serowe,Botswana","phones":"","fax":"","email":"","url":"","countryIso2":"BW","countryName":"Botswana","hotelRating":"0","latitude":"-22.3658","longitude":"26.7322","state_id":3067,"state_name":"Central District","country_id":29},{"active":false,"Giataid":"535007","cityId":null,"cityName":"Gabarone","hotelId":20008266,"hotelName":"Brackendene Lodge Extension 2","address":"Plot 793 Tati Road,Gaborone,0000,Botswana","phones":"","fax":"","email":"","url":"","countryIso2":"BW","countryName":"Botswana","hotelRating":"0","latitude":"-24.6603","longitude":"25.919","state_id":null,"state_name":null,"country_id":null},{"active":false,"Giataid":"671253","cityId":15764,"cityName":"Maun","hotelId":20008364,"hotelName":"Kessa's Chalets","address":"23 Boseja Ward,PO Box 38,Maun,Botswana","phones":"","fax":"","email":"","url":"","countryIso2":"BW","countryName":"Botswana","hotelRating":"3","latitude":"-19.9939","longitude":"23.4521","state_id":3065,"state_name":"North-West District","country_id":29},{"active":false,"Giataid":"694078","cityId":15764,"cityName":"Maun","hotelId":20008547,"hotelName":"D&K Guest House","address":"77721 Maun Boseja,Boseja-Kubung Ward,Behind Maun Senior,Maun,Botswana","phones":"","fax":"","email":"","url":"","countryIso2":"BW","countryName":"Botswana","hotelRating":"0","latitude":"-19.9765","longitude":"23.4468","state_id":3065,"state_name":"North-West District","country_id":29},{"active":false,"Giataid":"694122","cityId":null,"cityName":"Gabarone","hotelId":20008702,"hotelName":"Hotel LaBama","address":"Plot 54047 Litabi Way,Block 6,Gaborone,Botswana","phones":"+2673924214","fax":"+2673924280","email":"reservations@hotellabama.co.bw","url":"http://www.hotellabama.co.bw/","countryIso2":"BW","countryName":"Botswana","hotelRating":"2","latitude":"-24.632","longitude":"25.8855","state_id":null,"state_name":null,"country_id":null},{"active":false,"Giataid":"298783","cityId":15737,"cityName":"Ghanzi","hotelId":20008852,"hotelName":"Kanana Motswiri Lodge","address":"PO Box 962,Ghanzi,Botswana","phones":"+26772118811","fax":"","email":"claire@kanana.info","url":"http://www.kanana.info/mot.html","countryIso2":"BW","countryName":"Botswana","hotelRating":"0","latitude":"-21.6511","longitude":"21.411","state_id":3061,"state_name":"Ghanzi District","country_id":29},{"active":false,"Giataid":"298802","cityId":null,"cityName":"Okavango","hotelId":20009020,"hotelName":"Nguma Island Lodge","address":"Ghanzi,Okavango-Delta,Botswana","phones":"+2676830159","fax":"+2676830158","email":"nguma@dynabyte.bw","url":"http://www.ngumalodge.com/","countryIso2":"BW","countryName":"Botswana","hotelRating":"0","latitude":"-18.9539","longitude":"22.3734","state_id":null,"state_name":null,"country_id":null},{"active":false,"Giataid":"593682","cityId":null,"cityName":"Francistown","hotelId":20009150,"hotelName":"Wells Guest House","address":"Kazungula Road,Beatrix Crescent Area 7,Francistown,Botswana","phones":"","fax":"","email":"","url":"","countryIso2":"BW","countryName":"Botswana","hotelRating":"0","latitude":"-21.1984","longitude":"27.5135","state_id":null,"state_name":null,"country_id":null},{"active":false,"Giataid":"298920","cityId":15737,"cityName":"Ghanzi","hotelId":20010013,"hotelName":"Kalahari Arms Hotel","address":"Corner  Vice and Jankie,PO Box 29,Ghanz,Botswana","phones":"+2676596298","fax":"+2676596311","email":"","url":"http://www.kalahariarmshotel.com/index.php?p=1","countryIso2":"BW","countryName":"Botswana","hotelRating":"0","latitude":"-21.5776","longitude":"21.8016","state_id":3061,"state_name":"Ghanzi District","country_id":29},{"active":false,"Giataid":"692478","cityId":15764,"cityName":"Maun","hotelId":20010165,"hotelName":"Larissa Hotel","address":"Plot 123 Maun,Sedie Road,Moremi Game Reserve Highway,Maun,Botswana","phones":"","fax":"","email":"info@larissahotelmaun.info","url":"http://larissahotelmaun.info","countryIso2":"BW","countryName":"Botswana","hotelRating":"3","latitude":"-19.9765","longitude":"23.4468","state_id":3065,"state_name":"North-West District","country_id":29},{"active":false,"Giataid":"584771","cityId":15764,"cityName":"Maun","hotelId":20010290,"hotelName":"Tshima Bush Camp","address":"Ngamiland,P.O. box HA 62 HAK,Maun,Botswana","phones":"+26774842079","fax":"","email":"info@tshimabushcamp.com","url":"http://www.tshimabushcamp.com/","countryIso2":"BW","countryName":"Botswana","hotelRating":"0","latitude":"-20.1906","longitude":"23.2399","state_id":3065,"state_name":"North-West District","country_id":29},{"active":false,"Giataid":"546126","cityId":null,"cityName":"Khwai","hotelId":20010434,"hotelName":"Mogotlho Safari Lodge","address":"NG 41 Concession,North-East Wildlife Area,Chobe National Park,Khwai,Botswana","phones":"+2676860968","fax":"","email":"oksafaris@iafrica.com","url":"http://www.mogotlhosafarilodge.co.za/","countryIso2":"BW","countryName":"Botswana","hotelRating":"2","latitude":"-19.2195","longitude":"23.9602","state_id":null,"state_name":null,"country_id":null},{"active":false,"Giataid":"671265","cityId":null,"cityName":"Gabarone","hotelId":20010596,"hotelName":"StayWell Hotels","address":"Mogoditshane Road,Plot 5414,Gaborone,Botswana","phones":"+2673933958","fax":"+2673933974","email":"info@staywell.co.bw","url":"http://www.staywell.co.bw/","countryIso2":"BW","countryName":"Botswana","hotelRating":"4","latitude":"-24.646","longitude":"25.8928","state_id":null,"state_name":null,"country_id":null},{"active":false,"Giataid":"603086","cityId":15764,"cityName":"Maun","hotelId":20010715,"hotelName":"Mokoro Lodge","address":"Plot 1228,Boseja,Maun,Botswana","phones":"+2676800551","fax":"","email":"","url":"http://www.mokorolodge.com/","countryIso2":"BW","countryName":"Botswana","hotelRating":"2","latitude":"-20.0271","longitude":"23.4375","state_id":3065,"state_name":"North-West District","country_id":29},{"active":false,"Giataid":"142371","cityId":null,"cityName":"Linyanti Area","hotelId":20010861,"hotelName":"Linyanti Bush Camp","address":"Linyanti Camp,Linyanti Wildlife Reserve,Chobe National Park,Botswana","phones":"","fax":"","email":"","url":"http://www.africanbushcamps.com/camps-safaris/botswana/linyanti-bush-camp/","countryIso2":"BW","countryName":"Botswana","hotelRating":"3","latitude":"-18.2471","longitude":"23.9592","state_id":null,"state_name":null,"country_id":null},{"active":false,"Giataid":"667176","cityId":null,"cityName":"Linyanti Area","hotelId":20011136,"hotelName":"Duma Tau Camp","address":"Close to Linyanti Mars,Linyanti,Linyanti Game Reserve,Botswana","phones":"","fax":"","email":"info@mirusjourneys.com","url":"https://mirusjourneys.com/africa/botswana/linyanti/duma-tau-camp","countryIso2":"BW","countryName":"Botswana","hotelRating":"0","latitude":"-18.3798","longitude":"23.7451","state_id":null,"state_name":null,"country_id":null},{"active":false,"Giataid":"688729","cityId":null,"cityName":"Francistown","hotelId":20011235,"hotelName":"City Inn Lodge","address":"Plot 516 Khama Street,Francistown,Botswana","phones":"","fax":"","email":"","url":"","countryIso2":"BW","countryName":"Botswana","hotelRating":"0","latitude":"-21.1615","longitude":"27.5108","state_id":null,"state_name":null,"country_id":null},{"active":false,"Giataid":"595075","cityId":null,"cityName":"Francistown","hotelId":20011369,"hotelName":"Woodlands Stop Over and Lodge","address":"Plots 9/10/11,NQ24 Gerald Estates,Francistown,Botswana","phones":"+2672440131","fax":"+2672440132","email":"info@woodlandsbotswana.com","url":"http://www.woodlandscampingbots.com/","countryIso2":"BW","countryName":"Botswana","hotelRating":"2","latitude":"-21.0815","longitude":"27.4639","state_id":null,"state_name":null,"country_id":null},{"active":false,"Giataid":"671239","cityId":15764,"cityName":"Maun","hotelId":20011458,"hotelName":"Kesmo Lodge","address":"PO Box 250200,Plot 649,Chobe Ward,Maun,Botswana","phones":"+2676865611","fax":"+2676865612","email":"","url":"https://www.facebook.com/pg/kesmolodge.maubout/?ref=page_internal","countryIso2":"BW","countryName":"Botswana","hotelRating":"3","latitude":"-19.9783","longitude":"23.4401","state_id":3065,"state_name":"North-West District","country_id":29},{"active":false,"Giataid":"530673","cityId":15764,"cityName":"Maun","hotelId":20011593,"hotelName":"Island Safari Lodge","address":"Old Matlapaneng Bridge,Maun,Botswana","phones":"+2676860300","fax":"+2676862932","email":"enquire@africansecrets.net","url":"http://www.islmaun.com","countryIso2":"BW","countryName":"Botswana","hotelRating":"2","latitude":"-19.9245","longitude":"23.5087","state_id":3065,"state_name":"North-West District","country_id":29},{"active":false,"Giataid":"692539","cityId":15795,"cityName":"Serowe","hotelId":20011867,"hotelName":"Hill View Inn","address":"Plot 8404 Serowe,Behind Sekgoma Memorial Hospital,Serowe,Botswana","phones":"+2674630768","fax":"+2674630160","email":"info@hillviewguesthouse.com","url":"http://hillviewguesthouse.com","countryIso2":"BW","countryName":"Botswana","hotelRating":"0","latitude":"-22.3658","longitude":"26.7322","state_id":3067,"state_name":"Central District","country_id":29},{"active":false,"Giataid":"724479","cityId":null,"cityName":"Francistown","hotelId":20011999,"hotelName":"Den View Guest House","address":"Plot 32455 Garden View,Francistown,Botswana,Botswana","phones":"","fax":"","email":"","url":"","countryIso2":"BW","countryName":"Botswana","hotelRating":"0","latitude":"-21.1759","longitude":"27.5203","state_id":null,"state_name":null,"country_id":null},{"active":false,"Giataid":"692471","cityId":null,"cityName":"Francistown","hotelId":20012123,"hotelName":"Exotica Guest Lodge","address":"Donga Extension-Sikane Street,Francistown,North East District,Botswana","phones":"","fax":"","email":"","url":"","countryIso2":"BW","countryName":"Botswana","hotelRating":"0","latitude":"-21.1759","longitude":"27.5203","state_id":null,"state_name":null,"country_id":null},{"active":false,"Giataid":"694132","cityId":null,"cityName":"Gabarone","hotelId":20012261,"hotelName":"Dihate Guest House","address":"Plot 32339 George Sim Crescent,Kgaphamadi,Phakalane,Gaborone,Botswana","phones":"","fax":"","email":"","url":"","countryIso2":"BW","countryName":"Botswana","hotelRating":"3","latitude":"-24.646","longitude":"25.8928","state_id":null,"state_name":null,"country_id":null},{"active":false,"Giataid":"694193","cityId":15764,"cityName":"Maun","hotelId":20012370,"hotelName":"Laha Hotel","address":"Plot 5061 New Boseja Road,Plot 5061,Route 8,Maun,Botswana","phones":"+2676800352","fax":"+2676800355","email":"reservations@lahahotel.com","url":"http://www.lahahotel.com","countryIso2":"BW","countryName":"Botswana","hotelRating":"0","latitude":"-20.014","longitude":"23.4381","state_id":3065,"state_name":"North-West District","country_id":29},{"active":false,"Giataid":"694573","cityId":null,"cityName":"Gabarone","hotelId":20012437,"hotelName":"Vintage View Guest House","address":"Plot 5561 Kabole Street,Gaborone,Botswana","phones":"","fax":"","email":"","url":"","countryIso2":"BW","countryName":"Botswana","hotelRating":"3","latitude":"-24.6423","longitude":"25.9147","state_id":null,"state_name":null,"country_id":null},{"active":false,"Giataid":"671260","cityId":null,"cityName":"Gabarone","hotelId":20012558,"hotelName":"Peter's Place","address":"Plot 22290,Phase 4,Gaborone,South-East District,Botswana","phones":"+2673937162","fax":"","email":"info@petersplacebw.com","url":"http://www.petersplacebw.com/","countryIso2":"BW","countryName":"Botswana","hotelRating":"3","latitude":"-24.6551","longitude":"25.9191","state_id":null,"state_name":null,"country_id":null},{"active":false,"Giataid":"584822","cityId":null,"cityName":"Gabarone","hotelId":20012676,"hotelName":"Regent Lodge","address":"Plot 51456,Kgale view Gaborone,Botswana","phones":"+2673904536","fax":"+2673904534","email":"lodge@regentselect.co.bw","url":"http://www.regentselect.co.bw/lodge.php","countryIso2":"BW","countryName":"Botswana","hotelRating":"0","latitude":"-24.6809","longitude":"25.8722","state_id":null,"state_name":null,"country_id":null},