[{"active":false,"Giataid":"10049","cityId":32393,"cityName":"Antigua","hotelId":10049,"hotelName":"Casa Santo Domingo","address":"3a Calle Oriente No. 28A,Antigua,Guatemala,Guatemala","phones":"+50278201222","fax":"+50278201221","email":"concierge@casasantodomingo.com.gt","url":"https://www.casasantodomingo.com.gt/","countryIso2":"GT","countryName":"Guatemala","hotelRating":"4","latitude":"14.5594","longitude":"-90.7282","state_id":1185,"state_name":"Canary Islands","country_id":207},{"active":false,"Giataid":"14112","cityId":53500,"cityName":"Guatemala City","hotelId":14112,"hotelName":"Holiday Inn Guatemala","address":"Primera Avenida 13-22,Guatemala City 01010,Guatemala","phones":"+50224210000","fax":"+50224210025","email":"reservaciones@hinn.com.gt","url":"http://www.holidayinn.com/hotels/de/de/guatemala-city/guact/hoteldetail","countryIso2":"GT","countryName":"Guatemala","hotelRating":"3","latitude":"14.5993","longitude":"-90.5157","state_id":3672,"state_name":"Guatemala Department","country_id":90},{"active":false,"Giataid":"24224","cityId":53500,"cityName":"Guatemala City","hotelId":24224,"hotelName":"Clarion Suites","address":"14 Street 3-08 Zona 10,01010 Guatemala City,Guatemala","phones":"+50224213333","fax":"+50223635766","email":"","url":"http://www.clarionhotel.com/hotel-guatemala_city-guatemala-GT001","countryIso2":"GT","countryName":"Guatemala","hotelRating":"3","latitude":"14.5977","longitude":"-90.5137","state_id":3672,"state_name":"Guatemala Department","country_id":90},{"active":false,"Giataid":"27078","cityId":32393,"cityName":"Antigua","hotelId":27078,"hotelName":"Villa Colonial","address":"Alameda del Calvario No 28,Antigua Guatemala,Sacatep?quez,Guatemala","phones":"+50277203100","fax":"+50278321054","email":"info@villasdeguatemala.com","url":"http://www.villasdeguatemala.com/hoteles","countryIso2":"GT","countryName":"Guatemala","hotelRating":"4","latitude":"14.5461","longitude":"-90.7306","state_id":1185,"state_name":"Canary Islands","country_id":207},{"active":false,"Giataid":"27081","cityId":11830,"cityName":"Flores","hotelId":27081,"hotelName":"Villa Maya","address":"Flores,alternative: Laguna Petenchel Tikal, Peten,Guatemala","phones":"+50222235000","fax":"+50223348134","email":"info@villasdeguatemala.com","url":"http://www.villasdeguatemala.com/indexeng.html","countryIso2":"GT","countryName":"Guatemala","hotelRating":"3","latitude":"16.9167","longitude":"-89.8294","state_id":2006,"state_name":"Pernambuco","country_id":31},{"active":false,"Giataid":"27082","cityId":53500,"cityName":"Guatemala City","hotelId":27082,"hotelName":"The Westin Camino Real, Guatemala","address":"Avenida la Reforma y 14 Calle,Zona 10,01010 Ciudad de Guatemala,Guatemala","phones":"+50223333000","fax":"+50223374313","email":"reservaciones@caminoreal.com.gt","url":"http://www.hotelcaminoreal.com.gt/","countryIso2":"GT","countryName":"Guatemala","hotelRating":"4","latitude":"14.5981","longitude":"-90.5162","state_id":3672,"state_name":"Guatemala Department","country_id":90},{"active":false,"Giataid":"27084","cityId":53500,"cityName":"Guatemala City","hotelId":27084,"hotelName":"Barcelo Guatemala City","address":"7? Avenida 15-45 Zona 9,01009 Guatemala City,Guatemala","phones":"+50223784000","fax":"+50223204002","email":"guatemalacity@barcelo.com","url":"http://www.barcelo.com/BarceloHotels/de_DE/hotels/Guatemala/Guatemala-City/hotel-barcelo-guatemala-city/Beschreibung-allgemein.aspx","countryIso2":"GT","countryName":"Guatemala","hotelRating":"5","latitude":"14.5974","longitude":"-90.5192","state_id":3672,"state_name":"Guatemala Department","country_id":90},{"active":false,"Giataid":"27085","cityId":53634,"cityName":"Puerto Barrios","hotelId":27085,"hotelName":"Amatique Bay Resort & Marina","address":"14 Calle Final,Finca Pichilingo,Puerto Barrios,Izabal,Guatemala","phones":"+50279310000","fax":"+50279481823","email":"ventas@amatiquebay.net","url":"http://www.amatiquebay.net/","countryIso2":"GT","countryName":"Guatemala","hotelRating":"4","latitude":"15.7479","longitude":"-88.5805","state_id":3659,"state_name":"Izabal Department","country_id":90},{"active":false,"Giataid":"31800","cityId":null,"cityName":"Atitlan","hotelId":31800,"hotelName":"Porta del Lago","address":"2a Avenida 6-17,Zona 2,Panajachel,Solola,Solol?,Guatemala","phones":"+50277621555","fax":"+50277621562","email":"info@portahotels.com","url":"http://www.portahotels.com/content/welcome-porta-hotel-del-lago","countryIso2":"GT","countryName":"Guatemala","hotelRating":"4","latitude":"14.7375","longitude":"-91.1595","state_id":null,"state_name":null,"country_id":null},{"active":false,"Giataid":"129516","cityId":53634,"cityName":"Puerto Barrios","hotelId":129516,"hotelName":"Green Bay Resort","address":"Carretera A Livingston-Aldea Las Pavas km 8,Aldea Las Pavas,Puerto Barrios,Guatemala","phones":"","fax":"","email":"","url":"","countryIso2":"GT","countryName":"Guatemala","hotelRating":"4","latitude":"15.7252","longitude":"-88.5846","state_id":3659,"state_name":"Izabal Department","country_id":90},{"active":false,"Giataid":"136363","cityId":53500,"cityName":"Guatemala City","hotelId":136363,"hotelName":"Vista Real Guatemala","address":"KM 9.5,Oriente Complejo Vista Real,01015 Guatemala City,Guatemala","phones":"","fax":"","email":"cmorales@vistareal.com","url":"http://www.preferredhotels.com/hotel.aspx?ekid=36964","countryIso2":"GT","countryName":"Guatemala","hotelRating":"5","latitude":"14.5804","longitude":"-90.4905","state_id":3672,"state_name":"Guatemala Department","country_id":90},{"active":false,"Giataid":"137470","cityId":1456,"cityName":"Santa Elena","hotelId":137470,"hotelName":"Hotel Del Patio","address":"2a Calle,Esquina 8a Avenida,Zona 1,Flores,Santa Elena,Guatemala,Pet?n,Guatemala","phones":"+50223333000","fax":"","email":"","url":"","countryIso2":"GT","countryName":"Guatemala","hotelRating":"3","latitude":"16.9218","longitude":"-89.8898","state_id":3654,"state_name":"Entre Rios","country_id":11},{"active":false,"Giataid":"139157","cityId":32393,"cityName":"Antigua","hotelId":139157,"hotelName":"Palacio De Dona Leonor","address":"4a Calle Oriente No.8,03001 Antigua Guatemala,Guatemala","phones":"+50278322281","fax":"+50278320226","email":"reservaciones@palaciodeleonor.com","url":"http://www.palaciodeleonor.com/","countryIso2":"GT","countryName":"Guatemala","hotelRating":"4","latitude":"14.5575","longitude":"-90.7326","state_id":1185,"state_name":"Canary Islands","country_id":207},{"active":false,"Giataid":"139159","cityId":53500,"cityName":"Guatemala City","hotelId":139159,"hotelName":"Hotel Pan American","address":"9a Calle 5-63,Zona 1,Centro Historico,01001 Guatemala Ciudad (City),Guatemala,Centroam?rica,Guatemala","phones":"+50222440850","fax":"+50222326402","email":"info@hotelpanamerican.com.gt","url":"http://www.hotelpanamerican.com.gt/startpage/","countryIso2":"GT","countryName":"Guatemala","hotelRating":"2","latitude":"14.6405","longitude":"-90.5142","state_id":3672,"state_name":"Guatemala Department","country_id":90},{"active":false,"Giataid":"139262","cityId":53619,"cityName":"Panajachel","hotelId":139262,"hotelName":"Regis","address":"Calle Santander,3a Avenida 3-47,Zona 2,Panajachel,Solol?,Guatemala","phones":"+50222440800","fax":"","email":"","url":"","countryIso2":"GT","countryName":"Guatemala","hotelRating":"2","latitude":"14.7422","longitude":"-91.1583","state_id":3661,"state_name":"Solola Department","country_id":90},{"active":false,"Giataid":"141672","cityId":53500,"cityName":"Guatemala City","hotelId":141672,"hotelName":"Mercure Casa Veranda","address":"12 calle 1 24 zona 10,01010 Guatemala City,Guatemala","phones":"+50224114100","fax":"+50224114117","email":"casaveranda@accor.com","url":"http://www.mercure.com/gb/hotel-6304-mercure-casa-veranda-guatemala/index.shtml","countryIso2":"GT","countryName":"Guatemala","hotelRating":"4","latitude":"14.6009","longitude":"-90.5158","state_id":3672,"state_name":"Guatemala Department","country_id":90},{"active":false,"Giataid":"151771","cityId":53500,"cityName":"Guatemala City","hotelId":151771,"hotelName":"Bed & Breakfast Mi Casa","address":"A 13-51 5A Avenue,Zona 9,01010 Ciudad de Guatemala,Guatemala","phones":"","fax":"","email":"","url":"","countryIso2":"GT","countryName":"Guatemala","hotelRating":"2","latitude":"14.6","longitude":"-90.5215","state_id":3672,"state_name":"Guatemala Department","country_id":90},{"active":false,"Giataid":"151772","cityId":32393,"cityName":"Antigua","hotelId":151772,"hotelName":"Casa Madeleine Boutique Hotel & Spa","address":"69 Calle del Espiritu Santo,03001 Antigua,Guatemala","phones":"+50278329348","fax":"","email":"","url":"","countryIso2":"GT","countryName":"Guatemala","hotelRating":"3","latitude":"14.5544","longitude":"-90.7408","state_id":1185,"state_name":"Canary Islands","country_id":207},{"active":false,"Giataid":"151773","cityId":32393,"cityName":"Antigua","hotelId":151773,"hotelName":"Casa Mia","address":"","phones":"","fax":"","email":"","url":"","countryIso2":"GT","countryName":"Guatemala","hotelRating":"3","latitude":"14.5553","longitude":"-90.7335","state_id":1185,"state_name":"Canary Islands","country_id":207},{"active":false,"Giataid":"151774","cityId":53500,"cityName":"Guatemala City","hotelId":151774,"hotelName":"Ciudad Vieja","address":"8 Calle 3-67 Zona 10,Guatemala City,Guatemala","phones":"+50223319104","fax":"+50223319104","email":"info@hotelciudadvieja.com","url":"http://www.hotelciudadvieja.com","countryIso2":"GT","countryName":"Guatemala","hotelRating":"3","latitude":"14.6065","longitude":"-90.5135","state_id":3672,"state_name":"Guatemala Department","country_id":90},{"active":false,"Giataid":"151775","cityId":53500,"cityName":"Guatemala City","hotelId":151775,"hotelName":"Comfort","address":"","phones":"","fax":"","email":"","url":"","countryIso2":"GT","countryName":"Guatemala","hotelRating":"5","latitude":"14.5909","longitude":"-90.5053","state_id":3672,"state_name":"Guatemala Department","country_id":90},{"active":false,"Giataid":"151776","cityId":32393,"cityName":"Antigua","hotelId":151776,"hotelName":"El Convento Boutique","address":"2?. Avenida norte No. 11,Antigua Guatemala,Guatemala","phones":"+50277207272","fax":"","email":"","url":"http://www.elconventoantigua.com/","countryIso2":"GT","countryName":"Guatemala","hotelRating":"4","latitude":"14.5594","longitude":"-90.731","state_id":1185,"state_name":"Canary Islands","country_id":207},{"active":false,"Giataid":"151777","cityId":32393,"cityName":"Antigua","hotelId":151777,"hotelName":"El Meson De Candelaria","address":"","phones":"","fax":"","email":"","url":"","countryIso2":"GT","countryName":"Guatemala","hotelRating":"1","latitude":"14.5553","longitude":"-90.7335","state_id":1185,"state_name":"Canary Islands","country_id":207},{"active":false,"Giataid":"151781","cityId":null,"cityName":"Flores, El Pet?n","hotelId":151781,"hotelName":"The Peregrino","address":"","phones":"","fax":"","email":"","url":"","countryIso2":"GT","countryName":"Guatemala","hotelRating":"1","latitude":"16.9253","longitude":"-89.8812","state_id":null,"state_name":null,"country_id":null},{"active":false,"Giataid":"151779","cityId":53500,"cityName":"Guatemala City","hotelId":151779,"hotelName":"Howard Johnson Inn Guatemala City","address":"Ave. Reforma 4-22 Zona 9,Guatemala City 01009,Guatemala","phones":"+50222011111","fax":"+50223607196","email":"hojoinn@intelnett.com","url":"http://www.hojo.com/HowardJohnson/control/Booking/modify_dates?areaCode=1J5&amp;brandCode=DI,HJ,KG,RA,SE,TL,WG,BU,WY,BH,MT&amp;searchWithinMiles=50&amp;areaType=1&amp;destination=Guatemala%20City&amp;stateName=&amp;state=NA&amp;countryName=Guatemala&am","countryIso2":"GT","countryName":"Guatemala","hotelRating":"3","latitude":"14.6097","longitude":"-90.5151","state_id":3672,"state_name":"Guatemala Department","country_id":90},{"active":false,"Giataid":"151780","cityId":32393,"cityName":"Antigua","hotelId":151780,"hotelName":"Posada Del Hermano Pedro","address":"3a. Calle Oriente No. 3,Antigua Guatemala,Guatemala","phones":"+50278322140","fax":"+50278322090","email":"info@hotelposadahermanopedro.com","url":"http://www.hotelposadahermanopedro.com/","countryIso2":"GT","countryName":"Guatemala","hotelRating":"2","latitude":"14.5583","longitude":"-90.7321","state_id":1185,"state_name":"Canary Islands","country_id":207},{"active":false,"Giataid":"183519","cityId":32393,"cityName":"Antigua","hotelId":183519,"hotelName":"Lo De Bernal","address":"1a Calle Poniente # 23,La Antigua Guatemala,Guatemala,Guatemala","phones":"+50278323242","fax":"+50278323244","email":"reservaciones@lodebernal.com","url":"http://www.lodebernal.com/","countryIso2":"GT","countryName":"Guatemala","hotelRating":"3","latitude":"14.5608","longitude":"-90.7368","state_id":1185,"state_name":"Canary Islands","country_id":207},{"active":false,"Giataid":"183520","cityId":53500,"cityName":"Guatemala City","hotelId":183520,"hotelName":"Posada Belen Museo Inn","address":"13 Calle A,10-30 Zona 1,Centro Historico,01001 Guatemala City,Guatemala","phones":"+50222326178","fax":"","email":"","url":"","countryIso2":"GT","countryName":"Guatemala","hotelRating":"3","latitude":"14.638","longitude":"-90.5261","state_id":3672,"state_name":"Guatemala Department","country_id":90},{"active":false,"Giataid":"183521","cityId":32393,"cityName":"Antigua","hotelId":183521,"hotelName":"Casa Rustica","address":"6a Avenida Norte, 8,03001 Antigua Guatemala,Guatemala","phones":"+50278323709","fax":"","email":"","url":"","countryIso2":"GT","countryName":"Guatemala","hotelRating":"3","latitude":"14.5568","longitude":"-90.7353","state_id":1185,"state_name":"Canary Islands","country_id":207},{"active":false,"Giataid":"187391","cityId":32393,"cityName":"Antigua","hotelId":187391,"hotelName":"La Casona De Antigua","address":"Calle de los Duelos Residenciales","phones":"","fax":"","email":"","url":"","countryIso2":"GT","countryName":"Guatemala","hotelRating":"1","latitude":"14.5622","longitude":"-90.7261","state_id":1185,"state_name":"Canary Islands","country_id":207},{"active":false,"Giataid":"187392","cityId":32393,"cityName":"Antigua","hotelId":187392,"hotelName":"Palacio Dona Beatriz","address":"Calle De Los Duelos,Las Gravileas,La Antigua Guatemala,Guatemala","phones":"+50278324052","fax":"","email":"","url":"","countryIso2":"GT","countryName":"Guatemala","hotelRating":"1","latitude":"14.5616","longitude":"-90.7268","state_id":1185,"state_name":"Canary Islands","country_id":207},{"active":false,"Giataid":"227527","cityId":32393,"cityName":"Antigua","hotelId":227527,"hotelName":"Camino Real Antigua Guatemala","address":"7a calle Poniente 33B,La Antigua Guatemala 03001,Guatemala","phones":"+50278737000","fax":"","email":"","url":"http://caminorealantigua.com.gt/index.php/en/welcome","countryIso2":"GT","countryName":"Guatemala","hotelRating":"5","latitude":"14.5542","longitude":"-90.7353","state_id":1185,"state_name":"Canary Islands","country_id":207},{"active":false,"Giataid":"227528","cityId":32393,"cityName":"Antigua","hotelId":227528,"hotelName":"Casa La Capilla","address":"5ta avenida Sur No.21,Antigua Guatemala 03001,Guatemala","phones":"+50278320182","fax":"","email":"","url":"http://www.casalacapilla.com","countryIso2":"GT","countryName":"Guatemala","hotelRating":"3","latitude":"14.5534","longitude":"-90.7347","state_id":1185,"state_name":"Canary Islands","country_id":207},{"active":false,"Giataid":"228387","cityId":32393,"cityName":"Antigua","hotelId":228387,"hotelName":"Los Pasos","address":"9?. Calle Oriente No. 19,Antigua,Guatemala","phones":"+50278325252","fax":"","email":"reservations@hotellospasos.com","url":"http://www.hotellospasos.com/","countryIso2":"GT","countryName":"Guatemala","hotelRating":"3","latitude":"14.5534","longitude":"-90.7353","state_id":1185,"state_name":"Canary Islands","country_id":207},{"active":false,"Giataid":"232961","cityId":null,"cityName":"Atitlan","hotelId":232961,"hotelName":"Villa Santa Catarina","address":"Santa Catarina Palopo,07010 Panajachel,Guatemala","phones":"+5027621291","fax":"+5027622013","email":"info@villasdeguatemala.com","url":"http://www.trivago.de/santa-catarina-palopo-84024/hotel/villa-santa-catarina-496601","countryIso2":"GT","countryName":"Guatemala","hotelRating":"3","latitude":"14.7221","longitude":"-91.1354","state_id":null,"state_name":null,"country_id":null},{"active":false,"Giataid":"234169","cityId":32393,"cityName":"Antigua","hotelId":234169,"hotelName":"Hotel Casa del Parque","address":"4a Avenida Norte 5,03001 Antigua Guatemala,Sacatep?quez,Guatemala","phones":"+50278320961","fax":"","email":"","url":"","countryIso2":"GT","countryName":"Guatemala","hotelRating":"3","latitude":"14.5548","longitude":"-90.733","state_id":1185,"state_name":"Canary Islands","country_id":207},{"active":false,"Giataid":"234946","cityId":32393,"cityName":"Antigua","hotelId":234946,"hotelName":"Vilaflor","address":"Interior condominium El Cortijo de las Flores,km 48.5 road to Ciudad Vieja,Sacatep?quez,Antigua Guatemala,Sacatepequez,Guatemala,Guatemala","phones":"+50278886981","fax":"+50255268888","email":"info@vilaflorhotel.com","url":"http://www.vilaflorhotel.com/","countryIso2":"GT","countryName":"Guatemala","hotelRating":"3","latitude":"14.5238","longitude":"-90.7647","state_id":1185,"state_name":"Canary Islands","country_id":207},{"active":false,"Giataid":"235780","cityId":32393,"cityName":"Antigua","hotelId":235780,"hotelName":"Mil Flores","address":"3a Calle Oriente 16''A'',La Antigua,Ciudad de Guatemala,Guatemala","phones":"+50278329715","fax":"","email":"info@vistareal.com","url":"http://www.vistareal.com/antigua/index.cfm","countryIso2":"GT","countryName":"Guatemala","hotelRating":"3","latitude":"14.5531","longitude":"-90.735","state_id":1185,"state_name":"Canary Islands","country_id":207},{"active":false,"Giataid":"237152","cityId":32393,"cityName":"Antigua","hotelId":237152,"hotelName":"La Catedral","address":"4a Avenida Sur 4,Antigua Guatemala,Guatemala-City,Guatemala","phones":"+50278320406","fax":"","email":"hotellacatedral@gmail.com","url":"http://www.hotellacatedral.net/","countryIso2":"GT","countryName":"Guatemala","hotelRating":"3","latitude":"14.5554","longitude":"-90.732","state_id":1185,"state_name":"Canary Islands","country_id":207},{"active":false,"Giataid":"239215","cityId":32393,"cityName":"Antigua","hotelId":239215,"hotelName":"EuroMaya Suites","address":"43 7a Calle Poniente,03001 La Antigua Guatemala,Guatemala","phones":"+50278324722","fax":"","email":"reservaciones@hoteleuromaya.com","url":"http://www.hoteleuromaya.com","countryIso2":"GT","countryName":"Guatemala","hotelRating":"3","latitude":"14.5552","longitude":"-90.7352","state_id":1185,"state_name":"Canary Islands","country_id":207},{"active":false,"Giataid":"239217","cityId":32393,"cityName":"Antigua","hotelId":239217,"hotelName":"Santa Rosa Boutique","address":"1a Calle Oriente, 11,Alameda Santa Rosa,La Antigua Guatemala,Guatemala","phones":"+50278320391","fax":"","email":"hotelcasasantarosa@gmail.com","url":"http://www.boutiquehotelsantarosa.com/indexgerman.htm","countryIso2":"GT","countryName":"Guatemala","hotelRating":"3","latitude":"14.5609","longitude":"-90.7302","state_id":1185,"state_name":"Canary Islands","country_id":207},{"active":false,"Giataid":"241377","cityId":32393,"cityName":"Antigua","hotelId":241377,"hotelName":"Posada Don Valentino","address":"5a Calle Poniente 28,Antigua,Guatemala","phones":"+50278320384","fax":"","email":"","url":"http://www.posadadonvalentino.com/","countryIso2":"GT","countryName":"Guatemala","hotelRating":"2","latitude":"14.5563","longitude":"-90.7361","state_id":1185,"state_name":"Canary Islands","country_id":207},{"active":false,"Giataid":"245560","cityId":32393,"cityName":"Antigua","hotelId":245560,"hotelName":"Casa Encantada","address":"9a Calle Poniente esq. Calle 1,Antigua Guatemala,Guatemala","phones":"+50278327903","fax":"+50278327908","email":"info@casaencantada-antigua.com","url":"http://www.casaencantada-antigua.com/","countryIso2":"GT","countryName":"Guatemala","hotelRating":"3","latitude":"14.5523","longitude":"-90.7347","state_id":1185,"state_name":"Canary Islands","country_id":207},{"active":false,"Giataid":"249619","cityId":32393,"cityName":"Antigua","hotelId":249619,"hotelName":"Casa Antigua","address":"3rd Calle Poniente 5,Antigua Gautemala,Guatemala","phones":"+50278329090","fax":"+50278329191","email":"hotelcasa-antigua@hotmail.com","url":"http://hotelcasa-antigua.com","countryIso2":"GT","countryName":"Guatemala","hotelRating":"3","latitude":"14.5582","longitude":"-90.7345","state_id":1185,"state_name":"Canary Islands","country_id":207},{"active":false,"Giataid":"249620","cityId":32393,"cityName":"Antigua","hotelId":249620,"hotelName":"Meson del Valle","address":"5th Ave Sur 11C,Antigua,Guatemala","phones":"+50278824469","fax":"","email":"hotelmesondelvalle@hotmail.com","url":"http://hotelmesondelvalle.com","countryIso2":"GT","countryName":"Guatemala","hotelRating":"3","latitude":"14.5541","longitude":"-90.7341","state_id":1185,"state_name":"Canary Islands","country_id":207},{"active":false,"Giataid":"322587","cityId":null,"cityName":"Flores, El Pet?n","hotelId":322587,"hotelName":"Mesa de Los Mayas","address":"","phones":"","fax":"","email":"","url":"","countryIso2":"GT","countryName":"Guatemala","hotelRating":"1","latitude":"16.9253","longitude":"-89.8812","state_id":null,"state_name":null,"country_id":null},{"active":false,"Giataid":"322588","cityId":null,"cityName":"Flores, El Pet?n","hotelId":322588,"hotelName":"Gran De La Isla","address":"","phones":"","fax":"","email":"","url":"","countryIso2":"GT","countryName":"Guatemala","hotelRating":"1","latitude":"16.9253","longitude":"-89.8812","state_id":null,"state_name":null,"country_id":null},{"active":false,"Giataid":"322589","cityId":null,"cityName":"Flores, El Pet?n","hotelId":322589,"hotelName":"Casa Amelia","address":"","phones":"","fax":"","email":"","url":"","countryIso2":"GT","countryName":"Guatemala","hotelRating":"3","latitude":"16.9305","longitude":"-89.8927","state_id":null,"state_name":null,"country_id":null},{"active":false,"Giataid":"368082","cityId":32393,"cityName":"Antigua","hotelId":368082,"hotelName":"Howard Johnson Antigua Guatemala","address":"4 Avenida Sur,Lotificacion Lo De Lopez 1,03001 Antigua,Guatemala","phones":"+50278320002","fax":"","email":"","url":"","countryIso2":"GT","countryName":"Guatemala","hotelRating":"3","latitude":"14.5468","longitude":"-90.7322","state_id":1185,"state_name":"Canary Islands","country_id":207},{"active":false,"Giataid":"376269","cityId":53500,"cityName":"Guatemala City","hotelId":376269,"hotelName":"Dai Nonni Hotel","address":"15 Avenida A 5,30 Zona 13,Guatemala,Guatemala","phones":"+50223625458","fax":"","email":"","url":"","countryIso2":"GT","countryName":"Guatemala","hotelRating":"3","latitude":"14.5917","longitude":"-90.5206","state_id":3672,"state_name":"Guatemala Department","country_id":90},{"active":false,"Giataid":"376270","cityId":53500,"cityName":"Guatemala City","hotelId":376270,"hotelName":"Golden Tulip Cortijo Reforma ","address":"","phones":"","fax":"","email":"","url":"","countryIso2":"GT","countryName":"Guatemala","hotelRating":"1","latitude":"14.5998","longitude":"-90.5161","state_id":3672,"state_name":"Guatemala Department","country_id":90},{"active":false,"Giataid":"410168","cityId":32393,"cityName":"Antigua","hotelId":410168,"hotelName":"EuroMaya","address":"22A 4ta Calle Poniente,Antigua Guatemala,Guatemala","phones":"+50278326298","fax":"","email":"reservaciones@hoteleuromaya.com","url":"http://www.hoteleuromaya.com/hoteleuromaya/","countryIso2":"GT","countryName":"Guatemala","hotelRating":"3","latitude":"14.5573","longitude":"-90.7394","state_id":1185,"state_name":"Canary Islands","country_id":207},{"active":false,"Giataid":"440733","cityId":1429,"cityName":"San Jose","hotelId":440733,"hotelName":"Bahia Taitza","address":"Barrio el Porvenir,17002 San Jose, Peten,Guatemala","phones":"+50278210056","fax":"+50279288125","email":"info@taitza.com","url":"http://www.taitza.com","countryIso2":"GT","countryName":"Guatemala","hotelRating":"1","latitude":"16.9778","longitude":"-89.906","state_id":3644,"state_name":"Misiones","country_id":11},{"active":false,"Giataid":"441084","cityId":32393,"cityName":"Antigua","hotelId":441084,"hotelName":"Hotel Dionisio Inn","address":"12 7 Avenida Sur,03001 La Antigua Guatemala,Guatemala","phones":"+50278320250","fax":"","email":"hoteldionisioinn@gmail.com","url":"http://www.hoteldionisioinnantigua.com","countryIso2":"GT","countryName":"Guatemala","hotelRating":"2","latitude":"14.5548","longitude":"-90.7364","state_id":1185,"state_name":"Canary Islands","country_id":207},{"active":false,"Giataid":"441276","cityId":32393,"cityName":"Antigua","hotelId":441276,"hotelName":"Hotel Palacio Chico 1940","address":"7th Avenue North 15,03001 La Antigua Guatemala,Guatemala","phones":"+50278323895","fax":"","email":"palaciochico@hotmail.com","url":"http://1940.palaciochico.com/","countryIso2":"GT","countryName":"Guatemala","hotelRating":"1","latitude":"14.5597","longitude":"-90.7362","state_id":1185,"state_name":"Canary Islands","country_id":207},{"active":false,"Giataid":"441279","cityId":32393,"cityName":"Antigua","hotelId":441279,"hotelName":"Palacio Chico 1850","address":"3rd Avenue South # 6","phones":"","fax":"","email":"","url":"","countryIso2":"GT","countryName":"Guatemala","hotelRating":"1","latitude":"14.5555","longitude":"-90.7328","state_id":1185,"state_name":"Canary Islands","country_id":207},{"active":false,"Giataid":"441779","cityId":null,"cityName":"Cob?n","hotelId":441779,"hotelName":"Hotel Casa Duranta","address":"","phones":"+50279514716","fax":"","email":"","url":"","countryIso2":"GT","countryName":"Guatemala","hotelRating":"1","latitude":"15.469","longitude":"-90.3699","state_id":null,"state_name":null,"country_id":null},{"active":false,"Giataid":"441799","cityId":53641,"cityName":"Retalhuleu","hotelId":441799,"hotelName":"Takalik Maya Lodge","address":"","phones":"+50240559831","fax":"","email":"","url":"","countryIso2":"GT","countryName":"Guatemala","hotelRating":"1","latitude":"14.6579","longitude":"-91.734","state_id":3664,"state_name":"Retalhuleu Department","country_id":90},{"active":false,"Giataid":"442498","cityId":53659,"cityName":"San Antonio Palopo","hotelId":442498,"hotelName":"Casa Colonial Atitlan","address":"","phones":"","fax":"","email":"","url":"","countryIso2":"GT","countryName":"Guatemala","hotelRating":"1","latitude":"14.6859","longitude":"-91.1177","state_id":3661,"state_name":"Solola Department","country_id":90},{"active":false,"Giataid":"443123","cityId":32393,"cityName":"Antigua","hotelId":443123,"hotelName":"Hotel Posada San Vicente","address":"6th Avenida Sur  6,Antigua,Guatemala","phones":"+50278323311","fax":"","email":"hotelposadasanvicente@hotmail.com","url":"http://www.posadasanvicente.com/","countryIso2":"GT","countryName":"Guatemala","hotelRating":"2","latitude":"14.5558","longitude":"-90.7352","state_id":1185,"state_name":"Canary Islands","country_id":207},{"active":false,"Giataid":"443949","cityId":53726,"cityName":"San Pedro La Laguna","hotelId":443949,"hotelName":"Hostal y Restaurant Fe","address":"Main Street, zona viva,San Pedro la Laguna,Guatemala","phones":"+50234867027","fax":"","email":"info@hostelfe.com","url":"http://www.hostelfe.com","countryIso2":"GT","countryName":"Guatemala","hotelRating":"1","latitude":"14.694","longitude":"-91.2687","state_id":3661,"state_name":"Solola Department","country_id":90},{"active":false,"Giataid":"443977","cityId":53500,"cityName":"Guatemala City","hotelId":443977,"hotelName":"Hotel Casa Blanca Inn","address":"15 Calle C 7-35 aurora 1 Zona 13,","phones":"+50222613116","fax":"","email":"","url":"","countryIso2":"GT","countryName":"Guatemala","hotelRating":"3","latitude":"14.5851","longitude":"-90.5331","state_id":3672,"state_name":"Guatemala Department","country_id":90},{"active":false,"Giataid":"447535","cityId":53500,"cityName":"Guatemala City","hotelId":447535,"hotelName":"Hotel Villa Espanola","address":"","phones":"","fax":"","email":"","url":"","countryIso2":"GT","countryName":"Guatemala","hotelRating":"3","latitude":"14.6129","longitude":"-90.5156","state_id":3672,"state_name":"Guatemala Department","country_id":90},{"active":false,"Giataid":"447627","cityId":null,"cityName":"Flores, El Pet?n","hotelId":447627,"hotelName":"El Peregrino Hotel Y Restaurante","address":"","phones":"","fax":"","email":"","url":"","countryIso2":"GT","countryName":"Guatemala","hotelRating":"2","latitude":"16.9291","longitude":"-89.8924","state_id":null,"state_name":null,"country_id":null},{"active":false,"Giataid":"448033","cityId":53500,"cityName":"Guatemala City","hotelId":448033,"hotelName":"Hotel Quetzali","address":"","phones":"","fax":"","email":"","url":"","countryIso2":"GT","countryName":"Guatemala","hotelRating":"2","latitude":"14.6319","longitude":"-90.513","state_id":3672,"state_name":"Guatemala Department","country_id":90},{"active":false,"Giataid":"448064","cityId":53500,"cityName":"Guatemala City","hotelId":448064,"hotelName":"Hotel Ajau","address":"","phones":"","fax":"","email":"","url":"","countryIso2":"GT","countryName":"Guatemala","hotelRating":"2","latitude":"14.6322","longitude":"-90.513","state_id":3672,"state_name":"Guatemala Department","country_id":90},{"active":false,"Giataid":"448079","cityId":null,"cityName":"Pet?n","hotelId":448079,"hotelName":"Hotel Sabana","address":"Calle La Union,17001 Ciudad de Flores,Pet?n,Guatemala","phones":"+50278675100","fax":"","email":"hotelsabana@yahoo.com","url":"http://www.hotelsabana.com/","countryIso2":"GT","countryName":"Guatemala","hotelRating":"3","latitude":"16.9316","longitude":"-89.891","state_id":null,"state_name":null,"country_id":null},{"active":false,"Giataid":"448125","cityId":null,"cityName":"Pet?n","hotelId":448125,"hotelName":"Green World Hotel","address":"","phones":"","fax":"","email":"","url":"","countryIso2":"GT","countryName":"Guatemala","hotelRating":"2","latitude":"16.929","longitude":"-89.8931","state_id":null,"state_name":null,"country_id":null},{"active":false,"Giataid":"448156","cityId":1413,"cityName":"San Benito","hotelId":448156,"hotelName":"Palacio Maya","address":"7a. Avenida Sur 18-18 Zona 1,01010 San Benito, Pet?n,Guatemala","phones":"","fax":"","email":"","url":"","countryIso2":"GT","countryName":"Guatemala","hotelRating":"1","latitude":"16.9192","longitude":"-89.9064","state_id":3654,"state_name":"Entre Rios","country_id":11},{"active":false,"Giataid":"448440","cityId":32393,"cityName":"Antigua","hotelId":448440,"hotelName":"Un hotel en la Antigua","address":"Calzada Santa Lucia Norte 16,Antigua Guatemala,Guatemala","phones":"","fax":"","email":"","url":"","countryIso2":"GT","countryName":"Guatemala","hotelRating":"1","latitude":"14.5592","longitude":"-90.7379","state_id":1185,"state_name":"Canary Islands","country_id":207},{"active":false,"Giataid":"448717","cityId":32393,"cityName":"Antigua","hotelId":448717,"hotelName":"D`Leyenda Hotel","address":"","phones":"","fax":"","email":"","url":"","countryIso2":"GT","countryName":"Guatemala","hotelRating":"1","latitude":"14.5576","longitude":"-90.7332","state_id":1185,"state_name":"Canary Islands","country_id":207},{"active":false,"Giataid":"448728","cityId":1456,"cityName":"Santa Elena","hotelId":448728,"hotelName":"Maximos Petit Hotel","address":"","phones":"","fax":"","email":"","url":"","countryIso2":"GT","countryName":"Guatemala","hotelRating":"1","latitude":"16.9233","longitude":"-89.8924","state_id":3654,"state_name":"Entre Rios","country_id":11},{"active":false,"Giataid":"448980","cityId":32393,"cityName":"Antigua","hotelId":448980,"hotelName":"Hostel La Quinta","address":"5A  Calle Poniente 19,Antigua Guatemala,Guatemala","phones":"","fax":"","email":"","url":"","countryIso2":"GT","countryName":"Guatemala","hotelRating":"1","latitude":"14.5562","longitude":"-90.7374","state_id":1185,"state_name":"Canary Islands","country_id":207},{"active":false,"Giataid":"449025","cityId":53619,"cityName":"Panajachel","hotelId":449025,"hotelName":"Hotel El Sol","address":"","phones":"","fax":"","email":"","url":"","countryIso2":"GT","countryName":"Guatemala","hotelRating":"1","latitude":"14.7367","longitude":"-91.1494","state_id":3661,"state_name":"Solola Department","country_id":90},{"active":false,"Giataid":"449102","cityId":32393,"cityName":"Antigua","hotelId":449102,"hotelName":"Hotel Los Encuentros","address":"60 7th Avenue North,Antigua Guatemala,Guatemala","phones":"","fax":"","email":"","url":"","countryIso2":"GT","countryName":"Guatemala","hotelRating":"2","latitude":"14.5599","longitude":"-90.7363","state_id":1185,"state_name":"Canary Islands","country_id":207},{"active":false,"Giataid":"449277","cityId":53619,"cityName":"Panajachel","hotelId":449277,"hotelName":"Hotel Rancho Grande Inn","address":"","phones":"","fax":"","email":"","url":"","countryIso2":"GT","countryName":"Guatemala","hotelRating":"3","latitude":"14.742","longitude":"-91.1544","state_id":3661,"state_name":"Solola Department","country_id":90},{"active":false,"Giataid":"449294","cityId":53619,"cityName":"Panajachel","hotelId":449294,"hotelName":"Hotel Paradise Inn","address":"","phones":"","fax":"","email":"","url":"","countryIso2":"GT","countryName":"Guatemala","hotelRating":"3","latitude":"14.7364","longitude":"-91.1575","state_id":3661,"state_name":"Solola Department","country_id":90},{"active":false,"Giataid":"449394","cityId":53619,"cityName":"Panajachel","hotelId":449394,"hotelName":"Hotel Posada Chinimaya","address":"","phones":"","fax":"","email":"","url":"","countryIso2":"GT","countryName":"Guatemala","hotelRating":"2","latitude":"14.7379","longitude":"-91.1592","state_id":3661,"state_name":"Solola Department","country_id":90},{"active":false,"Giataid":"449417","cityId":32393,"cityName":"Antigua","hotelId":449417,"hotelName":"Hotel Calle Ancha","address":"","phones":"","fax":"","email":"","url":"","countryIso2":"GT","countryName":"Guatemala","hotelRating":"1","latitude":"14.5659","longitude":"-90.7389","state_id":1185,"state_name":"Canary Islands","country_id":207},{"active":false,"Giataid":"449430","cityId":53619,"cityName":"Panajachel","hotelId":449430,"hotelName":"Perla Maya Hotel","address":"0 Avenida 6-69 Calle Del Rio","phones":"","fax":"","email":"","url":"","countryIso2":"GT","countryName":"Guatemala","hotelRating":"1","latitude":"14.7367","longitude":"-91.1573","state_id":3661,"state_name":"Solola Department","country_id":90},{"active":false,"Giataid":"449479","cityId":53503,"cityName":"Huehuetenango","hotelId":449479,"hotelName":"La Chacra de Joel Hotel","address":"4a. Avenida 1-128 Zona 8, Huehuetenango A una cuadra del Estadio los Cuchumatanes, Huehuetenango ","phones":"","fax":"","email":"","url":"","countryIso2":"GT","countryName":"Guatemala","hotelRating":"3","latitude":"15.3182","longitude":"-91.4826","state_id":3670,"state_name":"Huehuetenango Department","country_id":90},{"active":false,"Giataid":"449492","cityId":53641,"cityName":"Retalhuleu","hotelId":449492,"hotelName":"Hotel Villa Hermosa","address":"","phones":"","fax":"","email":"","url":"","countryIso2":"GT","countryName":"Guatemala","hotelRating":"3","latitude":"14.5837","longitude":"-91.6245","state_id":3664,"state_name":"Retalhuleu Department","country_id":90},{"active":false,"Giataid":"449493","cityId":53638,"cityName":"Quetzaltenango","hotelId":449493,"hotelName":"Hotel S&J Bella Luna, S.A.","address":"","phones":"","fax":"","email":"","url":"","countryIso2":"GT","countryName":"Guatemala","hotelRating":"3","latitude":"14.8488","longitude":"-91.4816","state_id":3668,"state_name":"Quetzaltenango Department","country_id":90},{"active":false,"Giataid":"449540","cityId":null,"cityName":"Flores, El Pet?n","hotelId":449540,"hotelName":"Hotel Villa del Lago","address":"CALLE CENTROAMERICA","phones":"","fax":"","email":"","url":"","countryIso2":"GT","countryName":"Guatemala","hotelRating":"3","latitude":"16.9289","longitude":"-89.8911","state_id":null,"state_name":null,"country_id":null},{"active":false,"Giataid":"449634","cityId":53789,"cityName":"Taxisco","hotelId":449634,"hotelName":"Hotel Atelie Del Mar","address":"Playa Monterrico,03001 Taxisco,Guatemala","phones":"","fax":"","email":"info@hotelateliedelmar.com","url":"http://hotelateliedelmar.com","countryIso2":"GT","countryName":"Guatemala","hotelRating":"3","latitude":"13.8957","longitude":"-90.4838","state_id":3665,"state_name":"Santa Rosa Department","country_id":90},{"active":false,"Giataid":"449782","cityId":32393,"cityName":"Antigua","hotelId":449782,"hotelName":"Posada La Merced Antigua","address":"","phones":"","fax":"","email":"","url":"","countryIso2":"GT","countryName":"Guatemala","hotelRating":"1","latitude":"14.5613","longitude":"-90.7362","state_id":1185,"state_name":"Canary Islands","country_id":207},{"active":false,"Giataid":"449789","cityId":53619,"cityName":"Panajachel","hotelId":449789,"hotelName":"Hotel Camposeco","address":"Final de la calle santader a  media cuadra del lago,Panajachel,Guatemala","phones":"","fax":"","email":"","url":"","countryIso2":"GT","countryName":"Guatemala","hotelRating":"1","latitude":"14.5553","longitude":"-90.7335","state_id":3661,"state_name":"Solola Department","country_id":90},{"active":false,"Giataid":"449819","cityId":53638,"cityName":"Quetzaltenango","hotelId":449819,"hotelName":"Hotel y Restaurante Villa Esmeralda","address":"","phones":"","fax":"","email":"","url":"","countryIso2":"GT","countryName":"Guatemala","hotelRating":"1","latitude":"14.855","longitude":"-91.4804","state_id":3668,"state_name":"Quetzaltenango Department","country_id":90},{"active":false,"Giataid":"449888","cityId":32393,"cityName":"Antigua","hotelId":449888,"hotelName":"Hotel Santa Maria","address":"","phones":"","fax":"","email":"","url":"","countryIso2":"GT","countryName":"Guatemala","hotelRating":"1","latitude":"14.5344","longitude":"-90.8569","state_id":1185,"state_name":"Canary Islands","country_id":207},{"active":false,"Giataid":"449981","cityId":32393,"cityName":"Antigua","hotelId":449981,"hotelName":"Chez Juanca Hotel Cafe","address":"","phones":"","fax":"","email":"","url":"","countryIso2":"GT","countryName":"Guatemala","hotelRating":"1","latitude":"14.5622","longitude":"-90.7333","state_id":1185,"state_name":"Canary Islands","country_id":207},{"active":false,"Giataid":"450021","cityId":32393,"cityName":"Antigua","hotelId":450021,"hotelName":"Hotel y Arte","address":"","phones":"","fax":"","email":"","url":"","countryIso2":"GT","countryName":"Guatemala","hotelRating":"3","latitude":"14.5572","longitude":"-90.7353","state_id":1185,"state_name":"Canary Islands","country_id":207},{"active":false,"Giataid":"450086","cityId":53638,"cityName":"Quetzaltenango","hotelId":450086,"hotelName":"Hotel Posada Antigua","address":"","phones":"","fax":"","email":"","url":"","countryIso2":"GT","countryName":"Guatemala","hotelRating":"1","latitude":"14.8385","longitude":"-91.5169","state_id":3668,"state_name":"Quetzaltenango Department","country_id":90},{"active":false,"Giataid":"450088","cityId":53638,"cityName":"Quetzaltenango","hotelId":450088,"hotelName":"Hotel Imperio Inn","address":"","phones":"","fax":"","email":"","url":"","countryIso2":"GT","countryName":"Guatemala","hotelRating":"1","latitude":"14.8385","longitude":"-91.5169","state_id":3668,"state_name":"Quetzaltenango Department","country_id":90},{"active":false,"Giataid":"450133","cityId":32393,"cityName":"Antigua","hotelId":450133,"hotelName":"Hotel Posada de la Luna","address":"","phones":"","fax":"","email":"","url":"","countryIso2":"GT","countryName":"Guatemala","hotelRating":"3","latitude":"14.5546","longitude":"-90.7401","state_id":1185,"state_name":"Canary Islands","country_id":207},{"active":false,"Giataid":"453209","cityId":53619,"cityName":"Panajachel","hotelId":453209,"hotelName":"Real Santander","address":"","phones":"","fax":"","email":"","url":"","countryIso2":"GT","countryName":"Guatemala","hotelRating":"3","latitude":"14.7422","longitude":"-91.158","state_id":3661,"state_name":"Solola Department","country_id":90},{"active":false,"Giataid":"454141","cityId":53619,"cityName":"Panajachel","hotelId":454141,"hotelName":"Posada de Don Jose","address":"","phones":"","fax":"","email":"","url":"","countryIso2":"GT","countryName":"Guatemala","hotelRating":"3","latitude":"14.7494","longitude":"-91.1498","state_id":3661,"state_name":"Solola Department","country_id":90},{"active":false,"Giataid":"454909","cityId":null,"cityName":"Sipacate","hotelId":454909,"hotelName":"Villa Barroca","address":"","phones":"","fax":"","email":"","url":"","countryIso2":"GT","countryName":"Guatemala","hotelRating":"3","latitude":"13.9261","longitude":"-91.1474","state_id":null,"state_name":null,"country_id":null},{"active":false,"Giataid":"455230","cityId":null,"cityName":"Cob?n","hotelId":455230,"hotelName":"Casa Kirva Hotel","address":"Km. 204.4, aldea Tontem,16001 Cob?n,Alta Verapaz,Guatemala","phones":"+50246934800","fax":"","email":"info@casakirva.com","url":"http://casakirva.com","countryIso2":"GT","countryName":"Guatemala","hotelRating":"3","latitude":"15.4653","longitude":"-90.3845","state_id":null,"state_name":null,"country_id":null},{"active":false,"Giataid":"455768","cityId":32393,"cityName":"Antigua","hotelId":455768,"hotelName":"Hotel Cuscatlan","address":"","phones":"","fax":"","email":"","url":"","countryIso2":"GT","countryName":"Guatemala","hotelRating":"1","latitude":"14.5795","longitude":"-90.7401","state_id":1185,"state_name":"Canary Islands","country_id":207},{"active":false,"Giataid":"455858","cityId":1456,"cityName":"Santa Elena","hotelId":455858,"hotelName":"Nakum Hotel","address":"","phones":"","fax":"","email":"","url":"","countryIso2":"GT","countryName":"Guatemala","hotelRating":"2","latitude":"16.923","longitude":"-89.8935","state_id":3654,"state_name":"Entre Rios","country_id":11},{"active":false,"Giataid":"456115","cityId":null,"cityName":"San Crist?bal Verapaz","hotelId":456115,"hotelName":"Hotel Paniste","address":"18-56 Comunidad Tucanja,Zona 0,16003 San Crist?bal Verapaz,Alta Verapaz,Guatemala","phones":"+50224171212","fax":"","email":"hotelpaniste@gmail.com","url":"http://www.hotelpaniste.com/","countryIso2":"GT","countryName":"Guatemala","hotelRating":"1","latitude":"15.3774","longitude":"-90.4703","state_id":null,"state_name":null,"country_id":null},{"active":false,"Giataid":"460930","cityId":null,"cityName":"Pet?n","hotelId":460930,"hotelName":"Explore Lodge","address":"2da Calle 4-68 Zona 1","phones":"","fax":"","email":"","url":"","countryIso2":"GT","countryName":"Guatemala","hotelRating":"1","latitude":"16.9225","longitude":"-89.8939","state_id":null,"state_name":null,"country_id":null},{"active":false,"Giataid":"460936","cityId":32393,"cityName":"Antigua","hotelId":460936,"hotelName":"Hotel Posada Landivar","address":"","phones":"","fax":"","email":"","url":"","countryIso2":"GT","countryName":"Guatemala","hotelRating":"3","latitude":"14.5553","longitude":"-90.7335","state_id":1185,"state_name":"Canary Islands","country_id":207},{"active":false,"Giataid":"461334","cityId":null,"cityName":"Pet?n","hotelId":461334,"hotelName":"Hotel Palomino Ranch","address":"km 30 Carretera a Tikal,17022 El Remate Pet?n,Guatemala","phones":"","fax":"","email":"","url":"","countryIso2":"GT","countryName":"Guatemala","hotelRating":"3","latitude":"16.9962","longitude":"-89.6932","state_id":null,"state_name":null,"country_id":null},{"active":false,"Giataid":"461490","cityId":53726,"cityName":"San Pedro La Laguna","hotelId":461490,"hotelName":"Hotel Sak'cari El Amanecer","address":"2-12 7 Avenida,Zona 2,San Pedro La Laguna,Solola,Guatemala","phones":"+50277218096","fax":"","email":"hotelsakcari@yahoo.com","url":"http://hotel-sakcari.com","countryIso2":"GT","countryName":"Guatemala","hotelRating":"1","latitude":"14.6944","longitude":"-91.2687","state_id":3661,"state_name":"Solola Department","country_id":90},{"active":false,"Giataid":"461507","cityId":53445,"cityName":"Chajul","hotelId":461507,"hotelName":"Hotel San Gaspar","address":"","phones":"","fax":"","email":"","url":"","countryIso2":"GT","countryName":"Guatemala","hotelRating":"1","latitude":"15.4837","longitude":"-91.0374","state_id":3657,"state_name":"Quiche Department","country_id":90},{"active":false,"Giataid":"461513","cityId":53697,"cityName":"San Juan La Laguna","hotelId":461513,"hotelName":"Mayachik","address":"Colonia La Esperanza,San Juan La Laguna,Guatemala","phones":"+50242184675","fax":"","email":"contact@mayachik.com","url":"http://www.mayachik.com/es_VE/","countryIso2":"GT","countryName":"Guatemala","hotelRating":"1","latitude":"14.6886","longitude":"-91.2883","state_id":3661,"state_name":"Solola Department","country_id":90},{"active":false,"Giataid":"461639","cityId":null,"cityName":"El Remate","hotelId":461639,"hotelName":"Hotel Villas Magen","address":"","phones":"","fax":"","email":"","url":"","countryIso2":"GT","countryName":"Guatemala","hotelRating":"1","latitude":"16.9751","longitude":"-89.6741","state_id":null,"state_name":null,"country_id":null},{"active":false,"Giataid":"461675","cityId":null,"cityName":"Cob?n","hotelId":461675,"hotelName":"Hotel en Coban Casa Q'eqchi'","address":"4ta calle 7-29 zona 3,16001 Cob?n,Guatemala","phones":"+50232959169","fax":"","email":"","url":"","countryIso2":"GT","countryName":"Guatemala","hotelRating":"3","latitude":"15.4687","longitude":"-90.3677","state_id":null,"state_name":null,"country_id":null},{"active":false,"Giataid":"461748","cityId":null,"cityName":"Cob?n","hotelId":461748,"hotelName":"La Posada","address":"4-12 1ra Calle,Zona 2,Cob?n,Alta Verapaz,Guatemala","phones":"+50279521495","fax":"","email":"laposada@c.net.gt","url":"http://laposadacoban.com.gt/","countryIso2":"GT","countryName":"Guatemala","hotelRating":"1","latitude":"15.4704","longitude":"-90.3753","state_id":null,"state_name":null,"country_id":null},{"active":false,"Giataid":"461753","cityId":null,"cityName":"Cob?n","hotelId":461753,"hotelName":"Hotel Don Juan Matalbatz","address":"","phones":"","fax":"","email":"","url":"","countryIso2":"GT","countryName":"Guatemala","hotelRating":"1","latitude":"15.4719","longitude":"-90.3739","state_id":null,"state_name":null,"country_id":null},{"active":false,"Giataid":"461779","cityId":null,"cityName":"Cob?n","hotelId":461779,"hotelName":"Hotel Las Terrazas","address":"3 Calle 2-38,Zona 3,50309 Coban,Guatemala","phones":"","fax":"","email":"","url":"","countryIso2":"GT","countryName":"Guatemala","hotelRating":"1","latitude":"15.4684","longitude":"-90.3721","state_id":null,"state_name":null,"country_id":null},{"active":false,"Giataid":"461782","cityId":null,"cityName":"Cob?n","hotelId":461782,"hotelName":"Los Faroles","address":"2 calle 3-61, zona 1,50000 Cob?n,Guatemala","phones":"+50279511140","fax":"","email":"info@losfaroleshotel.com","url":"http://www.losfaroleshotel.com/","countryIso2":"GT","countryName":"Guatemala","hotelRating":"1","latitude":"15.4712","longitude":"-90.3737","state_id":null,"state_name":null,"country_id":null},{"active":false,"Giataid":"461786","cityId":null,"cityName":"Cob?n","hotelId":461786,"hotelName":"Hotel Alcazar de Dona Victoria","address":"5-34 Avenida 1a,Zona 1,Cob?n,Alta Verapaz,Guatemala","phones":"+50279521143","fax":"+50279521388","email":"","url":"http://hotelescoban.com/alcazar/","countryIso2":"GT","countryName":"Guatemala","hotelRating":"1","latitude":"15.4756","longitude":"-90.3726","state_id":null,"state_name":null,"country_id":null},{"active":false,"Giataid":"461797","cityId":53619,"cityName":"Panajachel","hotelId":461797,"hotelName":"Reserva Natural Atitlan","address":"Antigua Finca San Buenaventura,Solol?,Panajachel,Guatemala","phones":"+50277622565","fax":"+50277622566","email":"info@atitlanreserva.com","url":"http://atitlanreserva.com","countryIso2":"GT","countryName":"Guatemala","hotelRating":"1","latitude":"14.747","longitude":"-91.1632","state_id":3661,"state_name":"Solola Department","country_id":90},{"active":false,"Giataid":"461848","cityId":null,"cityName":"Cob?n","hotelId":461848,"hotelName":"Hotel Villa Ancestral","address":"6 Avenida 3-11 Zona 1,16001 Cob?n,Guatemala","phones":"+50279511348","fax":"","email":"Recepcion@hotelancestralcoban.net","url":"http://www.hotelancestralcoban.net","countryIso2":"GT","countryName":"Guatemala","hotelRating":"1","latitude":"15.4727","longitude":"-90.3765","state_id":null,"state_name":null,"country_id":null},{"active":false,"Giataid":"461884","cityId":53758,"cityName":"Santa Cruz Verapaz","hotelId":461884,"hotelName":"San Rafael","address":"Km 201 Carretera a Cob?n,CA14,16002 Santa Cruz Verapaz,Alta Verapaz,Guatemala","phones":"","fax":"","email":"","url":"http://www.sanrafaelcoban.com/","countryIso2":"GT","countryName":"Guatemala","hotelRating":"1","latitude":"15.4319","longitude":"-90.41","state_id":3671,"state_name":"Alta Verapaz Department","country_id":90},{"active":false,"Giataid":"461897","cityId":53789,"cityName":"Taxisco","hotelId":461897,"hotelName":"Hotel El Delfin","address":"Calle de Los Hoteles,Beach front,Monterrico Beach,Taxisco,Santa Rosa,Guatemala","phones":"+50246619255","fax":"","email":"hoteldelfinmonterrico@gmail.com","url":"http://www.hotel-el-delfin.com","countryIso2":"GT","countryName":"Guatemala","hotelRating":"1","latitude":"14.0736","longitude":"-90.4622","state_id":3665,"state_name":"Santa Rosa Department","country_id":90},{"active":false,"Giataid":"461909","cityId":null,"cityName":"San Mart?n Zapotitl?n","hotelId":461909,"hotelName":"La Cupula Hotel","address":"","phones":"","fax":"","email":"","url":"","countryIso2":"GT","countryName":"Guatemala","hotelRating":"1","latitude":"14.6083","longitude":"-91.6064","state_id":null,"state_name":null,"country_id":null},{"active":false,"Giataid":"461974","cityId":null,"cityName":"Purulh?","hotelId":461974,"hotelName":"Ranchitos Del Quetzal","address":"CA-14, Km 160.5, Ruta a Cob?n,60111 Purulh?,Baja Verapaz,Guatemala","phones":"+50241309456","fax":"","email":"ranchitosdelquetzal@gmail.com","url":"http://www.ranchitosdelquetzal.com/","countryIso2":"GT","countryName":"Guatemala","hotelRating":"1","latitude":"15.2151","longitude":"-90.2191","state_id":null,"state_name":null,"country_id":null},{"active":false,"Giataid":"462143","cityId":20779,"cityName":"Dolores","hotelId":462143,"hotelName":"Hotel y Restaurante Santa Isabel","address":"","phones":"","fax":"","email":"","url":"","countryIso2":"GT","countryName":"Guatemala","hotelRating":"1","latitude":"0","longitude":"0","state_id":2883,"state_name":"Tolima","country_id":48},{"active":false,"Giataid":"462281","cityId":null,"cityName":"Solol?","hotelId":462281,"hotelName":"Hotel Los Cofrades","address":"6 Avenida 5-55 Zona 1,60111 Solol?,Guatemala","phones":"+50277623470","fax":"","email":"","url":"","countryIso2":"GT","countryName":"Guatemala","hotelRating":"1","latitude":"14.7299","longitude":"-91.2292","state_id":null,"state_name":null,"country_id":null},{"active":false,"Giataid":"462284","cityId":53603,"cityName":"Nebaj","hotelId":462284,"hotelName":"Hotel La Casa de David","address":"2 Avenida 0-63 zona 1,Calle Principal del Calvario,14013 Nebaj,Guatemala","phones":"","fax":"","email":"","url":"","countryIso2":"GT","countryName":"Guatemala","hotelRating":"1","latitude":"15.4068","longitude":"-91.1473","state_id":3657,"state_name":"Quiche Department","country_id":90},{"active":false,"Giataid":"462356","cityId":53709,"cityName":"San Marcos La Laguna","hotelId":462356,"hotelName":"Posada Schumann","address":"San Marcos La Laguna Barrio 3,San Marcos La Laguna,Guatemala","phones":"+50257037132","fax":"","email":"reserva@laposadaschumann.com","url":"http://laposadaschumann.com","countryIso2":"GT","countryName":"Guatemala","hotelRating":"1","latitude":"14.7214","longitude":"-91.2586","state_id":3661,"state_name":"Solola Department","country_id":90},{"active":false,"Giataid":"462498","cityId":null,"cityName":"San Jos? Pinula","hotelId":462498,"hotelName":"Hotel Paraiso I","address":"5a Calle 5-35,Zona 3,A Una Cuadra Del Mercado Municipal,01009 San Jos? Pinula,Guatemala","phones":"+50255159390","fax":"","email":"bautistaarp@hotmail.com","url":"http://www.hotelparaiso1.com","countryIso2":"GT","countryName":"Guatemala","hotelRating":"1","latitude":"14.6447","longitude":"-90.5218","state_id":null,"state_name":null,"country_id":null},{"active":false,"Giataid":"462670","cityId":53503,"cityName":"Huehuetenango","hotelId":462670,"hotelName":"Hotel Ruinas Resort","address":"9 Av. 1-09 Zona 1,13001 Huehuetenango,Guatemala","phones":"","fax":"","email":"","url":"","countryIso2":"GT","countryName":"Guatemala","hotelRating":"1","latitude":"15.3201","longitude":"-91.4749","state_id":3670,"state_name":"Huehuetenango Department","country_id":90},{"active":false,"Giataid":"462702","cityId":null,"cityName":"San Jos? Pinula","hotelId":462702,"hotelName":"Hotel y Resort Quinta del Sol","address":"Ruta Nacional 18 Km 25.5,  San Jos? Pinula,San Jos? Pinula,Guatemala","phones":"+50266343055","fax":"","email":"recepcionhotelquintadelsol@gmail.com","url":"http://hotelquintadelsol.com/es/inicio.php","countryIso2":"GT","countryName":"Guatemala","hotelRating":"1","latitude":"14.5324","longitude":"-90.3658","state_id":null,"state_name":null,"country_id":null},{"active":false,"Giataid":"462707","cityId":53659,"cityName":"San Antonio Palopo","hotelId":462707,"hotelName":"Hotel Terrazaz Del Lago","address":"Calle del lago final,San Antonio Palop?, Solol?,Lago de Atitlan,Guatemala","phones":"+50277620157","fax":"","email":"info@hotelterrazasdellago.com","url":"http://hotelterrazasdellago.com/pages/es/inicio.php","countryIso2":"GT","countryName":"Guatemala","hotelRating":"1","latitude":"14.6903","longitude":"-91.118","state_id":3661,"state_name":"Solola Department","country_id":90},{"active":false,"Giataid":"462708","cityId":53500,"cityName":"Guatemala City","hotelId":462708,"hotelName":"Hotel del Sur Guatemala","address":"","phones":"","fax":"","email":"","url":"","countryIso2":"GT","countryName":"Guatemala","hotelRating":"1","latitude":"14.5998","longitude":"-90.5161","state_id":3672,"state_name":"Guatemala Department","country_id":90},{"active":false,"Giataid":"463577","cityId":53619,"cityName":"Panajachel","hotelId":463577,"hotelName":"Hotel Los Angeles Panajachel","address":"Calle Chinimaya, Calle Jon Yaxon","phones":"+50277622302","fax":"","email":"","url":"","countryIso2":"GT","countryName":"Guatemala","hotelRating":"1","latitude":"14.7387","longitude":"-91.1565","state_id":3661,"state_name":"Solola Department","country_id":90},{"active":false,"Giataid":"463598","cityId":53500,"cityName":"Guatemala City","hotelId":463598,"hotelName":"Hotel Ejecutivo Reforma 1","address":"","phones":"+50222302731","fax":"","email":"","url":"","countryIso2":"GT","countryName":"Guatemala","hotelRating":"1","latitude":"14.6306","longitude":"-90.5096","state_id":3672,"state_name":"Guatemala Department","country_id":90},{"active":false,"Giataid":"463608","cityId":null,"cityName":"Flores, El Pet?n","hotelId":463608,"hotelName":"La Posada De Don Jose","address":"","phones":"+50278675699","fax":"","email":"","url":"","countryIso2":"GT","countryName":"Guatemala","hotelRating":"1","latitude":"16.9314","longitude":"-89.8907","state_id":null,"state_name":null,"country_id":null},{"active":false,"Giataid":"463700","cityId":null,"cityName":"Barra del Jiote","hotelId":463700,"hotelName":"Isleta de Gaia","address":"Barra del Jiote,Las Lisas,Guatemala","phones":"+50278850044","fax":"","email":"hotel@isleta-de-gaia.com","url":"http://isleta-de-gaia.com","countryIso2":"GT","countryName":"Guatemala","hotelRating":"1","latitude":"13.7842","longitude":"-90.223","state_id":null,"state_name":null,"country_id":null},{"active":false,"Giataid":"463720","cityId":53500,"cityName":"Guatemala City","hotelId":463720,"hotelName":"Hotel Excel","address":"","phones":"+50222300140","fax":"","email":"","url":"","countryIso2":"GT","countryName":"Guatemala","hotelRating":"1","latitude":"14.6329","longitude":"-90.5122","state_id":3672,"state_name":"Guatemala Department","country_id":90},{"active":false,"Giataid":"463731","cityId":53634,"cityName":"Puerto Barrios","hotelId":463731,"hotelName":"Hotel Valle Tropical","address":"","phones":"+50279487084","fax":"","email":"","url":"","countryIso2":"GT","countryName":"Guatemala","hotelRating":"1","latitude":"15.7286","longitude":"-88.6007","state_id":3659,"state_name":"Izabal Department","country_id":90},{"active":false,"Giataid":"463789","cityId":53638,"cityName":"Quetzaltenango","hotelId":463789,"hotelName":"Hotel Casa Ponce","address":"","phones":"","fax":"","email":"","url":"","countryIso2":"GT","countryName":"Guatemala","hotelRating":"1","latitude":"14.8335","longitude":"-91.5166","state_id":3668,"state_name":"Quetzaltenango Department","country_id":90},{"active":false,"Giataid":"463948","cityId":53526,"cityName":"Livingston","hotelId":463948,"hotelName":"El Hotelito Perdido","address":"","phones":"+50257251576","fax":"","email":"","url":"","countryIso2":"GT","countryName":"Guatemala","hotelRating":"1","latitude":"15.7721","longitude":"-88.8023","state_id":3659,"state_name":"Izabal Department","country_id":90},{"active":false,"Giataid":"463949","cityId":32393,"cityName":"Antigua","hotelId":463949,"hotelName":"Hotel La Posada De Don Beto","address":"","phones":"","fax":"","email":"","url":"","countryIso2":"GT","countryName":"Guatemala","hotelRating":"1","latitude":"14.5553","longitude":"-90.7335","state_id":1185,"state_name":"Canary Islands","country_id":207},{"active":false,"Giataid":"464131","cityId":32393,"cityName":"Antigua","hotelId":464131,"hotelName":"Nina Boutique Hotel","address":"21 5ta. Avenida Sur,03001 La Antigua,Guatemala","phones":"+50278320857","fax":"","email":"info@ninaboutiquehotel.com","url":"http://ninaboutiquehotel.com/e_index.html","countryIso2":"GT","countryName":"Guatemala","hotelRating":"3","latitude":"14.5508","longitude":"-90.7343","state_id":1185,"state_name":"Canary Islands","country_id":207},{"active":false,"Giataid":"481851","cityId":53758,"cityName":"Santa Cruz Verapaz","hotelId":481851,"hotelName":"Park Hotel","address":"Carretera CA-14,km 195.5,Santa Cruz Verapaz 16001,Alta Verapaz,Guatemala","phones":"+50279553600","fax":"","email":"info@parkhotelresort.com","url":"http://www.parkhotelresort.com/index.html","countryIso2":"GT","countryName":"Guatemala","hotelRating":"4","latitude":"15.3739","longitude":"-90.4243","state_id":3671,"state_name":"Alta Verapaz Department","country_id":90},{"active":false,"Giataid":"110555","cityId":null,"cityName":"Tikal","hotelId":491202,"hotelName":"Hostal Jungle Lodge Tikal","address":"Parque Nacional de Tikal,Tikal,17001 Flores,El Pet?n,Guatemala","phones":"","fax":"","email":"","url":"","countryIso2":"GT","countryName":"Guatemala","hotelRating":"1","latitude":"17.2253","longitude":"-89.6138","state_id":null,"state_name":null,"country_id":null},{"active":false,"Giataid":"491640","cityId":53659,"cityName":"San Antonio Palopo","hotelId":491640,"hotelName":"Atitlan Villas Qanajuyu","address":"Agua Escondida,Atitlan Lake,07001 San Antonio Palopo,Guatemala","phones":"","fax":"","email":"","url":"","countryIso2":"GT","countryName":"Guatemala","hotelRating":"1","latitude":"14.6687","longitude":"-91.116","state_id":3661,"state_name":"Solola Department","country_id":90},{"active":false,"Giataid":"502340","cityId":null,"cityName":"El Remate","hotelId":502340,"hotelName":"Mon Ami Hotel","address":"","phones":"","fax":"","email":"","url":"","countryIso2":"GT","countryName":"Guatemala","hotelRating":"3","latitude":"16.9973","longitude":"-89.7002","state_id":null,"state_name":null,"country_id":null},{"active":false,"Giataid":"514266","cityId":32393,"cityName":"Antigua","hotelId":514266,"hotelName":"Casa Buena Vista","address":"","phones":"","fax":"","email":"","url":"","countryIso2":"GT","countryName":"Guatemala","hotelRating":"3","latitude":"14.5622","longitude":"-90.7353","state_id":1185,"state_name":"Canary Islands","country_id":207},{"active":false,"Giataid":"514431","cityId":null,"cityName":"Flores, El Pet?n","hotelId":514431,"hotelName":"Hotel Posada de la Jungla","address":"","phones":"","fax":"","email":"","url":"","countryIso2":"GT","countryName":"Guatemala","hotelRating":"1","latitude":"16.9289","longitude":"-89.8928","state_id":null,"state_name":null,"country_id":null},{"active":false,"Giataid":"515445","cityId":53619,"cityName":"Panajachel","hotelId":515445,"hotelName":"Tzam Poc Resort","address":"","phones":"","fax":"","email":"","url":"","countryIso2":"GT","countryName":"Guatemala","hotelRating":"2","latitude":"14.7132","longitude":"-91.1299","state_id":3661,"state_name":"Solola Department","country_id":90},{"active":false,"Giataid":"522276","cityId":null,"cityName":"Cob?n","hotelId":522276,"hotelName":"Hotel y Restaurante Eco Chibulbut","address":"km. 215.5 Route to San Juan Chamelco,Zona 9,Coban,Guatemala","phones":"+50230488905","fax":"","email":"infochibulbut@gmail.com","url":"http://www.ecochibulbut.com/","countryIso2":"GT","countryName":"Guatemala","hotelRating":"3","latitude":"15.4653","longitude":"-90.372","state_id":null,"state_name":null,"country_id":null},{"active":false,"Giataid":"528781","cityId":53755,"cityName":"Santa Cruz La Laguna","hotelId":528781,"hotelName":"La Iguana Perdida","address":"Main Dock,Lago Atitl?n,Santa Cruz la Laguna,Guatemala","phones":"","fax":"","email":"info@laiguanaperdida.com","url":"http://laiguanaperdida.com/","countryIso2":"GT","countryName":"Guatemala","hotelRating":"2","latitude":"14.7404","longitude":"-91.2063","state_id":3661,"state_name":"Solola Department","country_id":90},{"active":false,"Giataid":"537717","cityId":53503,"cityName":"Huehuetenango","hotelId":537717,"hotelName":"Premier Hotel","address":"2a Street 5-37,Zone 8,Corral Chiquito,Huehuetenango,Guatemala","phones":"+50277649200","fax":"+50277690983","email":"","url":"http://www.huehuetenango.com/site/hp/en.html","countryIso2":"GT","countryName":"Guatemala","hotelRating":"3","latitude":"15.3229","longitude":"-91.4851","state_id":3670,"state_name":"Huehuetenango Department","country_id":90},{"active":false,"Giataid":"546465","cityId":null,"cityName":"Cob?n","hotelId":546465,"hotelName":"Luis Francisco Cabanas Orquigonia","address":"Km. 206 Ruta a las Verapaces,16001 Coban,Guatemala","phones":"","fax":"","email":"","url":"","countryIso2":"GT","countryName":"Guatemala","hotelRating":"2","latitude":"15.4653","longitude":"-90.372","state_id":null,"state_name":null,"country_id":null},{"active":false,"Giataid":"546470","cityId":53758,"cityName":"Santa Cruz Verapaz","hotelId":546470,"hotelName":"Hotel Casa Imperial Coban","address":"Ruta a Cob?n,Kil?metro 200,Santa Cruz Verapaz,Guatemala","phones":"+50278283700","fax":"","email":"info@hotelcasaimperial.com","url":"http://www.hotelcasaimperial.com/","countryIso2":"GT","countryName":"Guatemala","hotelRating":"1","latitude":"15.3952","longitude":"-90.4118","state_id":3671,"state_name":"Alta Verapaz Department","country_id":90},{"active":false,"Giataid":"546484","cityId":53452,"cityName":"Chimaltenango","hotelId":546484,"hotelName":"Crysol Center Hotel","address":"2da Avenida  1-91 A Z-2,Chimaltenango,Guatemala","phones":"+50278395974","fax":"","email":"crysolch@gmail.com","url":"http://www.crysolcenterhotel.com/","countryIso2":"GT","countryName":"Guatemala","hotelRating":"1","latitude":"14.6616","longitude":"-90.8185","state_id":3675,"state_name":"Chimaltenango Department","country_id":90},{"active":false,"Giataid":"546506","cityId":1413,"cityName":"San Benito","hotelId":546506,"hotelName":"Hotel Miraflores","address":"Calle litoral al lago,San Benito,Peten,Guatemala","phones":"","fax":"","email":"","url":"","countryIso2":"GT","countryName":"Guatemala","hotelRating":"1","latitude":"16.923","longitude":"-89.9071","state_id":3654,"state_name":"Entre Rios","country_id":11},{"active":false,"Giataid":"552527","cityId":32393,"cityName":"Antigua","hotelId":552527,"hotelName":"El Carmen Suites","address":"9 Poniente 17,La Antigua,Guatemala","phones":"","fax":"","email":"","url":"","countryIso2":"GT","countryName":"Guatemala","hotelRating":"3","latitude":"14.5517","longitude":"-90.7361","state_id":1185,"state_name":"Canary Islands","country_id":207},{"active":false,"Giataid":"594553","cityId":null,"cityName":"Cob?n","hotelId":594553,"hotelName":"Hotel Posada Montana del Quetzal","address":"Km 156.5 Ruta a Coban,16001 Purulh?,Coban,Guatemala","phones":"","fax":"","email":"","url":"http://www.hposadaquetzal.com/","countryIso2":"GT","countryName":"Guatemala","hotelRating":"2","latitude":"15.2177","longitude":"-90.2121","state_id":null,"state_name":null,"country_id":null},{"active":false,"Giataid":"594553","cityId":null,"cityName":"Purulh?","hotelId":594553,"hotelName":"Hotel Posada Montana del Quetzal","address":"Km 156.5 Ruta a Coban,16001 Purulh?,Coban,Guatemala","phones":"","fax":"","email":"","url":"http://www.hposadaquetzal.com/","countryIso2":"GT","countryName":"Guatemala","hotelRating":"2","latitude":"15.2177","longitude":"-90.2121","state_id":null,"state_name":null,"country_id":null},{"active":false,"Giataid":"594605","cityId":53726,"cityName":"San Pedro La Laguna","hotelId":594605,"hotelName":"Hotel Cabana Del Arco","address":"6a avenida 3-42,zona 3,San Pedro La Laguna,Guatemala","phones":"+50257122539","fax":"","email":"","url":"http://www.hotelcabanadelarco.com/","countryIso2":"GT","countryName":"Guatemala","hotelRating":"3","latitude":"14.6845","longitude":"-91.2609","state_id":3661,"state_name":"Solola Department","country_id":90},{"active":false,"Giataid":"601405","cityId":32393,"cityName":"Antigua","hotelId":601405,"hotelName":"Hotel La Casa de Don Ismael","address":"6 3ra Calle Poniente,03001 Antigua Guatemala,Sacatepequez,Guatemala","phones":"+50278321932","fax":"+50234042545","email":"info@casadonismael.com","url":"http://www.casadonismael.com","countryIso2":"GT","countryName":"Guatemala","hotelRating":"1","latitude":"14.5579","longitude":"-90.7369","state_id":1185,"state_name":"Canary Islands","country_id":207},{"active":false,"Giataid":"617330","cityId":null,"cityName":"Flores, El Pet?n","hotelId":617330,"hotelName":"Hotel Casa Azul","address":"","phones":"","fax":"","email":"","url":"","countryIso2":"GT","countryName":"Guatemala","hotelRating":"3","latitude":"16.9315","longitude":"-89.8921","state_id":null,"state_name":null,"country_id":null},{"active":false,"Giataid":"617534","cityId":null,"cityName":"Cob?n","hotelId":617534,"hotelName":"Hotel Posada de Carlos V","address":"3-44 1A Avenida,Zona 1,16001 Cob?n,Alta Verapaz,Guatemala","phones":"+50279513501","fax":"+50279511133","email":"reservaciones@hotelcarlosvcoban.com","url":"http://www.hotelcarlosvcoban.com","countryIso2":"GT","countryName":"Guatemala","hotelRating":"1","latitude":"15.4736","longitude":"-90.3727","state_id":null,"state_name":null,"country_id":null},{"active":false,"Giataid":"617538","cityId":32393,"cityName":"Antigua","hotelId":617538,"hotelName":"Hotel Santa Clara","address":"20 2A Avenida Sur,00011 Antigua Guatemala,Guatemala","phones":"+50278320342","fax":"","email":"","url":"http://www.hotelsantaclaraantigua.com/index_en.html","countryIso2":"GT","countryName":"Guatemala","hotelRating":"1","latitude":"14.5538","longitude":"-90.7313","state_id":1185,"state_name":"Canary Islands","country_id":207},{"active":false,"Giataid":"617541","cityId":32393,"cityName":"Antigua","hotelId":617541,"hotelName":"Casa Florencia Hotel","address":"100 7A Avenida Norte,03001 Antigua Guatemala,Guatemala","phones":"+50278320261","fax":"","email":"casaflorenciahotel@gmail.com","url":"http://www.cflorencia.net","countryIso2":"GT","countryName":"Guatemala","hotelRating":"2","latitude":"14.563","longitude":"-90.7363","state_id":1185,"state_name":"Canary Islands","country_id":207},{"active":false,"Giataid":"617545","cityId":70007,"cityName":"El Jobo","hotelId":617545,"hotelName":"Papagayo","address":"Carretera A Taxisco km 84.5,00011 El Jobo,Guatemala","phones":"","fax":"","email":"","url":"","countryIso2":"GT","countryName":"Guatemala","hotelRating":"1","latitude":"14.078","longitude":"-90.5988","state_id":3451,"state_name":"Chiapas","country_id":142},{"active":false,"Giataid":"617549","cityId":null,"cityName":"Cob?n","hotelId":617549,"hotelName":"La Posada De Don Antonio","address":"5 Avenida 1.51,Zona 4,00011 Cob?n,Guatemala","phones":"","fax":"","email":"","url":"","countryIso2":"GT","countryName":"Guatemala","hotelRating":"1","latitude":"15.4706","longitude":"-90.3695","state_id":null,"state_name":null,"country_id":null},{"active":false,"Giataid":"617550","cityId":null,"cityName":"Cob?n","hotelId":617550,"hotelName":"Hotel Casa Semuc","address":"3a Avenida 2-12,Zona 2,Cob?n,Guatemala","phones":"","fax":"","email":"","url":"","countryIso2":"GT","countryName":"Guatemala","hotelRating":"1","latitude":"15.4695","longitude":"-90.3744","state_id":null,"state_name":null,"country_id":null},{"active":false,"Giataid":"617551","cityId":null,"cityName":"Cob?n","hotelId":617551,"hotelName":"Hotel Casa Gaia","address":"9 Final De la,Zona 10,Barrio San Jorge,00011 Coban,Alta Verapaz,Guatemala","phones":"+50279417021","fax":"","email":"","url":"http://hotelcasagaia.com","countryIso2":"GT","countryName":"Guatemala","hotelRating":"1","latitude":"15.4775","longitude":"-90.3642","state_id":null,"state_name":null,"country_id":null},{"active":false,"Giataid":"617553","cityId":53619,"cityName":"Panajachel","hotelId":617553,"hotelName":"Hotel Victoria","address":"Calle El Amate,Zona 1,07010 Panajachel,Solola,Guatemala","phones":"+50277620141","fax":"","email":"hotelvictoriapanajachelsolola@gmail.com","url":"http://www.hotel-victoria-panajachel.com","countryIso2":"GT","countryName":"Guatemala","hotelRating":"1","latitude":"14.7414","longitude":"-91.159","state_id":3661,"state_name":"Solola Department","country_id":90},{"active":false,"Giataid":"617555","cityId":53619,"cityName":"Panajachel","hotelId":617555,"hotelName":"Hotel Casa Ramos","address":"Playa P?blica,Zona 2,Callejon Ramos,07010 Panajachel,Guatemala","phones":"","fax":"","email":"","url":"","countryIso2":"GT","countryName":"Guatemala","hotelRating":"1","latitude":"14.7362","longitude":"-91.1586","state_id":3661,"state_name":"Solola Department","country_id":90},{"active":false,"Giataid":"617659","cityId":53755,"cityName":"Santa Cruz La Laguna","hotelId":617659,"hotelName":"Hotel & Restaurante Arca de Noe","address":"Santa Cruz la Laguna,Lake Atitlan,01010 Santa Cruz La Laguna,Guatemala","phones":"+50248639015","fax":"","email":"","url":"http://www.hotelarcadenoeatitlan.com/","countryIso2":"GT","countryName":"Guatemala","hotelRating":"1","latitude":"14.7403","longitude":"-91.2067","state_id":3661,"state_name":"Solola Department","country_id":90},{"active":false,"Giataid":"617660","cityId":53709,"cityName":"San Marcos La Laguna","hotelId":617660,"hotelName":"Hotel & Restaurant Jinava Bay","address":"San Marcos la Laguna,Lago Atitl?n,07018 San Marcos La Laguna,Guatemala","phones":"+50252993311","fax":"","email":"","url":"http://en.hoteljinava.com/","countryIso2":"GT","countryName":"Guatemala","hotelRating":"3","latitude":"14.7249","longitude":"-91.2643","state_id":3661,"state_name":"Solola Department","country_id":90},{"active":false,"Giataid":"617714","cityId":null,"cityName":"Cob?n","hotelId":617714,"hotelName":"Hostel Guatefriends Coban","address":"Km 205 Carretera Coban Aldea Chicuxab A,800 Metros De La Ruta,16001 Cataltzul,Guatemala","phones":"","fax":"","email":"","url":"","countryIso2":"GT","countryName":"Guatemala","hotelRating":"1","latitude":"15.7894","longitude":"-90.2184","state_id":null,"state_name":null,"country_id":null},{"active":false,"Giataid":"617723","cityId":53456,"cityName":"Chiquimulilla","hotelId":617723,"hotelName":"Hotel y Restaurante Q?ana Itz?am","address":"Lagunita Salvador, Livingston Izabal,Chiquimulilla,Guatemala","phones":"","fax":"","email":"","url":"","countryIso2":"GT","countryName":"Guatemala","hotelRating":"1","latitude":"15.7866","longitude":"-88.8649","state_id":3665,"state_name":"Santa Rosa Department","country_id":90},{"active":false,"Giataid":"617732","cityId":null,"cityName":"Rio Dulce","hotelId":617732,"hotelName":"Tortugal","address":"","phones":"","fax":"","email":"","url":"","countryIso2":"GT","countryName":"Guatemala","hotelRating":"1","latitude":"15.6497","longitude":"-89.0016","state_id":null,"state_name":null,"country_id":null},{"active":false,"Giataid":"626682","cityId":53500,"cityName":"Guatemala City","hotelId":626682,"hotelName":"Courtyard Guatemala City","address":"1 Avenida 12-47,Zona 10,01010 Guatemala City,Guatemala","phones":"+50224215171","fax":"","email":"","url":"http://www.marriott.com/hotels/travel/guacy-courtyard-guatemala-city/","countryIso2":"GT","countryName":"Guatemala","hotelRating":"3","latitude":"14.6006","longitude":"-90.5153","state_id":3672,"state_name":"Guatemala Department","country_id":90},{"active":false,"Giataid":"651309","cityId":null,"cityName":"Cob?n","hotelId":651309,"hotelName":"Hotel Piedra Luna","address":"7 Avenida 1-25,Zona 4,Cob?n,Guatemala","phones":"+50257527206","fax":"","email":"mayravaldizon11@hotmail.com","url":"http://www.hotelpiedraluna.com/","countryIso2":"GT","countryName":"Guatemala","hotelRating":"1","latitude":"15.4718","longitude":"-90.3682","state_id":null,"state_name":null,"country_id":null},{"active":false,"Giataid":"669418","cityId":null,"cityName":"Pet?n","hotelId":669418,"hotelName":"Hotel Ribiera Del Lago Peten Itza","address":"Jobompinche,San Jose,50803 Peten,Guatemala","phones":"","fax":"","email":"admiribieradellago2016@gmail.com","url":"http://www.hotellaribieradellagopetenitza.com/","countryIso2":"GT","countryName":"Guatemala","hotelRating":"3","latitude":"17.0134","longitude":"-89.7589","state_id":null,"state_name":null,"country_id":null},{"active":false,"Giataid":"669660","cityId":null,"cityName":"Jobompiche","hotelId":669660,"hotelName":"El Encantadero","address":"Casa El Encantadero,San Jos?,Jobompiche 10000,Peten,Guatemala","phones":"","fax":"","email":"","url":"","countryIso2":"GT","countryName":"Guatemala","hotelRating":"1","latitude":"0","longitude":"0","state_id":null,"state_name":null,"country_id":null},{"active":false,"Giataid":"669801","cityId":null,"cityName":"Cob?n","hotelId":669801,"hotelName":"Hotel El Portal","address":"4 calle 2-09 Zona 2,16001 Cob?n,Guatemala","phones":"","fax":"","email":"","url":"","countryIso2":"GT","countryName":"Guatemala","hotelRating":"1","latitude":"15.4685","longitude":"-90.3738","state_id":null,"state_name":null,"country_id":null},{"active":false,"Giataid":"669900","cityId":53693,"cityName":"San Juan Chamelco","hotelId":669900,"hotelName":"Posada del Campo","address":"Entrada al Rancho Santa Fe de San Juan Chamelco,01016 San Juan Chamelco,Guatemala","phones":"","fax":"","email":"","url":"http://www.agoda.com/posada-del-campo/hotel/san-juan-chamelco-gt.html?cid=-145","countryIso2":"GT","countryName":"Guatemala","hotelRating":"1","latitude":"0","longitude":"0","state_id":3671,"state_name":"Alta Verapaz Department","country_id":90},{"active":false,"Giataid":"669941","cityId":53525,"cityName":"Los Amates","hotelId":669941,"hotelName":"Casa Perico","address":"Livingston,Izabal,Rio Dulce,Guatemala","phones":"+50279305666","fax":"","email":"info@casa-perico.com","url":"http://www.casa-perico.com","countryIso2":"GT","countryName":"Guatemala","hotelRating":"1","latitude":"15.4746","longitude":"-89.0227","state_id":3659,"state_name":"Izabal Department","country_id":90},{"active":false,"Giataid":"670192","cityId":null,"cityName":"Cob?n","hotelId":670192,"hotelName":"Big Tower Hotel","address":"7-44 3 Avenida,Barrio la Libertad,Zona 11,16001 Coban,Guatemala","phones":"","fax":"","email":"","url":"","countryIso2":"GT","countryName":"Guatemala","hotelRating":"1","latitude":"15.4789","longitude":"-90.3681","state_id":null,"state_name":null,"country_id":null},{"active":false,"Giataid":"670223","cityId":53755,"cityName":"Santa Cruz La Laguna","hotelId":670223,"hotelName":"Atitlan Sunset Lodge","address":"Paxanax,07011 Santa Cruz la Laguna,Guatemala","phones":"+50254936161","fax":"","email":"lakeatitlansunsetlodge@gmail.com","url":"http://www.atitlansunsetlodge.com","countryIso2":"GT","countryName":"Guatemala","hotelRating":"1","latitude":"14.7401","longitude":"-91.1968","state_id":3661,"state_name":"Solola Department","country_id":90},{"active":false,"Giataid":"670272","cityId":null,"cityName":"Cob?n","hotelId":670272,"hotelName":"Hostal Casa Luna","address":"2-28 5a Avenida,Zona 1,16001 Cob?n,Alta Verapaz,Guatemala","phones":"+50279512922","fax":"","email":"info@cobantravels.com","url":"http://www.hostalcasaluna.com","countryIso2":"GT","countryName":"Guatemala","hotelRating":"1","latitude":"15.4653","longitude":"-90.372","state_id":null,"state_name":null,"country_id":null},{"active":false,"Giataid":"670365","cityId":null,"cityName":"Pet?n","hotelId":670365,"hotelName":"El Sombrero Ecolodge","address":"Yaxha Lagoon,Yaxha-Nakum-Naranjo National Park,Yaxha,17000 Peten,Guatemala","phones":"+50241476380","fax":"","email":"ventaselsombrero@gmail.com","url":"http://www.elsombreroecolodge.com","countryIso2":"GT","countryName":"Guatemala","hotelRating":"1","latitude":"17.0564","longitude":"-89.3863","state_id":null,"state_name":null,"country_id":null},{"active":false,"Giataid":"670374","cityId":null,"cityName":"Pet?n","hotelId":670374,"hotelName":"Zapote Tree Inn","address":"San Miguel,Peten,Flores,Guatemala","phones":"+50247085250","fax":"","email":"contact@guatemalatikal.com","url":"http://www.guatemalatikal.com","countryIso2":"GT","countryName":"Guatemala","hotelRating":"1","latitude":"16.9727","longitude":"-89.7856","state_id":null,"state_name":null,"country_id":null},{"active":false,"Giataid":"670422","cityId":53483,"cityName":"El Estor","hotelId":670422,"hotelName":"Chalet Castillo","address":"1 Calle 11 Avenida,Zona 1,Barrio El Centro,77012 El Estor,Izabal,Guatemala","phones":"+50240023581","fax":"","email":"reservaciones@chaletcastillo.com","url":"http://chaletcastillo.com","countryIso2":"GT","countryName":"Guatemala","hotelRating":"1","latitude":"15.5246","longitude":"-89.3272","state_id":3659,"state_name":"Izabal Department","country_id":90},{"active":false,"Giataid":"670432","cityId":null,"cityName":"Purulh?","hotelId":670432,"hotelName":"Ram Tzul Hotel","address":"km 158 Ruta a Cob?n,Cumbre Del Carpintero,Purulha,Baja Verapaz,Guatemala","phones":"+50223351805","fax":"","email":"ramtzul@gmail.com","url":"http://www.ramtzul.com","countryIso2":"GT","countryName":"Guatemala","hotelRating":"1","latitude":"15.1738","longitude":"-90.1989","state_id":null,"state_name":null,"country_id":null},{"active":false,"Giataid":"670719","cityId":53452,"cityName":"Chimaltenango","hotelId":670719,"hotelName":"Xejuyu","address":"Del km 51.3 Carretera Interamericana,3.5 Al Norte Siguiendo Indicaciones,01010 Chimaltenango,Guatemala","phones":"+50278675980","fax":"","email":"fincaxejuyufarm@gmail.com","url":"http://www.fincaxejuyu.com","countryIso2":"GT","countryName":"Guatemala","hotelRating":"1","latitude":"14.6805","longitude":"-90.7913","state_id":3675,"state_name":"Chimaltenango Department","country_id":90},{"active":false,"Giataid":"671328","cityId":53508,"cityName":"Iztapa","hotelId":671328,"hotelName":"Casas Pelicanos","address":"km 3.5 Carretera Entre Iztapa Y Monterrico,01001 Iztapa,Guatemala","phones":"+50241506902","fax":"","email":"casaspelicanos@hotmail.com","url":"http://www.pelicanosguatemala.com","countryIso2":"GT","countryName":"Guatemala","hotelRating":"1","latitude":"13.9292","longitude":"-90.679","state_id":3677,"state_name":"Escuintla Department","country_id":90},{"active":false,"Giataid":"701119","cityId":null,"cityName":"Cob?n","hotelId":701119,"hotelName":"Hostal Piccolo","address":"1 Era Calle,Lote 6,Zona 12,16001 Coban,Guatemala","phones":"","fax":"","email":"","url":"","countryIso2":"GT","countryName":"Guatemala","hotelRating":"1","latitude":"15.4653","longitude":"-90.372","state_id":null,"state_name":null,"country_id":null},{"active":false,"Giataid":"701244","cityId":53758,"cityName":"Santa Cruz Verapaz","hotelId":701244,"hotelName":"Hotel Entre Rios","address":"7W km 200 Carretera,16002 Santa Cruz Verapaz,Guatemala","phones":"","fax":"","email":"","url":"","countryIso2":"GT","countryName":"Guatemala","hotelRating":"1","latitude":"15.3875","longitude":"-90.4163","state_id":3671,"state_name":"Alta Verapaz Department","country_id":90},{"active":false,"Giataid":"701501","cityId":null,"cityName":"Cob?n","hotelId":701501,"hotelName":"Hotel Casa Serena","address":"10-37 6ta. Calle,El Recreo,Coban Alta Verapaz,Zona 3,16001 Coban,Guatemala","phones":"","fax":"","email":"","url":"","countryIso2":"GT","countryName":"Guatemala","hotelRating":"1","latitude":"15.4653","longitude":"-90.372","state_id":null,"state_name":null,"country_id":null},{"active":false,"Giataid":"701610","cityId":53638,"cityName":"Quetzaltenango","hotelId":701610,"hotelName":"Casa Morasan Hotel Boutique","address":"8-21 12 Avenida,Zona 1,09001 Quetzaltenango,Guatemala","phones":"+50277650616","fax":"","email":"info@casamorasan.com","url":"http://www.casamorasan.com","countryIso2":"GT","countryName":"Guatemala","hotelRating":"2","latitude":"14.8385","longitude":"-91.5169","state_id":3668,"state_name":"Quetzaltenango Department","country_id":90},{"active":false,"Giataid":"711742","cityId":null,"cityName":"Sipacate","hotelId":711742,"hotelName":"Paredon Surf House","address":"El Paredon,500 meters before the Plaza de El Paredon,Sipacate,Guatemala","phones":"+50249941842","fax":"","email":"reservations@paredonsurf.com","url":"http://www.paredonsurf.com/","countryIso2":"GT","countryName":"Guatemala","hotelRating":"2","latitude":"13.9211","longitude":"-91.1085","state_id":null,"state_name":null,"country_id":null},{"active":false,"Giataid":"711788","cityId":null,"cityName":"Lanqu?n","hotelId":711788,"hotelName":"Vinas Hotel","address":"","phones":"","fax":"","email":"","url":"","countryIso2":"GT","countryName":"Guatemala","hotelRating":"1","latitude":"15.5754","longitude":"-89.9809","state_id":null,"state_name":null,"country_id":null},{"active":false,"Giataid":"712489","cityId":53758,"cityName":"Santa Cruz Verapaz","hotelId":712489,"hotelName":"Hotel La Cupula","address":"San Rafael,Km 201 Carretera a Cob?n,CA14,16002 Santa Cruz Verapaz,Santa Cruz Verapaz,Guatemala","phones":"+50279687719","fax":"","email":"","url":"http://www.sanrafaelcoban.com/hotel.html","countryIso2":"GT","countryName":"Guatemala","hotelRating":"1","latitude":"15.3875","longitude":"-90.4163","state_id":3671,"state_name":"Alta Verapaz Department","country_id":90},{"active":false,"Giataid":"712516","cityId":53758,"cityName":"Santa Cruz Verapaz","hotelId":712516,"hotelName":"Casa Hotel San Rafael","address":"Km 201 Carretera a Cob?n,16002 Santa Cruz Verapaz,Alta Verapaz,Corredor Seco,Guatemala","phones":"+50279687719","fax":"","email":"","url":"http://www.sanrafaelcoban.com/hotel.html","countryIso2":"GT","countryName":"Guatemala","hotelRating":"1","latitude":"15.3875","longitude":"-90.4163","state_id":3671,"state_name":"Alta Verapaz Department","country_id":90},{"active":false,"Giataid":"713407","cityId":53805,"cityName":"Zunil","hotelId":713407,"hotelName":"Las Cumbres Eco-Hotel, Termalismo y Spa","address":"Carretera al Pac?fico Km 211.5","phones":"","fax":"","email":"","url":"","countryIso2":"GT","countryName":"Guatemala","hotelRating":"3","latitude":"14.7766","longitude":"-91.4961","state_id":3668,"state_name":"Quetzaltenango Department","country_id":90},{"active":false,"Giataid":"713511","cityId":null,"cityName":"El Remate","hotelId":713511,"hotelName":"Hotel Campamento Ecologico El Sotz","address":"","phones":"","fax":"","email":"","url":"","countryIso2":"GT","countryName":"Guatemala","hotelRating":"1","latitude":"16.9888","longitude":"-89.6889","state_id":null,"state_name":null,"country_id":null},{"active":false,"Giataid":"713588","cityId":null,"cityName":"Lanqu?n","hotelId":713588,"hotelName":"Hostal Oasis The Traveler","address":"Kil?metro 271 RN-AV06,Lanqu?n,Alta Verapaz,Guatemala","phones":"+50231666260","fax":"","email":"","url":"http://hotelesenlanquin.com/oasis-de-lanquin/","countryIso2":"GT","countryName":"Guatemala","hotelRating":"2","latitude":"15.5754","longitude":"-89.9809","state_id":null,"state_name":null,"country_id":null},{"active":false,"Giataid":"713615","cityId":null,"cityName":"Lanqu?n","hotelId":713615,"hotelName":"Hostal El Portal de Champey","address":"Aldea Semuc Champey,Lanqu?n,Alta Verapaz,Guatemala","phones":"+50253196848","fax":"","email":"","url":"http://hotelesenlanquin.com/el-portal/","countryIso2":"GT","countryName":"Guatemala","hotelRating":"2","latitude":"15.5754","longitude":"-89.9809","state_id":null,"state_name":null,"country_id":null},{"active":false,"Giataid":"728819","cityId":32393,"cityName":"Antigua","hotelId":728819,"hotelName":"Cucuruchos Boutique Hostel","address":"1-A 3 Avenida Sur,03001 Antigua Guatemala,Guatemala","phones":"","fax":"","email":"","url":"","countryIso2":"GT","countryName":"Guatemala","hotelRating":"2","latitude":"14.5556","longitude":"-90.7321","state_id":1185,"state_name":"Canary Islands","country_id":207},{"active":false,"Giataid":"730482","cityId":53500,"cityName":"Guatemala City","hotelId":730482,"hotelName":"Gran Central Gueroult","address":"9 Calle 4-10,Zona 1,Guatemala,Guatemala","phones":"","fax":"","email":"","url":"","countryIso2":"GT","countryName":"Guatemala","hotelRating":"1","latitude":"14.5998","longitude":"-90.5161","state_id":3672,"state_name":"Guatemala Department","country_id":90},{"active":false,"Giataid":"731085","cityId":32393,"cityName":"Antigua","hotelId":731085,"hotelName":"Garden Hotel Antigua","address":"7a Avenida Norte 76,03001 Antigua Guatemala,Departamento De Sacatepequez,Guatemala","phones":"","fax":"","email":"","url":"","countryIso2":"GT","countryName":"Guatemala","hotelRating":"2","latitude":"14.5553","longitude":"-90.7335","state_id":1185,"state_name":"Canary Islands","country_id":207},{"active":false,"Giataid":"733119","cityId":32393,"cityName":"Antigua","hotelId":733119,"hotelName":"Hotel Panchoy","address":"5A 1ra Avenida Norte,03001 Antigua Guatemala,Guatemala","phones":"","fax":"","email":"","url":"","countryIso2":"GT","countryName":"Guatemala","hotelRating":"3","latitude":"14.5553","longitude":"-90.7335","state_id":1185,"state_name":"Canary Islands","country_id":207},{"active":false,"Giataid":"734715","cityId":null,"cityName":"Rio Dulce","hotelId":734715,"hotelName":"Dreamcatcher Eco Lodge","address":"Rio Dulce Creek,Zona 0,Leon Creek,18021 Rio Dulce Town,Guatemala","phones":"","fax":"","email":"","url":"","countryIso2":"GT","countryName":"Guatemala","hotelRating":"1","latitude":"15.66","longitude":"-89.0014","state_id":null,"state_name":null,"country_id":null},{"active":false,"Giataid":"734788","cityId":32393,"cityName":"Antigua","hotelId":734788,"hotelName":"Adra Hostel","address":"15 4 Calle Oriente,03001 Antigua Guatemala,Guatemala","phones":"","fax":"","email":"","url":"","countryIso2":"GT","countryName":"Guatemala","hotelRating":"2","latitude":"14.5553","longitude":"-90.7335","state_id":1185,"state_name":"Canary Islands","country_id":207},{"active":false,"Giataid":"739737","cityId":53500,"cityName":"Guatemala City","hotelId":739737,"hotelName":"Hostal Villa Toscana","address":"16 Calle 8-20,Zona 13,Aurora I,Guatemala Ciudad,Guatemala","phones":"+50222612854","fax":"","email":"info@hostalvillatoscana.com","url":"http://www.hostalvillatoscana.com","countryIso2":"GT","countryName":"Guatemala","hotelRating":"1","latitude":"14.5835","longitude":"-90.5322","state_id":3672,"state_name":"Guatemala Department","country_id":90},{"active":false,"Giataid":"739837","cityId":32393,"cityName":"Antigua","hotelId":739837,"hotelName":"Selina Antigua","address":"6ta Avenida Norte 43-A,Antigua Guatemala,Guatemala","phones":"","fax":"","email":"","url":"http://www.selina.com/antigua/","countryIso2":"GT","countryName":"Guatemala","hotelRating":"1","latitude":"14.5553","longitude":"-90.7335","state_id":1185,"state_name":"Canary Islands","country_id":207},{"active":false,"Giataid":"739906","cityId":32393,"cityName":"Antigua","hotelId":739906,"hotelName":"Tunik Hostel","address":"30 2a Calle Oriente,Antigua Guatemala,Guatemala","phones":"+50278321624","fax":"","email":"tunikhostelantigua@gmail.com","url":"http://www.tunikhostel.com","countryIso2":"GT","countryName":"Guatemala","hotelRating":"2","latitude":"14.5553","longitude":"-90.7335","state_id":1185,"state_name":"Canary Islands","country_id":207},{"active":false,"Giataid":"740183","cityId":32393,"cityName":"Antigua","hotelId":740183,"hotelName":"Casa Colibri","address":"6ta Avenue Norte 1A,03001 Antigua,Guatemala","phones":"","fax":"","email":"","url":"","countryIso2":"GT","countryName":"Guatemala","hotelRating":"2","latitude":"14.5553","longitude":"-90.7335","state_id":1185,"state_name":"Canary Islands","country_id":207},{"active":false,"Giataid":"741918","cityId":32393,"cityName":"Antigua","hotelId":741918,"hotelName":"Posada De San Agustin","address":"22 5ta Calle Poniente,03001 Antigua,Sacatepequez,Guatemala","phones":"","fax":"","email":"","url":"","countryIso2":"GT","countryName":"Guatemala","hotelRating":"2","latitude":"14.5553","longitude":"-90.7335","state_id":1185,"state_name":"Canary Islands","country_id":207},{"active":false,"Giataid":"742080","cityId":53726,"cityName":"San Pedro La Laguna","hotelId":742080,"hotelName":"El Delfin Hotel Y Restaurante","address":"7 Avenida Zona 2 Canton Chuacante,Solola,07018 San Pedro La Laguna,Guatemala","phones":"","fax":"","email":"","url":"http://www.eldelfinhotelyrestaurante.com","countryIso2":"GT","countryName":"Guatemala","hotelRating":"1","latitude":"14.694","longitude":"-91.2687","state_id":3661,"state_name":"Solola Department","country_id":90},{"active":false,"Giataid":"746811","cityId":32393,"cityName":"Antigua","hotelId":746811,"hotelName":"Hostal Antigueno","address":"15 1a Calle Oriente,03001 La Antigua,Guatemala","phones":"+50230370025","fax":"","email":"hostalantigueno@gmail.com","url":"http://hostal-antigueno.com/en/","countryIso2":"GT","countryName":"Guatemala","hotelRating":"1","latitude":"14.5608","longitude":"-90.729","state_id":1185,"state_name":"Canary Islands","country_id":207},{"active":false,"Giataid":"747329","cityId":53709,"cityName":"San Marcos La Laguna","hotelId":747329,"hotelName":"Eagle's Hostel","address":"San Marcos La Laguna,Guatemala","phones":"","fax":"","email":"","url":"","countryIso2":"GT","countryName":"Guatemala","hotelRating":"2","latitude":"14.7231","longitude":"-91.2614","state_id":3661,"state_name":"Solola Department","country_id":90},{"active":false,"Giataid":"750064","cityId":53758,"cityName":"Santa Cruz Verapaz","hotelId":750064,"hotelName":"Bella Verapaz","address":"km.197.5 Carretera de Guatemala a Coban,16002 Santa Cruz Verapaz,Guatemala","phones":"","fax":"","email":"","url":"","countryIso2":"GT","countryName":"Guatemala","hotelRating":"1","latitude":"15.3875","longitude":"-90.4163","state_id":3671,"state_name":"Alta Verapaz Department","country_id":90},{"active":false,"Giataid":"751141","cityId":53500,"cityName":"Guatemala City","hotelId":751141,"hotelName":"Hotel Montecarlo","address":"16-20 9 Avenida,Zona 1,01001 Guatemala,Guatemala","phones":"","fax":"","email":"","url":"","countryIso2":"GT","countryName":"Guatemala","hotelRating":"1","latitude":"14.5998","longitude":"-90.5161","state_id":3672,"state_name":"Guatemala Department","country_id":90},{"active":false,"Giataid":"751256","cityId":53500,"cityName":"Guatemala City","hotelId":751256,"hotelName":"Jardin Ingles Hotel Boutique & Spa","address":"Carretera El Salvador,Km 24.5,Junction to Colmenas,Fraijanes,Villa Canales,01065 Guatemala,Guatemala","phones":"+50266711050","fax":"","email":"info@hoteljardiningles.com","url":"http://www.hoteljardiningles.com","countryIso2":"GT","countryName":"Guatemala","hotelRating":"3","latitude":"14.5998","longitude":"-90.5161","state_id":3672,"state_name":"Guatemala Department","country_id":90},{"active":false,"Giataid":"754187","cityId":null,"cityName":"Cob?n","hotelId":754187,"hotelName":"Hotel Casa Chapultepec","address":"1-50 5a Avenida,Zona 3,16001 Coban,Guatemala","phones":"","fax":"","email":"","url":"","countryIso2":"GT","countryName":"Guatemala","hotelRating":"1","latitude":"15.4653","longitude":"-90.372","state_id":null,"state_name":null,"country_id":null},{"active":false,"Giataid":"754403","cityId":32393,"cityName":"Antigua","hotelId":754403,"hotelName":"Villas De La Ermita","address":"Santa Ana Calle Del Agua Callejon De La,Ermita Lote 9,00011 Antigua Guatemala,Guatemala","phones":"","fax":"","email":"","url":"","countryIso2":"GT","countryName":"Guatemala","hotelRating":"3","latitude":"14.5462","longitude":"-90.7271","state_id":1185,"state_name":"Canary Islands","country_id":207},{"active":false,"Giataid":"755637","cityId":32393,"cityName":"Antigua","hotelId":755637,"hotelName":"Villa Santa Ana","address":"36A Santa Ana,Antigua,Sacatepequez,Guatemala,Guatemala","phones":"","fax":"","email":"","url":"","countryIso2":"GT","countryName":"Guatemala","hotelRating":"3","latitude":"14.5553","longitude":"-90.7335","state_id":1185,"state_name":"Canary Islands","country_id":207},{"active":false,"Giataid":"757366","cityId":32393,"cityName":"Antigua","hotelId":757366,"hotelName":"Hotel Cristal","address":"Avenida Del Desengano 25,03002 Antigua Guatemala,Guatemala","phones":"","fax":"","email":"","url":"","countryIso2":"GT","countryName":"Guatemala","hotelRating":"1","latitude":"14.5553","longitude":"-90.7335","state_id":1185,"state_name":"Canary Islands","country_id":207},{"active":false,"Giataid":"757515","cityId":32393,"cityName":"Antigua","hotelId":757515,"hotelName":"Hostal Casa Del Artista & Galeria","address":"6 Avenida Norte 74 A,03001 Antigua Guatemala,Guatemala","phones":"","fax":"","email":"","url":"","countryIso2":"GT","countryName":"Guatemala","hotelRating":"1","latitude":"14.5553","longitude":"-90.7335","state_id":1185,"state_name":"Canary Islands","country_id":207},{"active":false,"Giataid":"757649","cityId":32393,"cityName":"Antigua","hotelId":757649,"hotelName":"Hotel Boutique Villa Sofia","address":"Calle De Los Duelos,Condominio,Jacarandas Y Gravileas 15,Antigua,Sacatepequez,Guatemala","phones":"","fax":"","email":"","url":"","countryIso2":"GT","countryName":"Guatemala","hotelRating":"2","latitude":"14.5553","longitude":"-90.7335","state_id":1185,"state_name":"Canary Islands","country_id":207},{"active":false,"Giataid":"757785","cityId":32393,"cityName":"Antigua","hotelId":757785,"hotelName":"La Casa Tiquicia","address":"72A Sexta Avenida Norte,03001 Antigua Guatemala,Guatemala","phones":"","fax":"","email":"","url":"","countryIso2":"GT","countryName":"Guatemala","hotelRating":"1","latitude":"14.5553","longitude":"-90.7335","state_id":1185,"state_name":"Canary Islands","country_id":207},{"active":false,"Giataid":"758943","cityId":32393,"cityName":"Antigua","hotelId":758943,"hotelName":"Camping & Travel","address":"72A  Sexta  avenida norte,interior 3 3er. piso,03001 Antigua Guatemala,Guatemala","phones":"","fax":"","email":"","url":"","countryIso2":"GT","countryName":"Guatemala","hotelRating":"1","latitude":"14.5553","longitude":"-90.7335","state_id":1185,"state_name":"Canary Islands","country_id":207},{"active":false,"Giataid":"783667","cityId":null,"cityName":"El Remate","hotelId":783667,"hotelName":"Posada Del Cerro","address":"Calle A Jobompiche,El Remate,Guatemala","phones":"","fax":"","email":"mailto@posadadelcerro.com","url":"http://www.posadadelcerro.com/","countryIso2":"GT","countryName":"Guatemala","hotelRating":"1","latitude":"16.9888","longitude":"-89.6889","state_id":null,"state_name":null,"country_id":null},{"active":false,"Giataid":"784508","cityId":53500,"cityName":"Guatemala City","hotelId":784508,"hotelName":"Hotel Casa Blanca Inn II","address":"4a Calle 6-15 zona 13,Guatemala City,Guatemala","phones":"","fax":"","email":"","url":"","countryIso2":"GT","countryName":"Guatemala","hotelRating":"1","latitude":"14.5998","longitude":"-90.5161","state_id":3672,"state_name":"Guatemala Department","country_id":90},{"active":false,"Giataid":"784719","cityId":11830,"cityName":"Flores","hotelId":784719,"hotelName":"Hotel Petenchel","address":"Playa Sur,Peten,17001 Flores,Guatemala","phones":"","fax":"","email":"","url":"","countryIso2":"GT","countryName":"Guatemala","hotelRating":"1","latitude":"16.9253","longitude":"-89.8812","state_id":2006,"state_name":"Pernambuco","country_id":31},{"active":false,"Giataid":"784738","cityId":32393,"cityName":"Antigua","hotelId":784738,"hotelName":"Hostal Morenos","address":"45 2Da Avenida Sur,03005 Antigua,Guatemala","phones":"","fax":"","email":"","url":"","countryIso2":"GT","countryName":"Guatemala","hotelRating":"1","latitude":"14.5553","longitude":"-90.7335","state_id":1185,"state_name":"Canary Islands","country_id":207},{"active":false,"Giataid":"784742","cityId":53500,"cityName":"Guatemala City","hotelId":784742,"hotelName":"Quetzalroo","address":"7-84 6 Avenida,Zona 10,01000 Guatemala,Guatemala","phones":"","fax":"","email":"","url":"","countryIso2":"GT","countryName":"Guatemala","hotelRating":"1","latitude":"14.5998","longitude":"-90.5161","state_id":3672,"state_name":"Guatemala Department","country_id":90},{"active":false,"Giataid":"784749","cityId":53603,"cityName":"Nebaj","hotelId":784749,"hotelName":"Hotel Casa Shalom","address":"Calzada 15 De Septiembre,Zona 1,Nebaj,Guatemala","phones":"","fax":"","email":"","url":"","countryIso2":"GT","countryName":"Guatemala","hotelRating":"1","latitude":"15.4031","longitude":"-91.1458","state_id":3657,"state_name":"Quiche Department","country_id":90},{"active":false,"Giataid":"784755","cityId":32393,"cityName":"Antigua","hotelId":784755,"hotelName":"Hostal Banana Azul","address":"33 3a Calle Poniente,1er Piso,03001 Antigua,Guatemala","phones":"","fax":"","email":"","url":"","countryIso2":"GT","countryName":"Guatemala","hotelRating":"1","latitude":"14.5553","longitude":"-90.7335","state_id":1185,"state_name":"Canary Islands","country_id":207},{"active":false,"Giataid":"784759","cityId":53503,"cityName":"Huehuetenango","hotelId":784759,"hotelName":"Grand Copal","address":"Calle Principal,San ildefonso Ixtahuacan,Huehuetenango,Guatemala","phones":"","fax":"","email":"","url":"","countryIso2":"GT","countryName":"Guatemala","hotelRating":"1","latitude":"15.3201","longitude":"-91.4826","state_id":3670,"state_name":"Huehuetenango Department","country_id":90},{"active":false,"Giataid":"784766","cityId":11830,"cityName":"Flores","hotelId":784766,"hotelName":"Hotel La Canoa","address":"25 Calle Playa Sur,Peten,17001 Flores,Guatemala","phones":"","fax":"","email":"","url":"","countryIso2":"GT","countryName":"Guatemala","hotelRating":"1","latitude":"16.9253","longitude":"-89.8812","state_id":2006,"state_name":"Pernambuco","country_id":31},{"active":false,"Giataid":"784781","cityId":32393,"cityName":"Antigua","hotelId":784781,"hotelName":"Maya Papaya","address":"1ra Calle Poniente 20,Guatemala,03001 Antigua,Guatemala","phones":"+50278322837","fax":"","email":"reservations@mayapapayaantigua.com","url":"http://www.mayapapayaantigua.com","countryIso2":"GT","countryName":"Guatemala","hotelRating":"1","latitude":"14.5553","longitude":"-90.7335","state_id":1185,"state_name":"Canary Islands","country_id":207},{"active":false,"Giataid":"784787","cityId":null,"cityName":"Rio Dulce","hotelId":784787,"hotelName":"Hotel y Restaurante Cafe De Paris","address":"18021 Rio Dulce Town,Guatemala","phones":"","fax":"","email":"","url":"","countryIso2":"GT","countryName":"Guatemala","hotelRating":"1","latitude":"15.66","longitude":"-89.0014","state_id":null,"state_name":null,"country_id":null},