[{"active":false,"Giataid":"369485","cityId":15714,"cityName":"Paro","hotelId":369485,"hotelName":"Amankora Paro","address":"Thimphu,Near Kuenga Chhoeling Palace,Paro,Punakha,Bhutan","phones":"+9752331333","fax":"","email":"","url":"","countryIso2":"BT","countryName":"Bhutan","hotelRating":"5","latitude":"27.4969","longitude":"89.3219","state_id":237,"state_name":"Paro District","country_id":26},{"active":false,"Giataid":"429467","cityId":15717,"cityName":"Punakha","hotelId":429467,"hotelName":"COMO Uma Punakha","address":"Botokha Kabesa,Punakha,Bhutan","phones":"+9752584688","fax":"+9752584687","email":"res.uma.bhutan@comohotels.com","url":"http://www.comohotels.com/umapunakha","countryIso2":"BT","countryName":"Bhutan","hotelRating":"5","latitude":"27.6347","longitude":"89.8005","state_id":235,"state_name":"Punakha District","country_id":26},{"active":false,"Giataid":"446956","cityId":15714,"cityName":"Paro","hotelId":446956,"hotelName":"Hotel Taktshang View","address":"","phones":"","fax":"","email":"","url":"","countryIso2":"BT","countryName":"Bhutan","hotelRating":"1","latitude":"27.4855","longitude":"89.3359","state_id":237,"state_name":"Paro District","country_id":26},{"active":false,"Giataid":"446967","cityId":15722,"cityName":"Thimphu","hotelId":446967,"hotelName":"Osel Thimphu Bhutan","address":"","phones":"","fax":"","email":"","url":"","countryIso2":"BT","countryName":"Bhutan","hotelRating":"1","latitude":"27.4752","longitude":"89.636","state_id":241,"state_name":"Thimphu District","country_id":26},{"active":false,"Giataid":"485982","cityId":15711,"cityName":"Mongar","hotelId":485982,"hotelName":"Wangchuk hotel Mongar","address":"PO Box 117,Mongar,Bhutan","phones":"+9754641522","fax":"+9754641291","email":"mongar@wangchukhotel.com","url":"http://www.wangchukhotel.com/mongar.html","countryIso2":"BT","countryName":"Bhutan","hotelRating":"1","latitude":"27.2748","longitude":"91.2398","state_id":242,"state_name":"Mongar District","country_id":26},{"active":false,"Giataid":"518912","cityId":15714,"cityName":"Paro","hotelId":518912,"hotelName":"The Resort at Raven's Nest","address":"","phones":"","fax":"","email":"","url":"","countryIso2":"BT","countryName":"Bhutan","hotelRating":"1","latitude":"27.4821","longitude":"89.3374","state_id":237,"state_name":"Paro District","country_id":26},{"active":false,"Giataid":"530877","cityId":15709,"cityName":"Jakar","hotelId":530877,"hotelName":"Amankora Bumthang","address":"Jakar,Choekhor Valley,Bumthang Distrikt,Bhutan","phones":"+9752331333","fax":"+9752331999","email":"amankora@amanresorts.com","url":"https://www.aman.com/resorts/amankora/lodges/bumthang","countryIso2":"BT","countryName":"Bhutan","hotelRating":"5","latitude":"27.5652","longitude":"90.739","state_id":240,"state_name":"Bumthang District","country_id":26},{"active":false,"Giataid":"530900","cityId":15717,"cityName":"Punakha","hotelId":530900,"hotelName":"Amankora Punakha","address":"Mo Chhu River,Punakha,Bhutan","phones":"+9752331333","fax":"+9752331999","email":"amankora@amanresorts.com","url":"https://www.aman.com/resorts/amankora/lodges/punakha","countryIso2":"BT","countryName":"Bhutan","hotelRating":"5","latitude":"27.5921","longitude":"89.8797","state_id":235,"state_name":"Punakha District","country_id":26},{"active":false,"Giataid":"584600","cityId":15728,"cityName":"Wangdue Phodrang","hotelId":584600,"hotelName":"Wangdue Ecolodge","address":"Below Rubesa Gewog Center,Post Box No.1292,Wangdue Phodrang,Bhutan","phones":"+9752482900","fax":"+9752481382","email":"wangdueecolodge@gmail.com","url":"http://www.bhutanecolodge.com/","countryIso2":"BT","countryName":"Bhutan","hotelRating":"1","latitude":"27.4895","longitude":"89.8987","state_id":238,"state_name":"Dagana District","country_id":26},{"active":false,"Giataid":"584619","cityId":15717,"cityName":"Punakha","hotelId":584619,"hotelName":"Kunzang Zhing Resort","address":"Post Box No. 114,Walakha,Punakha,Bhutan","phones":"+9752584705","fax":"+9752584707","email":"info@kunzangzhingresortbhutan.com","url":"http://www.kunzangzhingresortbhutan.com/","countryIso2":"BT","countryName":"Bhutan","hotelRating":"1","latitude":"27.5377","longitude":"89.8656","state_id":235,"state_name":"Punakha District","country_id":26},{"active":false,"Giataid":"584633","cityId":15714,"cityName":"Paro","hotelId":584633,"hotelName":"Khangkhu Resort","address":"Malli,Khangkhu,Paro 11001,Bhutan","phones":"+9758272393","fax":"+9758271962","email":"khangkhu.resort2010@gmail.com","url":"https://khangkhuresort.com/","countryIso2":"BT","countryName":"Bhutan","hotelRating":"3","latitude":"27.3902","longitude":"89.4177","state_id":237,"state_name":"Paro District","country_id":26},{"active":false,"Giataid":"584657","cityId":15728,"cityName":"Wangdue Phodrang","hotelId":584657,"hotelName":"Pema Karpo","address":"Bajo Samthang Road,Wangdue 12001,Bhutan","phones":"","fax":"","email":"","url":"","countryIso2":"BT","countryName":"Bhutan","hotelRating":"1","latitude":"27.4856","longitude":"90.0179","state_id":238,"state_name":"Dagana District","country_id":26},{"active":false,"Giataid":"584660","cityId":15728,"cityName":"Wangdue Phodrang","hotelId":584660,"hotelName":"Kichu Resorts Wangdue","address":"Wangdue,Wangdi Phodrang 12001,Bhutan","phones":"+9758271646","fax":"","email":"kichuresorts@gmail.com","url":"http://kichuresorts.com/wangdue","countryIso2":"BT","countryName":"Bhutan","hotelRating":"1","latitude":"27.5053","longitude":"89.9607","state_id":238,"state_name":"Dagana District","country_id":26},{"active":false,"Giataid":"610325","cityId":15717,"cityName":"Punakha","hotelId":610325,"hotelName":"Dhensa Boutique Resorts","address":"Post Box No.117,Wolakha,Punakha,Bhutan,Khuruthang,Bhutan","phones":"+9752584434","fax":"+9752584407","email":"enquiry@dhensa.com","url":"http://dhensa.com/","countryIso2":"BT","countryName":"Bhutan","hotelRating":"4","latitude":"27.5922","longitude":"89.8792","state_id":235,"state_name":"Punakha District","country_id":26},{"active":false,"Giataid":"614665","cityId":15717,"cityName":"Punakha","hotelId":614665,"hotelName":"Hotel Zangdo Pelri","address":"Bhutan,13001 Punakha,Bhutan","phones":"","fax":"","email":"","url":"","countryIso2":"BT","countryName":"Bhutan","hotelRating":"1","latitude":"27.5916","longitude":"89.8813","state_id":235,"state_name":"Punakha District","country_id":26},{"active":false,"Giataid":"679933","cityId":15717,"cityName":"Punakha","hotelId":679933,"hotelName":"RKPO Green Resort","address":"Lobesa,Post Box 216,Punakha,Bhutan","phones":"+9752376233","fax":"+9752376232","email":"reservationgreenresortrkpo@gmail.com","url":"http://www.rkpogreenresort.com","countryIso2":"BT","countryName":"Bhutan","hotelRating":"1","latitude":"27.5204","longitude":"89.8692","state_id":235,"state_name":"Punakha District","country_id":26},{"active":false,"Giataid":"680191","cityId":15717,"cityName":"Punakha","hotelId":680191,"hotelName":"Dragonï¿½s Nest Hotel","address":"Rinchengang,Wangdue Phodrang,Punakha,Bhutan","phones":"+9758272216","fax":"","email":"mail@summithotels.in","url":"http://www.summithotels.in/dragons-nest-hotel-punakha-bhutan","countryIso2":"BT","countryName":"Bhutan","hotelRating":"4","latitude":"27.5784","longitude":"89.8732","state_id":235,"state_name":"Punakha District","country_id":26},{"active":false,"Giataid":"724769","cityId":15717,"cityName":"Punakha","hotelId":724769,"hotelName":"Drubchhu Resort","address":"Missina,PO Box 777,Punakha 13001,Bhutan","phones":"+9752376237","fax":"+9752376240","email":"drubchhu@gmail.com","url":"http://drubchhu.com","countryIso2":"BT","countryName":"Bhutan","hotelRating":"1","latitude":"27.5193","longitude":"89.8681","state_id":235,"state_name":"Punakha District","country_id":26},{"active":false,"Giataid":"724776","cityId":15714,"cityName":"Paro","hotelId":724776,"hotelName":"Bhutan Mandala Resort","address":"Wangchang,PO Box 1232,Paro,Bhutan","phones":"+9758271997","fax":"+9758272478","email":"bhutanmandalaresort@gmail.com","url":"http://www.bhutanmandalaresort.bt","countryIso2":"BT","countryName":"Bhutan","hotelRating":"3","latitude":"27.4292","longitude":"89.4026","state_id":237,"state_name":"Paro District","country_id":26},{"active":false,"Giataid":"724789","cityId":15728,"cityName":"Wangdue Phodrang","hotelId":724789,"hotelName":"Punatsangchhu Cottages","address":"Wangdue Phodrang Highway,Wangdue Phodrang,1244,Bhutan","phones":"+9752481942","fax":"+9752480520","email":"punatsangchhu@gmail.com","url":"http://punacottages.bt","countryIso2":"BT","countryName":"Bhutan","hotelRating":"1","latitude":"27.4934","longitude":"89.8938","state_id":238,"state_name":"Dagana District","country_id":26},{"active":false,"Giataid":"725554","cityId":15714,"cityName":"Paro","hotelId":725554,"hotelName":"Janka Resort","address":"Nemjo Janka,Luni Gewog,Paro,Bhutan","phones":"+9758272352","fax":"+9758272314","email":"jankaresort@druknet.bt","url":"http://www.jankaresort.bt","countryIso2":"BT","countryName":"Bhutan","hotelRating":"3","latitude":"27.4379","longitude":"89.3956","state_id":237,"state_name":"Paro District","country_id":26},{"active":false,"Giataid":"725556","cityId":15714,"cityName":"Paro","hotelId":725556,"hotelName":"Hotel Taktsang View","address":"Taktsang Trail,Paro,Bhutan","phones":"","fax":"","email":"","url":"http://www.hotel-taktsang-view-paro.booked.net","countryIso2":"BT","countryName":"Bhutan","hotelRating":"3","latitude":"27.444","longitude":"89.3864","state_id":237,"state_name":"Paro District","country_id":26},{"active":false,"Giataid":"725557","cityId":15714,"cityName":"Paro","hotelId":725557,"hotelName":"Namsay Chholing Resort","address":"Paro Valley,Paro,Bhutan","phones":"","fax":"","email":"","url":"","countryIso2":"BT","countryName":"Bhutan","hotelRating":"3","latitude":"27.4374","longitude":"89.3783","state_id":237,"state_name":"Paro District","country_id":26},{"active":false,"Giataid":"725559","cityId":15725,"cityName":"Trongsa","hotelId":725559,"hotelName":"Yangkhil Resort","address":"Tashipang,Trongsa,Bhutan","phones":"+9753521417","fax":"+9753521420","email":"manager@yangkhil.bt","url":"http://www.yangkhil.bt/","countryIso2":"BT","countryName":"Bhutan","hotelRating":"1","latitude":"27.5039","longitude":"90.4966","state_id":230,"state_name":"Tsirang District","country_id":26},{"active":false,"Giataid":"725560","cityId":15714,"cityName":"Paro","hotelId":725560,"hotelName":"Bongde Goma Resort","address":"Bonday Lam Road,Luni Gewog,Paro,Bhutan","phones":"+97577420979","fax":"","email":"bihtbhutan@gmail.com","url":"http://bihtbhutan.org/bongde-goma-resort/","countryIso2":"BT","countryName":"Bhutan","hotelRating":"3","latitude":"27.3829","longitude":"89.4319","state_id":237,"state_name":"Paro District","country_id":26},{"active":false,"Giataid":"725564","cityId":15714,"cityName":"Paro","hotelId":725564,"hotelName":"Pelri Cottages","address":"Olathang,Paro 12001,Bhutan","phones":"+9758272473","fax":"+9758272472","email":"pelri@druknet.bt","url":"http://www.hotel.bt/hotels-in-paro/pelri-cottages/","countryIso2":"BT","countryName":"Bhutan","hotelRating":"3","latitude":"27.4287","longitude":"89.4108","state_id":237,"state_name":"Paro District","country_id":26},{"active":false,"Giataid":"725584","cityId":15714,"cityName":"Paro","hotelId":725584,"hotelName":"Nivvana Lodge & Homestay","address":"Behind Uptal Girls High School,Sastsam Chorten,Paro 12001,Bhutan","phones":"+9758271115","fax":"+9758272407","email":"info@nivvana.com","url":"http://www.nivvana.com","countryIso2":"BT","countryName":"Bhutan","hotelRating":"3","latitude":"27.4613","longitude":"89.3554","state_id":237,"state_name":"Paro District","country_id":26},{"active":false,"Giataid":"725833","cityId":15714,"cityName":"Paro","hotelId":725833,"hotelName":"Kichu Resort Paro","address":"Lango,Paro 12001,Bhutan","phones":"+9758271646","fax":"","email":"kichuresorts@gmail.com","url":"http://kichuresorts.com/paro","countryIso2":"BT","countryName":"Bhutan","hotelRating":"3","latitude":"27.4472","longitude":"89.3704","state_id":237,"state_name":"Paro District","country_id":26},{"active":false,"Giataid":"726178","cityId":15722,"cityName":"Thimphu","hotelId":726178,"hotelName":"Bhutan Peaceful Resort","address":"Upper Motithang,Thimphu,Bhutan","phones":"+9752337012","fax":"","email":"info@peacefulresorts.com","url":"http://www.peacefulresorts.com","countryIso2":"BT","countryName":"Bhutan","hotelRating":"3","latitude":"27.477","longitude":"89.6164","state_id":241,"state_name":"Thimphu District","country_id":26},{"active":false,"Giataid":"726231","cityId":15717,"cityName":"Punakha","hotelId":726231,"hotelName":"Damchen Resort","address":"Khuruthang, Punakha,Bhutan","phones":"+9752584367","fax":"+9752584375","email":"damchenresorts@gmail.com","url":"http://www.damchenresorts.com","countryIso2":"BT","countryName":"Bhutan","hotelRating":"1","latitude":"27.5784","longitude":"89.8732","state_id":235,"state_name":"Punakha District","country_id":26},{"active":false,"Giataid":"726310","cityId":15722,"cityName":"Thimphu","hotelId":726310,"hotelName":"Numinous Hotel","address":"Thimphu Phuentsholing Highway,JSS Road Junction,Thimphu 11001,Bhutan","phones":"","fax":"","email":"","url":"","countryIso2":"BT","countryName":"Bhutan","hotelRating":"1","latitude":"27.4728","longitude":"89.64","state_id":241,"state_name":"Thimphu District","country_id":26},{"active":false,"Giataid":"726452","cityId":15714,"cityName":"Paro","hotelId":726452,"hotelName":"Hotel Khamsum","address":"Town Paro City Center,Paro 12001,Bhutan","phones":"","fax":"","email":"","url":"","countryIso2":"BT","countryName":"Bhutan","hotelRating":"1","latitude":"27.4326","longitude":"89.4093","state_id":237,"state_name":"Paro District","country_id":26},{"active":false,"Giataid":"726930","cityId":15722,"cityName":"Thimphu","hotelId":726930,"hotelName":"Bhutan Centennial Tavern","address":"Phendey Lam,Thimphu 1523,Bhutan","phones":"","fax":"","email":"","url":"","countryIso2":"BT","countryName":"Bhutan","hotelRating":"3","latitude":"27.477","longitude":"89.6355","state_id":241,"state_name":"Thimphu District","country_id":26},{"active":false,"Giataid":"727201","cityId":15717,"cityName":"Punakha","hotelId":727201,"hotelName":"Khuru Resort","address":"Punakha 13001,Bhutan,Bhutan","phones":"","fax":"","email":"","url":"","countryIso2":"BT","countryName":"Bhutan","hotelRating":"1","latitude":"27.5461","longitude":"89.8718","state_id":235,"state_name":"Punakha District","country_id":26},{"active":false,"Giataid":"727265","cityId":15717,"cityName":"Punakha","hotelId":727265,"hotelName":"Zhingkham Resort","address":"View Point of Punakha Dzong,Logodama,Punakha,Bhutan,Bhutan","phones":"","fax":"","email":"","url":"","countryIso2":"BT","countryName":"Bhutan","hotelRating":"1","latitude":"27.5784","longitude":"89.8732","state_id":235,"state_name":"Punakha District","country_id":26},{"active":false,"Giataid":"727272","cityId":null,"cityName":"Phuentsholing","hotelId":727272,"hotelName":"Tashi Namgay Grand","address":"CST Road, Chhukha,Phuntsholing 73400,Bhutan","phones":"","fax":"","email":"","url":"","countryIso2":"BT","countryName":"Bhutan","hotelRating":"1","latitude":"26.8502","longitude":"89.3976","state_id":null,"state_name":null,"country_id":null},{"active":false,"Giataid":"727276","cityId":15717,"cityName":"Punakha","hotelId":727276,"hotelName":"Hotel Vara","address":"Lobesa,Punakha,Bhutan","phones":"","fax":"","email":"","url":"","countryIso2":"BT","countryName":"Bhutan","hotelRating":"1","latitude":"27.5784","longitude":"89.8732","state_id":235,"state_name":"Punakha District","country_id":26},{"active":false,"Giataid":"738133","cityId":15714,"cityName":"Paro","hotelId":738133,"hotelName":"Sonam Trophel Inn","address":"Opposite Bus Booking,Paro,Bhutan","phones":"","fax":"","email":"","url":"","countryIso2":"BT","countryName":"Bhutan","hotelRating":"1","latitude":"27.444","longitude":"89.3864","state_id":237,"state_name":"Paro District","country_id":26},{"active":false,"Giataid":"769524","cityId":15722,"cityName":"Thimphu","hotelId":769524,"hotelName":"Wangchuk Lodge","address":"Below Rspn,Wangddue Phodrang,Gangtey 16004,Bhutan","phones":"+97577333495","fax":"","email":"gangteywangchuk@gmail.com","url":"http://www.wangchukhotel.com/wangchuk-lodge-gangtey","countryIso2":"BT","countryName":"Bhutan","hotelRating":"1","latitude":"27.4728","longitude":"89.64","state_id":241,"state_name":"Thimphu District","country_id":26},{"active":false,"Giataid":"769607","cityId":15722,"cityName":"Thimphu","hotelId":769607,"hotelName":"Bhutan Silver Pine Resort","address":"Babesa,Near Welcome Gate,Thimphu,Bhutan","phones":"+9752351071","fax":"","email":"bspresort@gmail.com","url":"http://www.silverpinethimpu.com","countryIso2":"BT","countryName":"Bhutan","hotelRating":"1","latitude":"27.4728","longitude":"89.64","state_id":241,"state_name":"Thimphu District","country_id":26},{"active":false,"Giataid":"769616","cityId":15714,"cityName":"Paro","hotelId":769616,"hotelName":"Silver Pine Hotel Paro","address":"Below Olathang,Paro 12001,Bhutan","phones":"","fax":"","email":"","url":"","countryIso2":"BT","countryName":"Bhutan","hotelRating":"1","latitude":"27.444","longitude":"89.3864","state_id":237,"state_name":"Paro District","country_id":26},{"active":false,"Giataid":"770475","cityId":15722,"cityName":"Thimphu","hotelId":770475,"hotelName":"Zhingkham Cottages","address":"Chubachhu,PO Box  1614,Thimphu,Bhutan","phones":"","fax":"","email":"info@zhingkhamcottages.com","url":"http://www.zhingkhamcottages.com","countryIso2":"BT","countryName":"Bhutan","hotelRating":"1","latitude":"27.4728","longitude":"89.64","state_id":241,"state_name":"Thimphu District","country_id":26},{"active":false,"Giataid":"770506","cityId":15722,"cityName":"Thimphu","hotelId":770506,"hotelName":"Hotel Riverside","address":"Below Flyover Bridge,Changbangdu,PO Box 1807,Thimphu 11001,Bhutan","phones":"+9752338522","fax":"+9752338525","email":"info@hotelriversidebhutan.com","url":"http://www.hotelriversidebhutan.com","countryIso2":"BT","countryName":"Bhutan","hotelRating":"1","latitude":"27.4728","longitude":"89.64","state_id":241,"state_name":"Thimphu District","country_id":26},{"active":false,"Giataid":"770600","cityId":15728,"cityName":"Wangdue Phodrang","hotelId":770600,"hotelName":"Punatshangchhu Cottages","address":"Zamtopang,PO Box 1244,Wangdue,Bhutan","phones":"+9752481942","fax":"+9752480520","email":"punatsangchhu@gmail.com","url":"http://punacottages.bt","countryIso2":"BT","countryName":"Bhutan","hotelRating":"1","latitude":"27.4856","longitude":"90.0179","state_id":238,"state_name":"Dagana District","country_id":26},{"active":false,"Giataid":"770876","cityId":15722,"cityName":"Thimphu","hotelId":770876,"hotelName":"Hotel Zey Zang","address":"Norzinn Lam Near City Gate,Thimphu 11001,Bhutan","phones":"","fax":"","email":"","url":"","countryIso2":"BT","countryName":"Bhutan","hotelRating":"1","latitude":"27.4728","longitude":"89.64","state_id":241,"state_name":"Thimphu District","country_id":26},{"active":false,"Giataid":"778142","cityId":15722,"cityName":"Thimphu","hotelId":778142,"hotelName":"Thimphu View","address":"Dechencholing,Thimphu 11001,Bhutan","phones":"","fax":"","email":"","url":"","countryIso2":"BT","countryName":"Bhutan","hotelRating":"1","latitude":"27.4728","longitude":"89.64","state_id":241,"state_name":"Thimphu District","country_id":26},{"active":false,"Giataid":"847255","cityId":15714,"cityName":"Paro","hotelId":847255,"hotelName":"Tashiling Hotel","address":"Paro Town,Paro 12001,Bhutan","phones":"","fax":"","email":"","url":"","countryIso2":"BT","countryName":"Bhutan","hotelRating":"1","latitude":"27.444","longitude":"89.3864","state_id":237,"state_name":"Paro District","country_id":26},{"active":false,"Giataid":"847273","cityId":15722,"cityName":"Thimphu","hotelId":847273,"hotelName":"Jigme Suites","address":"Tshalu Lam,Simtokha Lap,Thimphu 11001,Bhutan","phones":"","fax":"","email":"","url":"","countryIso2":"BT","countryName":"Bhutan","hotelRating":"1","latitude":"27.4728","longitude":"89.64","state_id":241,"state_name":"Thimphu District","country_id":26},{"active":false,"Giataid":"847286","cityId":15728,"cityName":"Wangdue Phodrang","hotelId":847286,"hotelName":"Thegchen Phodrang Lodge","address":"Gangtey,Phobjikha Valley,Wangdue Phodrang 11001,Bhutan","phones":"","fax":"","email":"","url":"","countryIso2":"BT","countryName":"Bhutan","hotelRating":"1","latitude":"27.4856","longitude":"90.0179","state_id":238,"state_name":"Dagana District","country_id":26},{"active":false,"Giataid":"847298","cityId":15728,"cityName":"Wangdue Phodrang","hotelId":847298,"hotelName":"Phuntsho Chholing Lodge","address":"Gangtey,Wangdue Phodrang,Bhutan","phones":"","fax":"","email":"","url":"","countryIso2":"BT","countryName":"Bhutan","hotelRating":"1","latitude":"27.4856","longitude":"90.0179","state_id":238,"state_name":"Dagana District","country_id":26},{"active":false,"Giataid":"847308","cityId":15722,"cityName":"Thimphu","hotelId":847308,"hotelName":"Choni Apartment","address":"Jalu Lam,Thimphu 11013,Bhutan","phones":"","fax":"","email":"","url":"","countryIso2":"BT","countryName":"Bhutan","hotelRating":"1","latitude":"27.4728","longitude":"89.64","state_id":241,"state_name":"Thimphu District","country_id":26},{"active":false,"Giataid":"847339","cityId":15714,"cityName":"Paro","hotelId":847339,"hotelName":"City Hotel","address":"Opposite Police Station,Paro 12001,Bhutan","phones":"","fax":"","email":"","url":"","countryIso2":"BT","countryName":"Bhutan","hotelRating":"1","latitude":"27.444","longitude":"89.3864","state_id":237,"state_name":"Paro District","country_id":26},{"active":false,"Giataid":"429882","cityId":15722,"cityName":"Thimphu","hotelId":10091255,"hotelName":"Le Meridien Thimphu","address":"Chorten Lam,PO Box 01286,Thimphu,Bhutan","phones":"975-2-337788","fax":"NULL","email":"NULL","url":"WWW.LEMERIDIENTHIMPHU.COM","countryIso2":"BT","countryName":"Bhutan","hotelRating":"5","latitude":"27.4701","longitude":"89.638","state_id":241,"state_name":"Thimphu District","country_id":26},{"active":false,"Giataid":"514850","cityId":15722,"cityName":"Thimphu","hotelId":20000381,"hotelName":"Thimphu Tower","address":"PO Box 194,Clock Tower Square,Thimphu,Bhutan","phones":"+9752335367","fax":"+9752334841","email":"thimphutowers@gmail.com","url":"http://www.thimphutowers.com","countryIso2":"BT","countryName":"Bhutan","hotelRating":"3","latitude":"27.4707","longitude":"89.6396","state_id":241,"state_name":"Thimphu District","country_id":26},{"active":false,"Giataid":"724788","cityId":15714,"cityName":"Paro","hotelId":20000402,"hotelName":"The Dewachen Resort","address":"Nemjo Village,Paro,Bhutan","phones":"+9758271699","fax":"+9758272301","email":"reservation@dewachenresort.com","url":"http://www.dewachenresort.com","countryIso2":"BT","countryName":"Bhutan","hotelRating":"0","latitude":"27.4336","longitude":"89.3894","state_id":237,"state_name":"Paro District","country_id":26},{"active":false,"Giataid":"297857","cityId":15722,"cityName":"Thimphu","hotelId":20000421,"hotelName":"Hotel Riverview","address":"PO Box 309,Dechen Lam,Thimphu,Bhutan","phones":"+9752325030","fax":"","email":"riverviewbhutan@gmail.com","url":"http://www.riverviewbhutan.com","countryIso2":"BT","countryName":"Bhutan","hotelRating":"3","latitude":"27.4719","longitude":"89.6437","state_id":241,"state_name":"Thimphu District","country_id":26},{"active":false,"Giataid":"581855","cityId":15722,"cityName":"Thimphu","hotelId":20000451,"hotelName":"Terma Linca Resort & Spa","address":"PO Box 2009,Babesa,Thimphu,Bhutan","phones":"+9752351490","fax":"+9752351429","email":"termalinca@gmail.com","url":"http://termalinca.com/","countryIso2":"BT","countryName":"Bhutan","hotelRating":"4","latitude":"27.4254","longitude":"89.6394","state_id":241,"state_name":"Thimphu District","country_id":26},{"active":false,"Giataid":"446976","cityId":15722,"cityName":"Thimphu","hotelId":20000465,"hotelName":"Hotel Jumolhari","address":"Wogzin lam,Chang Lam,PO Box 308,Thimphu,Bhutan","phones":"+9752322747","fax":"+9752324412","email":"info@hoteljumolhari.com","url":"http://www.hoteljumolhari.com","countryIso2":"BT","countryName":"Bhutan","hotelRating":"3","latitude":"27.4693","longitude":"89.64","state_id":241,"state_name":"Thimphu District","country_id":26},{"active":false,"Giataid":"446957","cityId":15722,"cityName":"Thimphu","hotelId":20000491,"hotelName":"Gyelsa boutique","address":"Building 03 Jangchub Lam,Thimphu 11001,Bhutan","phones":"+97517727593","fax":"+9752339193","email":"gyelsaboutique@gmail.com","url":"http://www.gyelsaboutique.com","countryIso2":"BT","countryName":"Bhutan","hotelRating":"3","latitude":"27.4697","longitude":"89.6378","state_id":241,"state_name":"Thimphu District","country_id":26},{"active":false,"Giataid":"679937","cityId":15722,"cityName":"Thimphu","hotelId":20000508,"hotelName":"City Hotel Thimphu","address":"Jattu Commercial Complex,Changlam-Dungkor Lam Junction,Thimphu,Bhutan","phones":"+9752338812","fax":"","email":"reservation@cityhotelthimphu.com","url":"http://www.cityhotelthimphu.com","countryIso2":"BT","countryName":"Bhutan","hotelRating":"3","latitude":"27.4735","longitude":"89.6394","state_id":241,"state_name":"Thimphu District","country_id":26},{"active":false,"Giataid":"680198","cityId":15714,"cityName":"Paro","hotelId":20000555,"hotelName":"The Village Lodge","address":"Changnanka,PO Box 874,Paro 12001,Bhutan","phones":"+9758272340","fax":"","email":"mail@summithotels.in","url":"http://summithotels.in/village-lodge-paro-bhutan","countryIso2":"BT","countryName":"Bhutan","hotelRating":"0","latitude":"27.444","longitude":"89.3864","state_id":237,"state_name":"Paro District","country_id":26},{"active":false,"Giataid":"723834","cityId":15714,"cityName":"Paro","hotelId":20000588,"hotelName":"Galling Resort","address":"Tshendona,Paro,Bhutan","phones":"+9758272051","fax":"","email":"gallingresort@gmail.com","url":"","countryIso2":"BT","countryName":"Bhutan","hotelRating":"0","latitude":"27.444","longitude":"89.3864","state_id":237,"state_name":"Paro District","country_id":26},{"active":false,"Giataid":"614550","cityId":15722,"cityName":"Thimphu","hotelId":20000626,"hotelName":"Hotel Shantideva","address":"Norzin Lam,Thimphu,Bhutan","phones":"","fax":"","email":"","url":"","countryIso2":"BT","countryName":"Bhutan","hotelRating":"0","latitude":"27.4728","longitude":"89.64","state_id":241,"state_name":"Thimphu District","country_id":26},{"active":false,"Giataid":"572965","cityId":15714,"cityName":"Paro","hotelId":20000670,"hotelName":"Tiger's Nest Resort","address":"Satsamchorten,Drugyal Highway,Paro,Bhutan","phones":"+9758271310","fax":"+9758271640","email":"tigernestresort@gmail.com","url":"http://www.tigernest.bt/","countryIso2":"BT","countryName":"Bhutan","hotelRating":"3","latitude":"27.4704","longitude":"89.3428","state_id":237,"state_name":"Paro District","country_id":26},{"active":false,"Giataid":"483712","cityId":15722,"cityName":"Thimphu","hotelId":20000708,"hotelName":"Namseling Boutique Hotel","address":"Phenday Lam,PO Box 698,Thimphu,Bhutan","phones":"+9752339594","fax":"+9752322007","email":"info@namselinghotel.com","url":"http://www.namselinghotel.com","countryIso2":"BT","countryName":"Bhutan","hotelRating":"3","latitude":"27.4755","longitude":"89.636","state_id":241,"state_name":"Thimphu District","country_id":26},{"active":false,"Giataid":"724200","cityId":15722,"cityName":"Thimphu","hotelId":20000762,"hotelName":"Tara Phendeyling Hotel","address":"Olakha Lam,Thimphu 11001,Bhutan","phones":"+9752341260","fax":"+9752341263","email":"info@taraphendeyling.com","url":"http://www.taraphendeyling.com","countryIso2":"BT","countryName":"Bhutan","hotelRating":"3","latitude":"27.4498","longitude":"89.6573","state_id":241,"state_name":"Thimphu District","country_id":26},{"active":false,"Giataid":"365236","cityId":null,"cityName":"Gangtey","hotelId":20000845,"hotelName":"Gangtey Goenpa Lodge","address":"Just below the monastery,Phobjikha Valley,Bhutan","phones":"+97517160666","fax":"","email":"res@gglbhutan.com","url":"http://www.easternsafaris.com/gangteygoenpalodge_accommodation.html","countryIso2":"BT","countryName":"Bhutan","hotelRating":"5","latitude":"27.4921","longitude":"90.1659","state_id":null,"state_name":null,"country_id":null},{"active":false,"Giataid":"79718","cityId":15714,"cityName":"Paro","hotelId":20000968,"hotelName":"Zhiwa Ling","address":"Satsam Chorten,Paro,Bhutan","phones":"+9758271277","fax":"+9758271456","email":"info@zhiwaling.com","url":"http://www.zhiwaling.com/","countryIso2":"BT","countryName":"Bhutan","hotelRating":"4","latitude":"27.4301","longitude":"89.4125","state_id":237,"state_name":"Paro District","country_id":26},{"active":false,"Giataid":"296956","cityId":15722,"cityName":"Thimphu","hotelId":20001507,"hotelName":"Pedling","address":"P.O. Box 976,Thimphu,Bhutan","phones":"+9752321632","fax":"+9752323592","email":"pedling@druknet.bt","url":"http://www.hotelpedling.com/","countryIso2":"BT","countryName":"Bhutan","hotelRating":"3","latitude":"27.4716","longitude":"89.6379","state_id":241,"state_name":"Thimphu District","country_id":26},{"active":false,"Giataid":"483733","cityId":15722,"cityName":"Thimphu","hotelId":20001700,"hotelName":"Ariya Hotel","address":"Olakha,PO Box 736,Thimphu,Bhutan","phones":"+9752333999","fax":"","email":"reservation@ariyabhutan.com","url":"http://www.ariyabhutan.com","countryIso2":"BT","countryName":"Bhutan","hotelRating":"4","latitude":"27.4489","longitude":"89.6592","state_id":241,"state_name":"Thimphu District","country_id":26},{"active":false,"Giataid":"261639","cityId":15722,"cityName":"Thimphu","hotelId":20002050,"hotelName":"Bhutan Suites","address":"Deki Lam,P.O.Box: 959,Changangkha,Thimphu,Bhutan","phones":"+9752333377","fax":"+9752337937","email":"reservation@bhutansuites.com","url":"http://www.bhutansuites.com","countryIso2":"BT","countryName":"Bhutan","hotelRating":"3","latitude":"27.4735","longitude":"89.628","state_id":241,"state_name":"Thimphu District","country_id":26},{"active":false,"Giataid":"572168","cityId":15714,"cityName":"Paro","hotelId":20002289,"hotelName":"Le Meridien Paro, Riverfront","address":"P.o. Box 1265,Shaba,Paro,Bhutan","phones":"+9758270300","fax":"","email":"","url":"http://www.starwoodhotels.com/lemeridien/property/overview/index.html?propertyID=4167","countryIso2":"BT","countryName":"Bhutan","hotelRating":"5","latitude":"27.3852","longitude":"89.4474","state_id":237,"state_name":"Paro District","country_id":26},{"active":false,"Giataid":"679935","cityId":null,"cityName":"Phuentsholing","hotelId":20002465,"hotelName":"Peling Resort","address":"Renchending Kharbandi,Phuntsholing 21101,Bhutan","phones":"+975777100865","fax":"+9755251167","email":"pelingresort@gmail.com","url":"http://pelingresort.com","countryIso2":"BT","countryName":"Bhutan","hotelRating":"0","latitude":"26.8599","longitude":"89.385","state_id":null,"state_name":null,"country_id":null},{"active":false,"Giataid":"584616","cityId":15722,"cityName":"Thimphu","hotelId":20002651,"hotelName":"Hotel Amodhara","address":"Desi Lam,Thimphu,Bhutan","phones":"+9752339609","fax":"","email":"hotelamodhara@gmail.com","url":"http://www.hotelamodhara.com/","countryIso2":"BT","countryName":"Bhutan","hotelRating":"0","latitude":"27.4715","longitude":"89.6316","state_id":241,"state_name":"Thimphu District","country_id":26},{"active":false,"Giataid":"680200","cityId":15714,"cityName":"Paro","hotelId":20002912,"hotelName":"Tashi Phuntshok Hotel & Spa","address":"Changnanka,PO Box 874,Paro 12001,Bhutan","phones":"+9758272216","fax":"","email":"info@summithotels.in","url":"http://www.summithotels.in/tashi-phuntshok-paro-bhutan","countryIso2":"BT","countryName":"Bhutan","hotelRating":"0","latitude":"27.444","longitude":"89.3864","state_id":237,"state_name":"Paro District","country_id":26},{"active":false,"Giataid":"626638","cityId":15722,"cityName":"Thimphu","hotelId":20003111,"hotelName":"Wangchuk Resort Taba","address":"Hangkuna,Taba,PO Box 507,Thimphu,Bhutan","phones":"+9752365262","fax":"+9752365164","email":"taba@wangchukhotel.com","url":"http://www.wangchukhotel.com/wangchuk-resort-taba/","countryIso2":"BT","countryName":"Bhutan","hotelRating":"3","latitude":"27.5052","longitude":"89.6463","state_id":241,"state_name":"Thimphu District","country_id":26},{"active":false,"Giataid":"445942","cityId":15722,"cityName":"Thimphu","hotelId":20003320,"hotelName":"Hotel Norbuling","address":"Chang Lam Street Building 5,PO Box 1187,Thimphu,Bhutan","phones":"+97517111727","fax":"","email":"reservation@hotelnorbuling.com","url":"http://www.hotelnorbuling.com","countryIso2":"BT","countryName":"Bhutan","hotelRating":"3","latitude":"27.4691","longitude":"89.6407","state_id":241,"state_name":"Thimphu District","country_id":26},{"active":false,"Giataid":"724780","cityId":15722,"cityName":"Thimphu","hotelId":20003554,"hotelName":"Jambayang Resort","address":"Dechhen Lam,Thimphu,Bhutan","phones":"+9752322349","fax":"+9752323669","email":"dtsering@jambayangresort.com","url":"http://www.jambayangresort.com","countryIso2":"BT","countryName":"Bhutan","hotelRating":"3","latitude":"27.4747","longitude":"89.6441","state_id":241,"state_name":"Thimphu District","country_id":26},{"active":false,"Giataid":"530887","cityId":null,"cityName":"Gangtey","hotelId":20003744,"hotelName":"Amankora Gangtey","address":"Gangtey,Phobjikha Valley,Bhutan","phones":"+9752331333","fax":"+9752331999","email":"amankora@amanresorts.com","url":"https://www.aman.com/resorts/amankora/lodges/gangtey","countryIso2":"BT","countryName":"Bhutan","hotelRating":"5","latitude":"27.4176","longitude":"90.3933","state_id":null,"state_name":null,"country_id":null},{"active":false,"Giataid":"261644","cityId":15714,"cityName":"Paro","hotelId":20004155,"hotelName":"Naksel Boutique Hotel & Spa","address":"Ngoba Village,Lango Geog,Paro,Bhutan","phones":"+9758272992","fax":"","email":"reservations@naksel.com","url":"http://www.naksel.com/","countryIso2":"BT","countryName":"Bhutan","hotelRating":"5","latitude":"27.4698","longitude":"89.3477","state_id":237,"state_name":"Paro District","country_id":26},{"active":false,"Giataid":"614549","cityId":null,"cityName":"Phuentsholing","hotelId":20004334,"hotelName":"Park Hotel Bhutan","address":"Tharpai Lam,Phuentsholing,Chukha,Bhutan-35,Phuentsholing,Bhutan","phones":"+97517795042","fax":"","email":"reservations@parkhotelbhutan.com","url":"http://parkhotelbhutan.com","countryIso2":"BT","countryName":"Bhutan","hotelRating":"0","latitude":"26.8619","longitude":"89.3832","state_id":null,"state_name":null,"country_id":null},{"active":false,"Giataid":"296951","cityId":15714,"cityName":"Paro","hotelId":20004485,"hotelName":"Gangtey Palace","address":"PO Box 1218,Paro 1001,Bhutan","phones":"+9758271301","fax":"","email":"gangteypalace@gmail.com","url":"http://www.gangteypalace.com/","countryIso2":"BT","countryName":"Bhutan","hotelRating":"2","latitude":"27.4244","longitude":"89.4131","state_id":237,"state_name":"Paro District","country_id":26},{"active":false,"Giataid":"239932","cityId":15714,"cityName":"Paro","hotelId":20004975,"hotelName":"Haven Resort","address":"Thachukha,Dop Shari,Paro,Bhutan","phones":"+9758270999","fax":"+9758270888","email":"info@haven-bhutan.com","url":"http://www.haven-bhutan.com","countryIso2":"BT","countryName":"Bhutan","hotelRating":"5","latitude":"27.4431","longitude":"89.4259","state_id":237,"state_name":"Paro District","country_id":26},{"active":false,"Giataid":"584650","cityId":15722,"cityName":"Thimphu","hotelId":20005339,"hotelName":"Hotel Migmar","address":"Babesa Thimphu Expressway,Olakha,Thimphu,Bhutan","phones":"+9752338901","fax":"+9752338906","email":"hotelmigmar@gmail.com","url":"http://hotelmigmar.com/","countryIso2":"BT","countryName":"Bhutan","hotelRating":"3","latitude":"27.4498","longitude":"89.6577","state_id":241,"state_name":"Thimphu District","country_id":26},{"active":false,"Giataid":"584635","cityId":15714,"cityName":"Paro","hotelId":20005637,"hotelName":"Hotel Dorjee Ling","address":"Main Street,Paro Town,12001 Paro,Bhutan","phones":"","fax":"","email":"","url":"","countryIso2":"BT","countryName":"Bhutan","hotelRating":"0","latitude":"27.444","longitude":"89.3864","state_id":237,"state_name":"Paro District","country_id":26},{"active":false,"Giataid":"614551","cityId":15714,"cityName":"Paro","hotelId":20005858,"hotelName":"Namsaycholing Resort","address":"Shomu Lango,Paro,Bhutan","phones":"","fax":"","email":"","url":"","countryIso2":"BT","countryName":"Bhutan","hotelRating":"0","latitude":"27.444","longitude":"89.3864","state_id":237,"state_name":"Paro District","country_id":26},{"active":false,"Giataid":"584620","cityId":15714,"cityName":"Paro","hotelId":20006035,"hotelName":"Udumwara Resort","address":"Satsamchorten,Paro,Bhutan","phones":"+9758271133","fax":"+9758273333","email":"sital@udumwara.com","url":"http://www.udumwara.com/","countryIso2":"BT","countryName":"Bhutan","hotelRating":"0","latitude":"27.4645","longitude":"89.355","state_id":237,"state_name":"Paro District","country_id":26},{"active":false,"Giataid":"614548","cityId":15722,"cityName":"Thimphu","hotelId":20006204,"hotelName":"Namgay Heritage Hotel","address":"Below Doebum Lam,PO Box 472,Thimphu,Bhutan","phones":"","fax":"","email":"","url":"","countryIso2":"BT","countryName":"Bhutan","hotelRating":"3","latitude":"27.4407","longitude":"89.6512","state_id":241,"state_name":"Thimphu District","country_id":26},{"active":false,"Giataid":"514849","cityId":15722,"cityName":"Thimphu","hotelId":20006379,"hotelName":"Dorji Elements","address":"Yarden Lam,Thimphu 00975,Bhutan","phones":"+9752333075","fax":"","email":"hoteldorjielements@gmail.com","url":"http://www.hoteldorjielements.com","countryIso2":"BT","countryName":"Bhutan","hotelRating":"3","latitude":"27.4783","longitude":"89.6387","state_id":241,"state_name":"Thimphu District","country_id":26},{"active":false,"Giataid":"447050","cityId":15722,"cityName":"Thimphu","hotelId":20006505,"hotelName":"Gakyil Thimphu","address":"Wongzin Lam,P.O. Box  543,Thimphu,Bhutan","phones":"+9752339640","fax":"+9752341113","email":"reservation@gakyilbhutan.com","url":"http://www.gakyilbhutan.com/","countryIso2":"BT","countryName":"Bhutan","hotelRating":"3","latitude":"27.4693","longitude":"89.6401","state_id":241,"state_name":"Thimphu District","country_id":26},{"active":false,"Giataid":"584644","cityId":15714,"cityName":"Paro","hotelId":20006674,"hotelName":"Base Camp Hotel","address":"Drukgyel village,Tshento gewog,Paro,Bhutan","phones":"+9758270291","fax":"+9758270290","email":"hotelbasecamp@gmail.com","url":"http://basecamphotel.com.bt/about-us/","countryIso2":"BT","countryName":"Bhutan","hotelRating":"3","latitude":"27.503","longitude":"89.3223","state_id":237,"state_name":"Paro District","country_id":26},{"active":false,"Giataid":"488817","cityId":15722,"cityName":"Thimphu","hotelId":20006843,"hotelName":"Hotel Phuntsho Pelri","address":"Phendey Lam,Thimphu,Bhutan","phones":"","fax":"","email":"","url":"http://bhutanhotels.com.bt","countryIso2":"BT","countryName":"Bhutan","hotelRating":"2","latitude":"27.4736","longitude":"89.6368","state_id":241,"state_name":"Thimphu District","country_id":26},{"active":false,"Giataid":"680203","cityId":15722,"cityName":"Thimphu","hotelId":20006993,"hotelName":"Kisa Hotel & Spa","address":"Chang Lam,Thimphu 11011,Bhutan","phones":"+9752336494","fax":"","email":"mail@summithotels.in","url":"http://www.summithotels.in/kisa-hotel-spa-thimpu-bhutan","countryIso2":"BT","countryName":"Bhutan","hotelRating":"3","latitude":"27.4728","longitude":"89.64","state_id":241,"state_name":"Thimphu District","country_id":26},{"active":false,"Giataid":"514843","cityId":15722,"cityName":"Thimphu","hotelId":20007161,"hotelName":"Hotel Osel","address":"Phendey lam,PO Box 543,Thimphu,Bhutan","phones":"+9752344444","fax":"+9752341113","email":"sales@oselbhutan.com","url":"http://www.oselbhutan.com","countryIso2":"BT","countryName":"Bhutan","hotelRating":"4","latitude":"27.4749","longitude":"89.6358","state_id":241,"state_name":"Thimphu District","country_id":26},{"active":false,"Giataid":"261641","cityId":null,"cityName":"Bumthang","hotelId":20007328,"hotelName":"Chumey Nature Resort","address":"Geytsa,Chumey,Bumthang,Bhutan","phones":"+97517111625","fax":"+97516342001","email":"chumeynatureresort@yahoo.com","url":"http://www.chumeynatureresort.com","countryIso2":"BT","countryName":"Bhutan","hotelRating":"0","latitude":"27.6501","longitude":"90.6767","state_id":null,"state_name":null,"country_id":null},{"active":false,"Giataid":"724798","cityId":null,"cityName":"Bumthang","hotelId":20007509,"hotelName":"Jakar Village Resort","address":"Jakar Village,Bumthang,Bhutan","phones":"","fax":"","email":"","url":"","countryIso2":"BT","countryName":"Bhutan","hotelRating":"0","latitude":"27.5555","longitude":"90.7445","state_id":null,"state_name":null,"country_id":null},{"active":false,"Giataid":"296954","cityId":null,"cityName":"Phuentsholing","hotelId":20007652,"hotelName":"Druk Phuentsholing","address":"Post Box Number: 148,Zhung Lam,Phuentsholing,Bhutan","phones":"+9755252426","fax":"+9755252929","email":"druk.phuentsholing@drukhotels.com","url":"http://drukhotels.com/phuntsholing/","countryIso2":"BT","countryName":"Bhutan","hotelRating":"0","latitude":"26.8609","longitude":"89.3825","state_id":null,"state_name":null,"country_id":null},{"active":false,"Giataid":"261647","cityId":15725,"cityName":"Trongsa","hotelId":20007801,"hotelName":"The View Point Resort & Spa","address":"Trongsa,Bhutan,P.O Box: 775,Bhutan","phones":"+97577190789","fax":"+9753521535","email":"info@bhutanviewpoint.com","url":"http://www.bhutanviewpoint.com/","countryIso2":"BT","countryName":"Bhutan","hotelRating":"0","latitude":"27.5037","longitude":"90.4991","state_id":230,"state_name":"Tsirang District","country_id":26},{"active":false,"Giataid":"724796","cityId":null,"cityName":"Phuentsholing","hotelId":20007963,"hotelName":"Bhutan Residence","address":"Norgay Lam,Phuentsholing,Bhutan","phones":"+9755253688","fax":"+9755253690","email":"bhutanresidence@gmail.com","url":"http://www.bhutanresidence.com","countryIso2":"BT","countryName":"Bhutan","hotelRating":"0","latitude":"26.8646","longitude":"89.386","state_id":null,"state_name":null,"country_id":null},{"active":false,"Giataid":"519441","cityId":15714,"cityName":"Paro","hotelId":20008378,"hotelName":"Bhutan Metta Resort and Spa","address":"Langong,Shomu,Paro,Bhutan","phones":"+9758272855","fax":"+9758272074","email":"bhutanmetta@gmail.com","url":"http://www.bhutanmetta.com.bt/","countryIso2":"BT","countryName":"Bhutan","hotelRating":"3","latitude":"27.4368","longitude":"89.3813","state_id":237,"state_name":"Paro District","country_id":26},{"active":false,"Giataid":"584648","cityId":15714,"cityName":"Paro","hotelId":20008549,"hotelName":"Rema Resort","address":"Sangchoker Road,Nemjo Remphakha,Near Royal Construction Office,Paro,Bhutan","phones":"+9758271082","fax":"","email":"remaresort1@gmail.com","url":"http://www.paroremaresort.com/","countryIso2":"BT","countryName":"Bhutan","hotelRating":"3","latitude":"27.4387","longitude":"89.4035","state_id":237,"state_name":"Paro District","country_id":26},{"active":false,"Giataid":"724416","cityId":15722,"cityName":"Thimphu","hotelId":20008727,"hotelName":"Hotel Bhutan","address":"Chubachu,Thimphu,Bhutan","phones":"+9752320444","fax":"+9752338774","email":"contact@hotelbhutan.com.bt","url":"http://www.hotelbhutan.com.bt","countryIso2":"BT","countryName":"Bhutan","hotelRating":"3","latitude":"27.4729","longitude":"89.6394","state_id":241,"state_name":"Thimphu District","country_id":26},{"active":false,"Giataid":"445221","cityId":15722,"cityName":"Thimphu","hotelId":20008855,"hotelName":"Khamsum Inn","address":"Phenday Lam,Hongkong Market,PO Box 810,Thimphu,Bhutan","phones":"+9752328262","fax":"+9752332742","email":"manager@khamsuminn.com","url":"http://khamsuminn.com","countryIso2":"BT","countryName":"Bhutan","hotelRating":"2","latitude":"27.4729","longitude":"89.6361","state_id":241,"state_name":"Thimphu District","country_id":26},{"active":false,"Giataid":"584637","cityId":15714,"cityName":"Paro","hotelId":20008989,"hotelName":"Hotel Drukchen","address":"Khangkhu,Paro 12001,Bhutan","phones":"","fax":"","email":"","url":"","countryIso2":"BT","countryName":"Bhutan","hotelRating":"3","latitude":"27.4315","longitude":"89.4118","state_id":237,"state_name":"Paro District","country_id":26},{"active":false,"Giataid":"625181","cityId":15722,"cityName":"Thimphu","hotelId":20009163,"hotelName":"Ramada Valley Thimphu","address":"P.O. Box 1851,Lungtenphu,Thimphu,Bhutan","phones":"+9752341286","fax":"+9752341288","email":"info@ramadabhutan.com","url":"http://www.ramadabhutan.com","countryIso2":"BT","countryName":"Bhutan","hotelRating":"3","latitude":"27.4516","longitude":"89.6539","state_id":241,"state_name":"Thimphu District","country_id":26},{"active":false,"Giataid":"584640","cityId":15722,"cityName":"Thimphu","hotelId":20009255,"hotelName":"Hotel Galingkha","address":"Norzin Lam,Thimphu,Post Box 368,Bhutan","phones":"+9752325387","fax":"+9752320173","email":"info@hotelgalingkha.com","url":"http://www.hotelgalingkha.com/","countryIso2":"BT","countryName":"Bhutan","hotelRating":"3","latitude":"27.4714","longitude":"89.6384","state_id":241,"state_name":"Thimphu District","country_id":26},{"active":false,"Giataid":"298431","cityId":15722,"cityName":"Thimphu","hotelId":20009396,"hotelName":"Wangchuk","address":"Bhutan,Thimphu,Bhutan","phones":"+9752323532","fax":"+9752326233","email":"thimphu@wangchukhotel.com","url":"http://www.wangchukhotel.com/#2","countryIso2":"BT","countryName":"Bhutan","hotelRating":"3","latitude":"27.471","longitude":"89.6393","state_id":241,"state_name":"Thimphu District","country_id":26},{"active":false,"Giataid":"261642","cityId":15722,"cityName":"Thimphu","hotelId":20009594,"hotelName":"Hotel Druk","address":"Post box 1178,Wogzin Lam,Clock Tower Square,Thimphu 11001,Bhutan","phones":"+9752322966","fax":"+9752322677","email":"druk.thimphu@drukhotels.com","url":"http://drukhotels.com/hoteldruk/","countryIso2":"BT","countryName":"Bhutan","hotelRating":"4","latitude":"27.4701","longitude":"89.6402","state_id":241,"state_name":"Thimphu District","country_id":26},{"active":false,"Giataid":"518505","cityId":15714,"cityName":"Paro","hotelId":20009782,"hotelName":"Tashi Namgay Resort","address":"Opposite Paro International Airport,Damsebu,Paro 12001,Bhutan","phones":"+9758272319","fax":"+97517170299","email":"reservation@tashinamgayresort.com","url":"http://www.tashinamgayresort.com/","countryIso2":"BT","countryName":"Bhutan","hotelRating":"4","latitude":"27.4007","longitude":"89.4221","state_id":237,"state_name":"Paro District","country_id":26},{"active":false,"Giataid":"334292","cityId":null,"cityName":"Phuentsholing","hotelId":20010108,"hotelName":"Hotel Lhaki","address":"Pelkhil Lam,Phuntsholing 21101,Bhutan,Bhutan","phones":"","fax":"","email":"","url":"","countryIso2":"BT","countryName":"Bhutan","hotelRating":"0","latitude":"26.86","longitude":"89.3846","state_id":null,"state_name":null,"country_id":null},{"active":false,"Giataid":"296958","cityId":null,"cityName":"Bumthang","hotelId":20010281,"hotelName":"Mountain Lodge","address":"Jakar,Bumthang,Bhutan","phones":"+9753631255","fax":"+9753631275","email":"","url":"","countryIso2":"BT","countryName":"Bhutan","hotelRating":"0","latitude":"27.5555","longitude":"90.7445","state_id":null,"state_name":null,"country_id":null},{"active":false,"Giataid":"296953","cityId":15714,"cityName":"Paro","hotelId":20010419,"hotelName":"Tenzinling Resort","address":"Lango,Paro,Bhutan","phones":"+9758272773","fax":"+9758272503","email":"mail@tenzinling.com.bt","url":"http://www.tenzinling.com.bt/","countryIso2":"BT","countryName":"Bhutan","hotelRating":"3","latitude":"27.4461","longitude":"89.3635","state_id":237,"state_name":"Paro District","country_id":26},{"active":false,"Giataid":"261643","cityId":15722,"cityName":"Thimphu","hotelId":20010779,"hotelName":"Khang Residency","address":"PO Box 474,Thimphu,Bhutan","phones":"+9752339111","fax":"+9752339444","email":"info@khangresidency.com","url":"http://www.khangresidency.com/","countryIso2":"BT","countryName":"Bhutan","hotelRating":"3","latitude":"27.4757","longitude":"89.6286","state_id":241,"state_name":"Thimphu District","country_id":26}]