[{"active":false,"Giataid":"27484","cityId":null,"cityName":"Kaslik","hotelId":27484,"hotelName":"Portemilio Hotel & Resort","address":"Sea Side Road,P.O. Box 766,Kaslik,Jounieh,Lebanon","phones":"+9619933300","fax":"+9619931866","email":"reservation@portemilio.com","url":"http://www.portemilio.com","countryIso2":"LB","countryName":"Lebanon","hotelRating":"4","latitude":"33.9802","longitude":"35.6141","state_id":null,"state_name":null,"country_id":null},{"active":false,"Giataid":"27541","cityId":65936,"cityName":"Beirut","hotelId":27541,"hotelName":"Albergo","address":"137, Abdel Wahab El Inglizi Street,Beirut,Lebanon","phones":"+9611339997","fax":"+9611339999","email":"reservation@albergobeirut.com","url":"http://www.albergobeirut.com","countryIso2":"LB","countryName":"Lebanon","hotelRating":"5","latitude":"33.8881","longitude":"35.5087","state_id":2286,"state_name":"Beirut Governorate","country_id":121},{"active":false,"Giataid":"27542","cityId":65936,"cityName":"Beirut","hotelId":27542,"hotelName":"Hotel Cavalier","address":"Abdul Baki Street,PO Box 11-9452,Hamra,Beirut,Lebanon","phones":"+9611353001","fax":"+9611347681","email":"contact@hotelcavalier.com","url":"http://www.hotelcavalier.com/","countryIso2":"LB","countryName":"Lebanon","hotelRating":"4","latitude":"33.8958","longitude":"35.4866","state_id":2286,"state_name":"Beirut Governorate","country_id":121},{"active":false,"Giataid":"27544","cityId":65936,"cityName":"Beirut","hotelId":27544,"hotelName":"The Charles Hotel","address":"Rustom Bacha Street,Ain El Mreisseh,Beirut,Lebanon","phones":"+9611362270","fax":"+9611363244","email":"info@charleshotel.org","url":"http://charleshotel.org","countryIso2":"LB","countryName":"Lebanon","hotelRating":"3","latitude":"33.9","longitude":"35.4916","state_id":2286,"state_name":"Beirut Governorate","country_id":121},{"active":false,"Giataid":"27546","cityId":null,"cityName":"Byblos","hotelId":27546,"hotelName":"Byblos Sur Mer","address":"Byblos Port,Byblos,Lebanon","phones":"+9619548000","fax":"+9619737380","email":"info@byblossurmer.com","url":"http://www.byblossurmer.com/","countryIso2":"LB","countryName":"Lebanon","hotelRating":"5","latitude":"34.1146","longitude":"35.6616","state_id":null,"state_name":null,"country_id":null},{"active":false,"Giataid":"27547","cityId":null,"cityName":"Beiteddine","hotelId":27547,"hotelName":"Emir Amin Palace","address":"","phones":"","fax":"","email":"","url":"","countryIso2":"LB","countryName":"Lebanon","hotelRating":"4","latitude":"33.6924","longitude":"35.5816","state_id":null,"state_name":null,"country_id":null},{"active":false,"Giataid":"27549","cityId":null,"cityName":"Zahl?","hotelId":27549,"hotelName":"Cristal Grand Kadri Hotel","address":"Brazil Street,P.O. Box: 167/Zahle,Bekaa Valley,Lebanon","phones":"+9618800038","fax":"+9618803314","email":"info@grandhotelkadri.com","url":"http://www.grandhotelkadri.com/aboutus.php","countryIso2":"LB","countryName":"Lebanon","hotelRating":"5","latitude":"33.8515","longitude":"35.8954","state_id":null,"state_name":null,"country_id":null},{"active":false,"Giataid":"30508","cityId":65936,"cityName":"Beirut","hotelId":30508,"hotelName":"Plaza Hotel","address":"Hamra Street,Main Road,Hamra,Beirut,Lebanon","phones":"+9611755777","fax":"","email":"","url":"","countryIso2":"LB","countryName":"Lebanon","hotelRating":"4","latitude":"33.8957","longitude":"35.4815","state_id":2286,"state_name":"Beirut Governorate","country_id":121},{"active":false,"Giataid":"36273","cityId":65936,"cityName":"Beirut","hotelId":36273,"hotelName":"Movenpick Hotel Beirut","address":"G?n?ral de Gaulle Avenue,Beirut,Lebanon","phones":"+9611869666","fax":"+9611809326","email":"hotel.beirut@moevenpick.com","url":"http://www.moevenpick-hotels.com/de/pub/ihre_hotels/worldmap/beirut/uebersicht.cfm","countryIso2":"LB","countryName":"Lebanon","hotelRating":"5","latitude":"33.8857","longitude":"35.4743","state_id":2286,"state_name":"Beirut Governorate","country_id":121},{"active":false,"Giataid":"39072","cityId":65948,"cityName":"Jounieh","hotelId":39072,"hotelName":"Bel Azur Hotel","address":"Jounieh Port,Old Souk,Jounieh,Lebanon","phones":"+9619930621","fax":"+9613288894","email":"hotelbelazur@hotmail.com","url":"","countryIso2":"LB","countryName":"Lebanon","hotelRating":"4","latitude":"33.9826","longitude":"35.6267","state_id":2282,"state_name":"Mount Lebanon Governorate","country_id":121},{"active":false,"Giataid":"129700","cityId":65936,"cityName":"Beirut","hotelId":129700,"hotelName":"Grand Hotel Beirut","address":"Hamra Street,Beirut,Lebanon","phones":"+9611739860","fax":"+9611739866","email":"plaza@hojo-lb.com","url":"http://www.grandhotelbeirut.com/","countryIso2":"LB","countryName":"Lebanon","hotelRating":"4","latitude":"33.8962","longitude":"35.4771","state_id":2286,"state_name":"Beirut Governorate","country_id":121},{"active":false,"Giataid":"129697","cityId":65936,"cityName":"Beirut","hotelId":129697,"hotelName":"Four Points By Sheraton Le Verdun","address":"Boulevard Saeb Salam,Verdun,Beirut,Lebanon","phones":"+9611803804","fax":"+9611803802","email":"verdun.reservations@fourpoints.com","url":"http://www.starwoodhotels.com/fourpoints/property/overview/index.html?propertyID=1478","countryIso2":"LB","countryName":"Lebanon","hotelRating":"4","latitude":"33.8821","longitude":"35.4855","state_id":2286,"state_name":"Beirut Governorate","country_id":121},{"active":false,"Giataid":"129699","cityId":65936,"cityName":"Beirut","hotelId":129699,"hotelName":"Napoli","address":"","phones":"","fax":"","email":"","url":"","countryIso2":"LB","countryName":"Lebanon","hotelRating":"3","latitude":"33.8964","longitude":"35.4778","state_id":2286,"state_name":"Beirut Governorate","country_id":121},{"active":false,"Giataid":"129701","cityId":65936,"cityName":"Beirut","hotelId":129701,"hotelName":"Hilton Beirut Metropolitan Palace Hotel","address":"Dimitri Hayek Street,P.O. Box 55555,Horsh Tabet,Beirut,Lebanon","phones":"+9611496666","fax":"+9611502502","email":"palacebeirut@habtoorhotels.com","url":"http://palacebeirut.habtoorhotels.com/site/general/Default.aspx","countryIso2":"LB","countryName":"Lebanon","hotelRating":"5","latitude":"33.8709","longitude":"35.5358","state_id":2286,"state_name":"Beirut Governorate","country_id":121},{"active":false,"Giataid":"129702","cityId":65936,"cityName":"Beirut","hotelId":129702,"hotelName":"Beverly Hotel","address":"Mina El Hoson-Ibn Sinaa Street,Beirut,Lebanon","phones":"+9611365170","fax":"","email":"","url":"","countryIso2":"LB","countryName":"Lebanon","hotelRating":"2","latitude":"33.9012","longitude":"35.4938","state_id":2286,"state_name":"Beirut Governorate","country_id":121},{"active":false,"Giataid":"129703","cityId":65936,"cityName":"Beirut","hotelId":129703,"hotelName":"Hotel Mediterranee","address":"Chouran Street,Al Manara,Beirut 1103,Lebanon","phones":"","fax":"","email":"","url":"","countryIso2":"LB","countryName":"Lebanon","hotelRating":"4","latitude":"33.8953","longitude":"35.4707","state_id":2286,"state_name":"Beirut Governorate","country_id":121},{"active":false,"Giataid":"271631","cityId":65936,"cityName":"Beirut","hotelId":129704,"hotelName":"Suite Hotel Merlot","address":"Facing St. Georges Square,Jal El Dib,Beirut,Lebanon","phones":"+9614725555","fax":"","email":"","url":"","countryIso2":"LB","countryName":"Lebanon","hotelRating":"3","latitude":"33.9075","longitude":"35.5894","state_id":2286,"state_name":"Beirut Governorate","country_id":121},{"active":false,"Giataid":"132670","cityId":65936,"cityName":"Beirut","hotelId":132670,"hotelName":"Le Marly","address":"Hamra street,Beirut,Lebanon","phones":"+9611743437","fax":"+9611743442","email":"lemarlyh@hotmail.com","url":"","countryIso2":"LB","countryName":"Lebanon","hotelRating":"3","latitude":"33.8952","longitude":"35.4857","state_id":2286,"state_name":"Beirut Governorate","country_id":121},{"active":false,"Giataid":"132671","cityId":65936,"cityName":"Beirut","hotelId":132671,"hotelName":"Alexandre","address":"Ashrafieh,Adib Ishak Street,P.O. Box: 11-6861,Beirut,Lebanon","phones":"+9611325736","fax":"+9611328322","email":"alexandre@hotelalexandre.com","url":"http://www.hotelalexandre.com/home.html","countryIso2":"LB","countryName":"Lebanon","hotelRating":"4","latitude":"33.8837","longitude":"35.5191","state_id":2286,"state_name":"Beirut Governorate","country_id":121},{"active":false,"Giataid":"132672","cityId":65936,"cityName":"Beirut","hotelId":132672,"hotelName":"Hilton Beirut Habtoor Grand","address":"Charles De Gaulle Street,PO Box 55555,Sin El Fil,Horsh Tabet,Beirut,Lebanon","phones":"+9611500666","fax":"+9611502505","email":"BeirutHabtoorGrand.Information@hilton.com","url":"http://www.hiltonhotelsmea.com/hotel/Hilton-Beirut-Habtoor-Grand","countryIso2":"LB","countryName":"Lebanon","hotelRating":"5","latitude":"33.8694","longitude":"35.5372","state_id":2286,"state_name":"Beirut Governorate","country_id":121},{"active":false,"Giataid":"132673","cityId":65936,"cityName":"Beirut","hotelId":132673,"hotelName":"Beau Rivage","address":"RAMLET AL-BAIDA P.O.BOX 114-5013","phones":"","fax":"","email":"","url":"","countryIso2":"LB","countryName":"Lebanon","hotelRating":"3","latitude":"33.8792","longitude":"35.4815","state_id":2286,"state_name":"Beirut Governorate","country_id":121},{"active":false,"Giataid":"132675","cityId":65936,"cityName":"Beirut","hotelId":132675,"hotelName":"Hotel Napoleon","address":"Nehme Yafet Street,Hamra Area,Beirut,Lebanon","phones":"+9611340013","fax":"+9611354658","email":"napoleon@napoleon.com.lb","url":"http://www.napoleon.com.lb/","countryIso2":"LB","countryName":"Lebanon","hotelRating":"4","latitude":"33.8971","longitude":"35.48","state_id":2286,"state_name":"Beirut Governorate","country_id":121},{"active":false,"Giataid":"132676","cityId":65936,"cityName":"Beirut","hotelId":132676,"hotelName":"Royal Garden Hotel","address":"Emile Edde Street,Hamra,Beirut 5873-1103,Lebanon","phones":"","fax":"","email":"","url":"","countryIso2":"LB","countryName":"Lebanon","hotelRating":"4","latitude":"33.8938","longitude":"35.4831","state_id":2286,"state_name":"Beirut Governorate","country_id":121},{"active":false,"Giataid":"260097","cityId":65936,"cityName":"Beirut","hotelId":138135,"hotelName":"Golden Tulip Galleria Hotel","address":"Adnan Al Hakeem Street,PO Box 333-25,Jnah District,Beirut,Lebanon","phones":"+9611840540","fax":"+9611840345","email":"","url":"","countryIso2":"LB","countryName":"Lebanon","hotelRating":"4","latitude":"33.8665","longitude":"35.4855","state_id":2286,"state_name":"Beirut Governorate","country_id":121},{"active":false,"Giataid":"145021","cityId":65936,"cityName":"Beirut","hotelId":145021,"hotelName":"Golden Tulip Hotel De Ville","address":"75 Sodeco Street,Ras El Nabeh,Beirut 0116 5049,Lebanon","phones":"+9611637777","fax":"+9611637700","email":"reservations@goldentuliphoteldeville.com","url":"http://www.goldentuliphoteldeville.com","countryIso2":"LB","countryName":"Lebanon","hotelRating":"4","latitude":"33.881","longitude":"35.5111","state_id":2286,"state_name":"Beirut Governorate","country_id":121},{"active":false,"Giataid":"182582","cityId":65948,"cityName":"Jounieh","hotelId":182582,"hotelName":"Regency Boutique","address":"Adma District,P.O.Box 2045,Jounieh,Lebanon","phones":"+9619854000","fax":"+9613434329","email":"info@regencypalace.com","url":"http://http//www.regencypalace.com","countryIso2":"LB","countryName":"Lebanon","hotelRating":"5","latitude":"34.0185","longitude":"35.6486","state_id":2282,"state_name":"Mount Lebanon Governorate","country_id":121},{"active":false,"Giataid":"182583","cityId":65948,"cityName":"Jounieh","hotelId":182583,"hotelName":"Sun Hills Suites Hotel","address":"Sun Hills Street,Adma District,Jounieh,Lebanon","phones":"+9619850021","fax":"+9619850041","email":"info@sunhillshotel.com","url":"http://sunhillshotel.com","countryIso2":"LB","countryName":"Lebanon","hotelRating":"5","latitude":"34.017","longitude":"35.6398","state_id":2282,"state_name":"Mount Lebanon Governorate","country_id":121},{"active":false,"Giataid":"183208","cityId":65936,"cityName":"Beirut","hotelId":183208,"hotelName":"Mozart Hotel","address":"Tannoukhiyen Street,Hamra District,Ras,Beirut 1103,Lebanon","phones":"+9611345757","fax":"+9611345758","email":"info@mozarthotelleb.com","url":"http://mozarthotelleb.com/index-1.html","countryIso2":"LB","countryName":"Lebanon","hotelRating":"3","latitude":"33.8962","longitude":"35.4775","state_id":2286,"state_name":"Beirut Governorate","country_id":121},{"active":false,"Giataid":"202988","cityId":65936,"cityName":"Beirut","hotelId":202988,"hotelName":"Le Gray","address":"Martyrs' Square,Central Beirut District,Beirut 2011 3312,Lebanon","phones":"+9611971111","fax":"+9611971112","email":"info@legray.com","url":"http://www.campbellgrayhotels.com/le-gray-beirut?lang=EN#/le-gray-beirut","countryIso2":"LB","countryName":"Lebanon","hotelRating":"5","latitude":"33.8598","longitude":"35.5338","state_id":2286,"state_name":"Beirut Governorate","country_id":121},{"active":false,"Giataid":"202990","cityId":null,"cityName":"Byblos","hotelId":202990,"hotelName":"Victory Byblos & Spa","address":"Seaside Road,Byblos,Lebanon","phones":"+9619796697","fax":"+9619795597","email":"info@victorybybloshotel.com","url":"http://victorybybloshotel.com","countryIso2":"LB","countryName":"Lebanon","hotelRating":"4","latitude":"34.1068","longitude":"35.6523","state_id":null,"state_name":null,"country_id":null},{"active":false,"Giataid":"206806","cityId":null,"cityName":"Byblos","hotelId":206806,"hotelName":"Canari De Byblos","address":"Voie 13, Highway Exit,Byblos,Lebanon","phones":"+9619550550","fax":"","email":"info@canaridebyblos.com","url":"http://www.canaridebyblos.com","countryIso2":"LB","countryName":"Lebanon","hotelRating":"3","latitude":"34.1242","longitude":"35.6534","state_id":null,"state_name":null,"country_id":null},{"active":false,"Giataid":"207454","cityId":65936,"cityName":"Beirut","hotelId":207454,"hotelName":"City Suite Raouche","address":"Chatila Street,Raouche,Beirut 1100,Lebanon","phones":"+9611862111","fax":"","email":"","url":"","countryIso2":"LB","countryName":"Lebanon","hotelRating":"4","latitude":"33.8926","longitude":"35.4722","state_id":2286,"state_name":"Beirut Governorate","country_id":121},{"active":false,"Giataid":"207708","cityId":65936,"cityName":"Beirut","hotelId":207708,"hotelName":"Coral Beirut Al Hamra Hotel","address":"Baalbek Street,P.O. Box 113-5966,Hamra,Beirut,Lebanon","phones":"+9611343411","fax":"+9611345609","email":"sales@coral-hamra.com","url":"http://www.coral-international.com/alhamra/","countryIso2":"LB","countryName":"Lebanon","hotelRating":"4","latitude":"33.8949","longitude":"35.4797","state_id":2286,"state_name":"Beirut Governorate","country_id":121},{"active":false,"Giataid":"208846","cityId":65936,"cityName":"Beirut","hotelId":208846,"hotelName":"Embassy","address":"Makdessi Street,Facing Liban Post,Hamra,Beirut 1103,Lebanon","phones":"","fax":"","email":"","url":"","countryIso2":"LB","countryName":"Lebanon","hotelRating":"3","latitude":"33.8965","longitude":"35.4819","state_id":2286,"state_name":"Beirut Governorate","country_id":121},{"active":false,"Giataid":"209874","cityId":65936,"cityName":"Beirut","hotelId":209874,"hotelName":"Golden Tulip Serenada","address":"Abdel Aziz Street,Hamra,113 5516 Beirut,Lebanon","phones":"+9611755550","fax":"+9611755551","email":"info@goldentulipserenada.com","url":"http://www.goldentulipserenada.com/","countryIso2":"LB","countryName":"Lebanon","hotelRating":"4","latitude":"33.8974","longitude":"35.4841","state_id":2286,"state_name":"Beirut Governorate","country_id":121},{"active":false,"Giataid":"212129","cityId":65936,"cityName":"Beirut","hotelId":212129,"hotelName":"King's Suites","address":"Australia Street,Raoucheh,Beirut,Lebanon","phones":"+9611804222","fax":"","email":"","url":"","countryIso2":"LB","countryName":"Lebanon","hotelRating":"4","latitude":"33.8914","longitude":"35.4732","state_id":2286,"state_name":"Beirut Governorate","country_id":121},{"active":false,"Giataid":"212620","cityId":65936,"cityName":"Beirut","hotelId":212620,"hotelName":"Lahoya Garden","address":"Ain El Mreisseh,Beirut,Lebanon","phones":"+9611364936","fax":"","email":"","url":"","countryIso2":"LB","countryName":"Lebanon","hotelRating":"4","latitude":"33.9019","longitude":"35.477","state_id":2286,"state_name":"Beirut Governorate","country_id":121},{"active":false,"Giataid":"212621","cityId":65936,"cityName":"Beirut","hotelId":212621,"hotelName":"Lahoya Homes","address":"Ain El Mreisseh,Beirut,Lebanon","phones":"+9611374442","fax":"","email":"","url":"","countryIso2":"LB","countryName":"Lebanon","hotelRating":"5","latitude":"33.9002","longitude":"35.4733","state_id":2286,"state_name":"Beirut Governorate","country_id":121},{"active":false,"Giataid":"212622","cityId":65936,"cityName":"Beirut","hotelId":212622,"hotelName":"Lahoya Suites","address":"Ain El Mreisseh,Beirut,Lebanon","phones":"+9611371786","fax":"","email":"","url":"","countryIso2":"LB","countryName":"Lebanon","hotelRating":"5","latitude":"33.9007","longitude":"35.4734","state_id":2286,"state_name":"Beirut Governorate","country_id":121},{"active":false,"Giataid":"214862","cityId":65936,"cityName":"Beirut","hotelId":214862,"hotelName":"Padova","address":"Horch Tabet,Sin el Fil,Beirut,Lebanon","phones":"+9611501333","fax":"","email":"","url":"","countryIso2":"LB","countryName":"Lebanon","hotelRating":"4","latitude":"33.8706","longitude":"35.5344","state_id":2286,"state_name":"Beirut Governorate","country_id":121},{"active":false,"Giataid":"216598","cityId":65936,"cityName":"Beirut","hotelId":216598,"hotelName":"Raouche Arjaan by Rotana","address":"Chouran Street,P.O. Box: 13-5325,Beirut,Lebanon","phones":"+9611781111","fax":"+9611782222","email":"raouche.arjaan@rotana.com","url":"http://www.rotana.com/arjaanhotelapartments/lebanon/beirut/raoucharjaanbyrotana","countryIso2":"LB","countryName":"Lebanon","hotelRating":"4","latitude":"33.892","longitude":"35.4714","state_id":2286,"state_name":"Beirut Governorate","country_id":121},{"active":false,"Giataid":"221825","cityId":65952,"cityName":"Sidon","hotelId":221825,"hotelName":"Eid","address":"","phones":"","fax":"","email":"","url":"","countryIso2":"LB","countryName":"Lebanon","hotelRating":"1","latitude":"33.6121","longitude":"35.5376","state_id":2281,"state_name":"South Governorate","country_id":121},{"active":false,"Giataid":"221911","cityId":null,"cityName":"Kfardebiane","hotelId":221911,"hotelName":"Faraya Village Club","address":"Faraya-Faqra Road,1h 15 min from Beirut Airport,500 m after the Faraya round about, direction Faqra and Faraya Mazaar,Kfardebiane,Lebanon","phones":"+9619320666","fax":"","email":"","url":"","countryIso2":"LB","countryName":"Lebanon","hotelRating":"4","latitude":"34.0125","longitude":"35.8236","state_id":null,"state_name":null,"country_id":null},{"active":false,"Giataid":"222604","cityId":65936,"cityName":"Beirut","hotelId":222604,"hotelName":"Le Crillon","address":"","phones":"","fax":"","email":"","url":"","countryIso2":"LB","countryName":"Lebanon","hotelRating":"3","latitude":"33.8821","longitude":"35.6291","state_id":2286,"state_name":"Beirut Governorate","country_id":121},{"active":false,"Giataid":"223793","cityId":null,"cityName":"Brummana","hotelId":223793,"hotelName":"Wakim","address":"","phones":"","fax":"","email":"","url":"","countryIso2":"LB","countryName":"Lebanon","hotelRating":"3","latitude":"33.8699","longitude":"35.6081","state_id":null,"state_name":null,"country_id":null},{"active":false,"Giataid":"227535","cityId":null,"cityName":"Byblos","hotelId":227535,"hotelName":"Eddesands Hotel & WellneSS Resort","address":"Jbeil,Byblos,Lebanon","phones":"+9619546666","fax":"+9619545955","email":"hotelreception@eddesands.com","url":"http://www.eddesandsresort.com/","countryIso2":"LB","countryName":"Lebanon","hotelRating":"5","latitude":"34.1153","longitude":"35.6489","state_id":null,"state_name":null,"country_id":null},{"active":false,"Giataid":"227647","cityId":65936,"cityName":"Beirut","hotelId":227647,"hotelName":"Caesar's Park Hotel","address":"Madame Curie Street,Beirut 7510,Lebanon","phones":"+9611747711","fax":"","email":"info@ceasersparkhotel.com","url":"http://www.ceasarsparkhotel.com/","countryIso2":"LB","countryName":"Lebanon","hotelRating":"3","latitude":"33.892","longitude":"35.4844","state_id":2286,"state_name":"Beirut Governorate","country_id":121},{"active":false,"Giataid":"227717","cityId":65936,"cityName":"Beirut","hotelId":227717,"hotelName":"Duroy","address":"Australia Street,Raouch?,Beirut,Lebanon","phones":"+9611798800","fax":"+9611798600","email":"info@duroyhotel.com","url":"http://www.booking.com/hotel/lb/duroy.de.html","countryIso2":"LB","countryName":"Lebanon","hotelRating":"4","latitude":"33.8915","longitude":"35.4732","state_id":2286,"state_name":"Beirut Governorate","country_id":121},{"active":false,"Giataid":"227732","cityId":65936,"cityName":"Beirut","hotelId":227732,"hotelName":"Four Seasons Hotel Beirut","address":"1418 Professor Wafic Sinno Avenue,Minet El Hosn,Beirut 2020 4107,Lebanon","phones":"+9611761000","fax":"+9611761100","email":"","url":"http://www.fourseasons.com/beirut","countryIso2":"LB","countryName":"Lebanon","hotelRating":"5","latitude":"33.9017","longitude":"35.4998","state_id":2286,"state_name":"Beirut Governorate","country_id":121},{"active":false,"Giataid":"229182","cityId":65936,"cityName":"Beirut","hotelId":229182,"hotelName":"Bayview","address":"Ibn Sina Street,Beirut,Lebanon","phones":"+9611373090","fax":"+9611373091","email":"bayview@dm.net.lb","url":"http://www.bayviewhotellebanon.com/","countryIso2":"LB","countryName":"Lebanon","hotelRating":"4","latitude":"33.9004","longitude":"35.4894","state_id":2286,"state_name":"Beirut Governorate","country_id":121},{"active":false,"Giataid":"229181","cityId":null,"cityName":"Brummana","hotelId":229181,"hotelName":"Printania Palace","address":"Chahine Achkar Street,Brummana,Lebanon","phones":"+9614862000","fax":"+9614862000","email":"printania@printania.com","url":"http://www.printania.com/","countryIso2":"LB","countryName":"Lebanon","hotelRating":"5","latitude":"33.8846","longitude":"35.6361","state_id":null,"state_name":null,"country_id":null},{"active":false,"Giataid":"232441","cityId":null,"cityName":"Byblos","hotelId":232441,"hotelName":"Ahiram Hotel","address":"Jbeil District,Byblos 0096,Lebanon","phones":"+9619540440","fax":"+9619944726","email":"info@ahiramhotel.com","url":"http://www.activehotels.com/1/de/1/3831441-ahiram-hotel-byblos-jbeil.html","countryIso2":"LB","countryName":"Lebanon","hotelRating":"3","latitude":"34.1245","longitude":"35.6444","state_id":null,"state_name":null,"country_id":null},{"active":false,"Giataid":"232444","cityId":null,"cityName":"Byblos","hotelId":232444,"hotelName":"Byblos Palace","address":"Byblos Highway,Byblos,Lebanon","phones":"+9619796569","fax":"+9619796569","email":"info@byblospalace.com","url":"http://www.byblospalace.com/","countryIso2":"LB","countryName":"Lebanon","hotelRating":"3","latitude":"34.1076","longitude":"35.6523","state_id":null,"state_name":null,"country_id":null},{"active":false,"Giataid":"232448","cityId":null,"cityName":"Chtaura","hotelId":232448,"hotelName":"Chtaura Park","address":"Jdita Main Road,Said Freiha Street,Jdita,Chtaura,B?qaa,Lebanon","phones":"+9618540011","fax":"","email":"info@chtauraparkhotel.com","url":"http://www.chtauraparkhotel.com/new/default.asp","countryIso2":"LB","countryName":"Lebanon","hotelRating":"5","latitude":"33.8181","longitude":"35.8475","state_id":null,"state_name":null,"country_id":null},{"active":false,"Giataid":"232448","cityId":null,"cityName":"Chtaura","hotelId":232448,"hotelName":"Chtaura Park","address":"Jdita Main Road,Said Freiha Street,Jdita,Chtaura,B?qaa,Lebanon","phones":"+9618540011","fax":"","email":"info@chtauraparkhotel.com","url":"http://www.chtauraparkhotel.com/new/default.asp","countryIso2":"LB","countryName":"Lebanon","hotelRating":"5","latitude":"33.8181","longitude":"35.8475","state_id":null,"state_name":null,"country_id":null},{"active":false,"Giataid":"232452","cityId":65936,"cityName":"Beirut","hotelId":232452,"hotelName":"Monte Alberto","address":"Wadi AlArayesh,Zahle,Bekaa 1777,Lebanon","phones":"+9618810912","fax":"+9618801451","email":"info@montealberto.com","url":"http://www.lebanon-hotels.com/hotel/monte-alberto/","countryIso2":"LB","countryName":"Lebanon","hotelRating":"3","latitude":"33.8552","longitude":"35.8941","state_id":2286,"state_name":"Beirut Governorate","country_id":121},{"active":false,"Giataid":"232463","cityId":65954,"cityName":"Tyre","hotelId":232463,"hotelName":"The Rest House Hotel & Resort","address":"Istiraha Street,Tyr 1601,Lebanon","phones":"+9617742000","fax":"+9617345163","email":"info@resthouse-tyr.com.lb","url":"http://www.resthouse-tyr.com.lb/","countryIso2":"LB","countryName":"Lebanon","hotelRating":"4","latitude":"33.263","longitude":"35.2066","state_id":2281,"state_name":"South Governorate","country_id":121},{"active":false,"Giataid":"232877","cityId":65936,"cityName":"Beirut","hotelId":232877,"hotelName":"The Parisian Hotel","address":"Rustom Basha Street,P.O. Box 16-6402,Ain El Mreisseh,Beirut,Lebanon","phones":"+9611361999","fax":"+9611362464","email":"info@theparisianhotel.com","url":"http://www.theparisianhotel.com/index.htm","countryIso2":"LB","countryName":"Lebanon","hotelRating":"4","latitude":"33.9001","longitude":"35.4922","state_id":2286,"state_name":"Beirut Governorate","country_id":121},{"active":false,"Giataid":"232878","cityId":65948,"cityName":"Jounieh","hotelId":232878,"hotelName":"Aquarium Hotel & Resort","address":"Old Coast Road,PO Box 453,Jounieh,Lebanon","phones":"+9619936858","fax":"+9619935098","email":"info@hotelaquarium.info","url":"http://www.hotelaquarium.info/Index.asp","countryIso2":"LB","countryName":"Lebanon","hotelRating":"3","latitude":"33.9925","longitude":"35.6392","state_id":2282,"state_name":"Mount Lebanon Governorate","country_id":121},{"active":false,"Giataid":"234413","cityId":65936,"cityName":"Beirut","hotelId":234413,"hotelName":"35 Rooms","address":"Hamra,Baalbeck Street,Beirut 2030 0035,Lebanon","phones":"+9611345676","fax":"+9611345674","email":"stay@35rooms.com","url":"http://www.35rooms.com/index1.php","countryIso2":"LB","countryName":"Lebanon","hotelRating":"4","latitude":"33.8946","longitude":"35.4843","state_id":2286,"state_name":"Beirut Governorate","country_id":121},{"active":false,"Giataid":"234952","cityId":65948,"cityName":"Jounieh","hotelId":234952,"hotelName":"Portaluna Hotel & Resort","address":"200 Meter North telepherique,Coastal Road,Jounieh,Lebanon","phones":"+9619901777","fax":"+9619645533","email":"info@portalunahotel.com","url":"http://www.portalunahotel.com/index.php","countryIso2":"LB","countryName":"Lebanon","hotelRating":"5","latitude":"33.9949","longitude":"35.6415","state_id":2282,"state_name":"Mount Lebanon Governorate","country_id":121},{"active":false,"Giataid":"234954","cityId":null,"cityName":"Byblos","hotelId":234954,"hotelName":"Monoberge","address":"Byblos Main Road,Jbeil,Byblos,Lebanon","phones":"+9619550999","fax":"+9619550333","email":"","url":"http://www.monoberge.com/","countryIso2":"LB","countryName":"Lebanon","hotelRating":"3","latitude":"34.1223","longitude":"35.6505","state_id":null,"state_name":null,"country_id":null},{"active":false,"Giataid":"234955","cityId":65936,"cityName":"Beirut","hotelId":234955,"hotelName":"Golden Tulip MidTown Hotel and Suites","address":"Souraty Street,Hamra,P.O. BOX 113-5310,Beirut,Lebanon","phones":"+9611347555","fax":"+9611347555","email":"info@midtownhotelsuites.com","url":"http://www.midtownhotelsuites.com/","countryIso2":"LB","countryName":"Lebanon","hotelRating":"4","latitude":"33.8973","longitude":"35.4834","state_id":2286,"state_name":"Beirut Governorate","country_id":121},{"active":false,"Giataid":"235557","cityId":null,"cityName":"Bsharri","hotelId":235557,"hotelName":"Le Cedrus Boutique Hotel","address":"The Cedars,Bischarri,Al Arz 1377,Lebanon","phones":"+9616678777","fax":"","email":"info@cedrushotel.com","url":"http://www.cedrushotel.com/main.html","countryIso2":"LB","countryName":"Lebanon","hotelRating":"4","latitude":"34.2468","longitude":"36.0283","state_id":null,"state_name":null,"country_id":null},{"active":false,"Giataid":"235558","cityId":65936,"cityName":"Beirut","hotelId":235558,"hotelName":"Port View Hotel","address":"Rue Gouraud,Gemmayzeh,Beirut 1100,Lebanon","phones":"+9611567500","fax":"","email":"","url":"http://www.lebhotels.com/hotel/port-view/","countryIso2":"LB","countryName":"Lebanon","hotelRating":"3","latitude":"33.8957","longitude":"35.5215","state_id":2286,"state_name":"Beirut Governorate","country_id":121},{"active":false,"Giataid":"235559","cityId":65948,"cityName":"Jounieh","hotelId":235559,"hotelName":"Sunrise","address":"Jounieh,Sahel Alma,Lebanon","phones":"+9619900200","fax":"","email":"reservations@sunrisehotellb.com","url":"http://www.sunrisehotellb.com/","countryIso2":"LB","countryName":"Lebanon","hotelRating":"4","latitude":"33.9921","longitude":"35.6515","state_id":2282,"state_name":"Mount Lebanon Governorate","country_id":121},{"active":false,"Giataid":"237334","cityId":null,"cityName":"Byblos","hotelId":237334,"hotelName":"Castel Mare Beach Hotel & Resort","address":"Al-Monsif,Byblos,Lebanon","phones":"+9619791111","fax":"+9619791333","email":"admin@castelmare.net","url":"http://www.castelmare.net/","countryIso2":"LB","countryName":"Lebanon","hotelRating":"4","latitude":"34.1786","longitude":"35.6327","state_id":null,"state_name":null,"country_id":null},{"active":false,"Giataid":"239922","cityId":65936,"cityName":"Beirut","hotelId":239922,"hotelName":"Elysee Residence","address":"Abeb Al Aziz Str. 191,P.O.Box 135595,Hamra,Beirut,Lebanon","phones":"+9611744850","fax":"+9611344502","email":"info@elyseeresidence.com","url":"http://www.elyseeresidence.com","countryIso2":"LB","countryName":"Lebanon","hotelRating":"3","latitude":"33.8957","longitude":"35.4851","state_id":2286,"state_name":"Beirut Governorate","country_id":121},{"active":false,"Giataid":"244152","cityId":65936,"cityName":"Beirut","hotelId":244152,"hotelName":"Orient Queen Homes","address":"John Kenedy Str.,P.O. Box 11-6240,Beirut,Lebanon","phones":"+9611361140","fax":"+9611361141","email":"info@orientqueenhomes.com","url":"http://orientqueenhomes.com/about.htm","countryIso2":"LB","countryName":"Lebanon","hotelRating":"4","latitude":"33.8995","longitude":"35.4894","state_id":2286,"state_name":"Beirut Governorate","country_id":121},{"active":false,"Giataid":"244153","cityId":65936,"cityName":"Beirut","hotelId":244153,"hotelName":"Hollywood Inn Hotel","address":"Near Casino du Liban,Jounieh,Lebanon,Lebanon","phones":"+9619853860","fax":"+9619854103","email":"info@hollywoodinnhotel.com","url":"http://www.hollywoodinnhotel.com/","countryIso2":"LB","countryName":"Lebanon","hotelRating":"4","latitude":"34.0081","longitude":"35.6482","state_id":2286,"state_name":"Beirut Governorate","country_id":121},{"active":false,"Giataid":"363752","cityId":65936,"cityName":"Beirut","hotelId":363752,"hotelName":"Q- Hotel","address":"Hamra,Wardieh,Roma Street,Beirut,Lebanon","phones":"+9611345500","fax":"+9611754120","email":"info@qhotelbeirut.com","url":"http://www.qhotelbeirut.com/","countryIso2":"LB","countryName":"Lebanon","hotelRating":"4","latitude":"33.8956","longitude":"35.488","state_id":2286,"state_name":"Beirut Governorate","country_id":121},{"active":false,"Giataid":"368237","cityId":null,"cityName":"Aley","hotelId":368237,"hotelName":"City Suite Aley","address":"Piscine Street,Aley,Lebanon","phones":"+9615556550","fax":"","email":"","url":"","countryIso2":"LB","countryName":"Lebanon","hotelRating":"4","latitude":"33.8114","longitude":"35.6054","state_id":null,"state_name":null,"country_id":null},{"active":false,"Giataid":"368238","cityId":65936,"cityName":"Beirut","hotelId":368238,"hotelName":"Diana Tower Hotel","address":"","phones":"","fax":"","email":"","url":"","countryIso2":"LB","countryName":"Lebanon","hotelRating":"3","latitude":"33.8977","longitude":"35.4762","state_id":2286,"state_name":"Beirut Governorate","country_id":121},{"active":false,"Giataid":"132674","cityId":65936,"cityName":"Beirut","hotelId":368239,"hotelName":"Lancaster Plaza","address":"General de Gaulle Avenue,Raouche,Beirut,Lebanon","phones":"+9611791000","fax":"","email":"","url":"","countryIso2":"LB","countryName":"Lebanon","hotelRating":"5","latitude":"33.8863","longitude":"35.4748","state_id":2286,"state_name":"Beirut Governorate","country_id":121},{"active":false,"Giataid":"368240","cityId":65936,"cityName":"Beirut","hotelId":368240,"hotelName":"O Monot","address":"Monot Street,Saifi,PO Box 11-6182,Beirut 6182,Lebanon","phones":"+9611338777","fax":"","email":"","url":"","countryIso2":"LB","countryName":"Lebanon","hotelRating":"5","latitude":"33.8919","longitude":"35.5075","state_id":2286,"state_name":"Beirut Governorate","country_id":121},{"active":false,"Giataid":"368241","cityId":null,"cityName":"Jieh","hotelId":368241,"hotelName":"Pangea Beach Resort","address":"Younis Prophet Street,Beach Side,Jiyeh 1600,Beirut,Lebanon","phones":"+9617995580","fax":"","email":"","url":"","countryIso2":"LB","countryName":"Lebanon","hotelRating":"4","latitude":"33.6592","longitude":"35.4183","state_id":null,"state_name":null,"country_id":null},{"active":false,"Giataid":"377064","cityId":65936,"cityName":"Beirut","hotelId":377064,"hotelName":"Le Dix","address":"","phones":"","fax":"","email":"","url":"","countryIso2":"LB","countryName":"Lebanon","hotelRating":"5","latitude":"33.8867","longitude":"35.4744","state_id":2286,"state_name":"Beirut Governorate","country_id":121},{"active":false,"Giataid":"380381","cityId":null,"cityName":"Byblos","hotelId":380381,"hotelName":"King George","address":"","phones":"","fax":"","email":"","url":"","countryIso2":"LB","countryName":"Lebanon","hotelRating":"3","latitude":"34.1151","longitude":"35.6594","state_id":null,"state_name":null,"country_id":null},{"active":false,"Giataid":"383867","cityId":null,"cityName":"Brummana","hotelId":383867,"hotelName":"Bellevue Palace Hotel","address":"Main Street,Broumana,Libanon,Lebanon","phones":"","fax":"","email":"","url":"","countryIso2":"LB","countryName":"Lebanon","hotelRating":"4","latitude":"33.8853","longitude":"35.6387","state_id":null,"state_name":null,"country_id":null},{"active":false,"Giataid":"426916","cityId":null,"cityName":"Faqra Kfardebian","hotelId":426916,"hotelName":"L'Auberge De Faqra","address":"Faqra,RoundAbout President Emile Lahoud,Faraya-Mzaar,Kfardebian,Lebanon","phones":"+9619300600","fax":"+9619300610","email":"Info@faqraclub.com","url":"https://www.faqraclub.com","countryIso2":"LB","countryName":"Lebanon","hotelRating":"3","latitude":"33.9839","longitude":"35.8102","state_id":null,"state_name":null,"country_id":null},{"active":false,"Giataid":"426917","cityId":65948,"cityName":"Jounieh","hotelId":426917,"hotelName":"Vanda Hotel & Spa","address":"","phones":"","fax":"","email":"","url":"","countryIso2":"LB","countryName":"Lebanon","hotelRating":"3","latitude":"34.0037","longitude":"35.6453","state_id":2282,"state_name":"Mount Lebanon Governorate","country_id":121},{"active":false,"Giataid":"450734","cityId":null,"cityName":"Faraya","hotelId":450734,"hotelName":"Coin Vert","address":"","phones":"","fax":"","email":"","url":"","countryIso2":"LB","countryName":"Lebanon","hotelRating":"2","latitude":"34.016","longitude":"35.8234","state_id":null,"state_name":null,"country_id":null},{"active":false,"Giataid":"451209","cityId":65948,"cityName":"Jounieh","hotelId":451209,"hotelName":"Marbella Hotel","address":"Sahel Alma,New Jounieh,PO Box 2543,Jounieh,Lebanon","phones":"","fax":"","email":"","url":"","countryIso2":"LB","countryName":"Lebanon","hotelRating":"3","latitude":"34.0022","longitude":"35.6526","state_id":2282,"state_name":"Mount Lebanon Governorate","country_id":121},{"active":false,"Giataid":"453955","cityId":65948,"cityName":"Jounieh","hotelId":453955,"hotelName":"Luxor Hotel","address":"Maameltein,Ghazir,Jounieh 0000,Lebanon","phones":"+9619852002","fax":"","email":"info@luxorhotellb.com","url":"http://luxorhotellb.com","countryIso2":"LB","countryName":"Lebanon","hotelRating":"4","latitude":"34.0061","longitude":"35.6467","state_id":2282,"state_name":"Mount Lebanon Governorate","country_id":121},{"active":false,"Giataid":"454621","cityId":null,"cityName":"Al Arz","hotelId":454621,"hotelName":"White Cedar Hotel &Resort","address":"Cedars, North Lebanon","phones":"","fax":"","email":"","url":"","countryIso2":"LB","countryName":"Lebanon","hotelRating":"1","latitude":"34.2407","longitude":"36.0351","state_id":null,"state_name":null,"country_id":null},{"active":false,"Giataid":"454664","cityId":null,"cityName":"Faraya","hotelId":454664,"hotelName":"Auberge le Valais","address":"","phones":"","fax":"","email":"","url":"","countryIso2":"LB","countryName":"Lebanon","hotelRating":"1","latitude":"34.0181","longitude":"35.8292","state_id":null,"state_name":null,"country_id":null},{"active":false,"Giataid":"464446","cityId":65954,"cityName":"Tyre","hotelId":464446,"hotelName":"Platinum Hotel","address":"Al Hosh Street,Sour,Tyre,Lebanon","phones":"+9617344666","fax":"","email":"info@platinumhotellb.com","url":"http://www.platinumhotellb.com","countryIso2":"LB","countryName":"Lebanon","hotelRating":"4","latitude":"33.2678","longitude":"35.217","state_id":2281,"state_name":"South Governorate","country_id":121},{"active":false,"Giataid":"464544","cityId":104994,"cityName":"Douma","hotelId":464544,"hotelName":"Douma Hotel","address":"Main Street,Douma 1400,Batroun District,Lebanon","phones":"+9616520202","fax":"+9616520206","email":"info@hoteldouma.com","url":"http://hoteldouma.com","countryIso2":"LB","countryName":"Lebanon","hotelRating":"3","latitude":"34.2032","longitude":"35.8474","state_id":2935,"state_name":"Rif Dimashq Governorate","country_id":215},{"active":false,"Giataid":"465568","cityId":null,"cityName":"Bsharri","hotelId":465568,"hotelName":"Hotel L'Aiglon","address":"Old Cedars Road,Facing Kadisha Grotto,1377 Bcharreh,North of Lebanon,Lebanon","phones":"+9616671529","fax":"","email":"info@hotelaiglonlb.com","url":"http://www.hotelaiglonlb.com/","countryIso2":"LB","countryName":"Lebanon","hotelRating":"1","latitude":"34.2469","longitude":"36.0354","state_id":null,"state_name":null,"country_id":null},{"active":false,"Giataid":"465823","cityId":null,"cityName":"Beit Mery","hotelId":465823,"hotelName":"Monteverde Hotel","address":"YUCCA Street 11 B,Beit Meri,Mont-Liban,Lebanon","phones":"+9614401806","fax":"+9614409170","email":"info@hotel-monteverde.com","url":"http://www.monteverde-hotel-lebanon.com","countryIso2":"LB","countryName":"Lebanon","hotelRating":"3","latitude":"33.8452","longitude":"35.5858","state_id":null,"state_name":null,"country_id":null},{"active":false,"Giataid":"466267","cityId":null,"cityName":"Bsharri","hotelId":466267,"hotelName":"St. Bernard Hotel","address":"Cedars,North Lebanon,Bechari,Lebanon","phones":"+9616678100","fax":"+9616678102","email":"","url":"http://www.hstbernard.com/","countryIso2":"LB","countryName":"Lebanon","hotelRating":"1","latitude":"34.2437","longitude":"36.042","state_id":null,"state_name":null,"country_id":null},{"active":false,"Giataid":"466458","cityId":31874,"cityName":"Zefta","hotelId":466458,"hotelName":"Reef Zefta Hotel","address":"Mafrak Zefta,Pine Vally,Zefta 1103,Lebanon","phones":"","fax":"","email":"","url":"","countryIso2":"LB","countryName":"Lebanon","hotelRating":"1","latitude":"33.4445","longitude":"35.4038","state_id":3234,"state_name":"Gharbia","country_id":65},{"active":false,"Giataid":"466466","cityId":null,"cityName":"Bekaa","hotelId":466466,"hotelName":"West Bekaa country Club","address":"Kherbet Kanafar Main Road,1801 West Bekaa,Lebanon","phones":"","fax":"","email":"","url":"","countryIso2":"LB","countryName":"Lebanon","hotelRating":"3","latitude":"33.6339","longitude":"35.7428","state_id":null,"state_name":null,"country_id":null},{"active":false,"Giataid":"466479","cityId":null,"cityName":"Ehden","hotelId":466479,"hotelName":"Hotel Ehden","address":"Ehden Main street,Ehden 1304,Lebanon","phones":"","fax":"","email":"","url":"","countryIso2":"LB","countryName":"Lebanon","hotelRating":"4","latitude":"34.2914","longitude":"35.9522","state_id":null,"state_name":null,"country_id":null},{"active":false,"Giataid":"466482","cityId":null,"cityName":"Bsharri","hotelId":466482,"hotelName":"Alpine Hotel","address":"Cedars - Main Road,1377 Bcharr?,Lebanon","phones":"","fax":"","email":"","url":"","countryIso2":"LB","countryName":"Lebanon","hotelRating":"1","latitude":"34.2444","longitude":"36.0393","state_id":null,"state_name":null,"country_id":null},{"active":false,"Giataid":"466522","cityId":65954,"cityName":"Tyre","hotelId":466522,"hotelName":"Murex Hotel","address":"Nabih Berri Street,Tyre 1601,South Lebanon,Lebanon","phones":"+9617347111","fax":"+9617347222","email":"info@murex-hotel.com","url":"http://www.murex-hotel.com/","countryIso2":"LB","countryName":"Lebanon","hotelRating":"1","latitude":"33.2669","longitude":"35.2013","state_id":2281,"state_name":"South Governorate","country_id":121},{"active":false,"Giataid":"466552","cityId":null,"cityName":"Bsharri","hotelId":466552,"hotelName":"Mon Refuge","address":"","phones":"","fax":"","email":"","url":"","countryIso2":"LB","countryName":"Lebanon","hotelRating":"3","latitude":"34.2445","longitude":"36.0405","state_id":null,"state_name":null,"country_id":null},{"active":false,"Giataid":"466657","cityId":65952,"cityName":"Sidon","hotelId":466657,"hotelName":"Al Qualaa Boutique Hotel","address":"Sea Side Road Main Str. Saida,1600,Lebanon","phones":"+9617734777","fax":"+9617734777","email":"info@alqualaa.com","url":"http://www.alqualaa.com/","countryIso2":"LB","countryName":"Lebanon","hotelRating":"4","latitude":"33.5655","longitude":"35.3715","state_id":2281,"state_name":"South Governorate","country_id":121},{"active":false,"Giataid":"466788","cityId":null,"cityName":"Mzaar Kfardebian","hotelId":466788,"hotelName":"Eleven Hotel","address":"Ouyoun Al Siman,1200 Mzaar Kfardebian,Lebanon","phones":"+9619341741","fax":"+9619341841","email":"info@hotel-eleven.com","url":"http://www.hotel-eleven.com/","countryIso2":"LB","countryName":"Lebanon","hotelRating":"3","latitude":"33.9942","longitude":"35.8337","state_id":null,"state_name":null,"country_id":null},{"active":false,"Giataid":"466905","cityId":null,"cityName":"Hamat","hotelId":466905,"hotelName":"Theodos Hotel","address":"Deir El-Nourieh Road,1400 ?amat,Lebanon","phones":"+9616730030","fax":"+9616730030","email":"theo@theodoshotel.com","url":"http://www.theodoshotel.com/","countryIso2":"LB","countryName":"Lebanon","hotelRating":"2","latitude":"34.3106","longitude":"35.6924","state_id":null,"state_name":null,"country_id":null},{"active":false,"Giataid":"466955","cityId":null,"cityName":"Enfeh","hotelId":466955,"hotelName":"Las Salinas Resort / Motel","address":"Enfeh El Koura,North Lebanon,Lebanon","phones":"+9616540970","fax":"+9616540980","email":"info@lassalinas-lb.com","url":"http://www.lassalinas.com/","countryIso2":"LB","countryName":"Lebanon","hotelRating":"1","latitude":"34.3637","longitude":"35.735","state_id":null,"state_name":null,"country_id":null},{"active":false,"Giataid":"467353","cityId":null,"cityName":"Faraya","hotelId":467353,"hotelName":"The Lodge Inn","address":"Main Road,Faraya,Lebanon","phones":"+9619320020","fax":"","email":"info@thelodgeinn.com","url":"http://www.thelodgeinn.com","countryIso2":"LB","countryName":"Lebanon","hotelRating":"1","latitude":"34.0102","longitude":"35.8247","state_id":null,"state_name":null,"country_id":null},{"active":false,"Giataid":"467456","cityId":null,"cityName":"Rayfun","hotelId":467456,"hotelName":"Oakland Hotel","address":"568 Al Moutraniah Street,Rayfun,Lebanon","phones":"","fax":"","email":"","url":"","countryIso2":"LB","countryName":"Lebanon","hotelRating":"3","latitude":"33.9801","longitude":"35.7066","state_id":null,"state_name":null,"country_id":null},{"active":false,"Giataid":"467489","cityId":null,"cityName":"Tabarja","hotelId":467489,"hotelName":"Senator Hotel","address":"Tabarja Main Road,Near Tabarja Round About,1200 Tabarja,Jounieh,Lebanon","phones":"","fax":"","email":"","url":"","countryIso2":"LB","countryName":"Lebanon","hotelRating":"2","latitude":"34.0218","longitude":"35.6294","state_id":null,"state_name":null,"country_id":null},{"active":false,"Giataid":"467546","cityId":null,"cityName":"Ehden","hotelId":467546,"hotelName":"La Mairie Hotel","address":"Ehden Main Road,1304 Ehden,Lebanon","phones":"","fax":"","email":"","url":"","countryIso2":"LB","countryName":"Lebanon","hotelRating":"1","latitude":"34.2889","longitude":"35.9781","state_id":null,"state_name":null,"country_id":null},{"active":false,"Giataid":"468144","cityId":null,"cityName":"Ehden","hotelId":468144,"hotelName":"Serail Hotel","address":"Main Street,1369 Ehden,North Lebanon,Lebanon","phones":"+9616560999","fax":"","email":"info@serailhotel.com","url":"http://serailhotel.com/","countryIso2":"LB","countryName":"Lebanon","hotelRating":"1","latitude":"34.2914","longitude":"35.9577","state_id":null,"state_name":null,"country_id":null},{"active":false,"Giataid":"468328","cityId":null,"cityName":"Ajaltun","hotelId":468328,"hotelName":"Monte Bello Hotel","address":"","phones":"","fax":"","email":"","url":"","countryIso2":"LB","countryName":"Lebanon","hotelRating":"1","latitude":"33.9609","longitude":"35.6818","state_id":null,"state_name":null,"country_id":null},{"active":false,"Giataid":"468979","cityId":null,"cityName":"Baabdat","hotelId":468979,"hotelName":"Colibri Hotel","address":"Baabdath,Broumana 1204,Lebanon","phones":"+9614820402","fax":"","email":"reservations@colibrihotellb.com","url":"http://www.colibrihotellb.com/","countryIso2":"LB","countryName":"Lebanon","hotelRating":"1","latitude":"33.889","longitude":"35.6546","state_id":null,"state_name":null,"country_id":null},{"active":false,"Giataid":"469575","cityId":null,"cityName":"Tabarja","hotelId":469575,"hotelName":"Heaven Hotel","address":"Jounieh,Tabarja,Lebanon","phones":"","fax":"","email":"info@heavenhotel.com","url":"http://www.heavenhotel.net","countryIso2":"LB","countryName":"Lebanon","hotelRating":"4","latitude":"34.0303","longitude":"35.6289","state_id":null,"state_name":null,"country_id":null},{"active":false,"Giataid":"471133","cityId":null,"cityName":"Bikfaya","hotelId":471133,"hotelName":"Grand Hotel Naas","address":"Naas,1205 0037 Bekfaya,Mount Lebanon,Lebanon","phones":"+9614982629","fax":"+9614982628","email":"info@grandhotelnaaslebanon.com","url":"http://www.grandhotelnaaslebanon.com","countryIso2":"LB","countryName":"Lebanon","hotelRating":"3","latitude":"33.9141","longitude":"35.6801","state_id":null,"state_name":null,"country_id":null},{"active":false,"Giataid":"472729","cityId":null,"cityName":"Jbaa","hotelId":472729,"hotelName":"Taj al Janoub Hotel","address":"Jezzine Road,Jebaa,Lebanon","phones":"+9617211214","fax":"","email":"info@tajaljanoubhotel.com","url":"http://www.tajaljanoubhotel.com","countryIso2":"LB","countryName":"Lebanon","hotelRating":"3","latitude":"33.4807","longitude":"35.5211","state_id":null,"state_name":null,"country_id":null},{"active":false,"Giataid":"473223","cityId":null,"cityName":"Miziara","hotelId":473223,"hotelName":"Hotel Miziara","address":"Sayde Street 19th Street,Miziara,Lebanon","phones":"+9616570521","fax":"","email":"info@hotelmiziara.com","url":"http://www.hotelmiziara.com/","countryIso2":"LB","countryName":"Lebanon","hotelRating":"1","latitude":"34.337","longitude":"35.9274","state_id":null,"state_name":null,"country_id":null},{"active":false,"Giataid":"473340","cityId":65931,"cityName":"Ain Ebel","hotelId":473340,"hotelName":"Oak Hills Hotel","address":"A?n Ebel 1601,Lebanon","phones":"+9617471126","fax":"+9617471127","email":"INFO@OAKHILLSHOTEL.COM","url":"http://oakhillshotel.com/","countryIso2":"LB","countryName":"Lebanon","hotelRating":"1","latitude":"33.1119","longitude":"35.4017","state_id":2288,"state_name":"Nabatieh Governorate","country_id":121},{"active":false,"Giataid":"473588","cityId":null,"cityName":"Bsharri","hotelId":473588,"hotelName":"Hotel Cortina","address":"Cedar Main Road,1080 Bcharr?,Lebanon","phones":"","fax":"","email":"","url":"","countryIso2":"LB","countryName":"Lebanon","hotelRating":"1","latitude":"34.2442","longitude":"36.0409","state_id":null,"state_name":null,"country_id":null},{"active":false,"Giataid":"474162","cityId":null,"cityName":"Jezzine","hotelId":474162,"hotelName":"Pine View Hotel","address":"","phones":"","fax":"","email":"","url":"","countryIso2":"LB","countryName":"Lebanon","hotelRating":"1","latitude":"33.5586","longitude":"35.5342","state_id":null,"state_name":null,"country_id":null},{"active":false,"Giataid":"474239","cityId":65936,"cityName":"Beirut","hotelId":474239,"hotelName":"Three O Nine Urban House","address":"Jeanne D'arc Street,Hamra-Bliss Area,Beirut 2038,Lebanon","phones":"+9611755309","fax":"","email":"info@threeonine.com","url":"http://www.threeonine.com/","countryIso2":"LB","countryName":"Lebanon","hotelRating":"4","latitude":"33.8988","longitude":"35.4816","state_id":2286,"state_name":"Beirut Governorate","country_id":121},{"active":false,"Giataid":"477192","cityId":null,"cityName":"Mechref","hotelId":477192,"hotelName":"Escape Villa","address":"Mechref, Mont-Liban, Lebanon,Lebanon","phones":"+96170712900","fax":"","email":"Escape.villa@hotmail.com","url":"http://escapevillamechref.com/","countryIso2":"LB","countryName":"Lebanon","hotelRating":"1","latitude":"33.7096","longitude":"35.4557","state_id":null,"state_name":null,"country_id":null},{"active":false,"Giataid":"509906","cityId":65948,"cityName":"Jounieh","hotelId":509906,"hotelName":"Vista Del Mar Hotel","address":"Maameltein,Seaside Road,Jounieh 1369,Lebanon","phones":"+9619639799","fax":"","email":"","url":"http://www.vistadelmarlb.com","countryIso2":"LB","countryName":"Lebanon","hotelRating":"3","latitude":"33.9947","longitude":"35.6424","state_id":2282,"state_name":"Mount Lebanon Governorate","country_id":121},{"active":false,"Giataid":"512125","cityId":65936,"cityName":"Beirut","hotelId":512125,"hotelName":"Santona Residence","address":"","phones":"","fax":"","email":"","url":"","countryIso2":"LB","countryName":"Lebanon","hotelRating":"3","latitude":"33.8932","longitude":"35.4818","state_id":2286,"state_name":"Beirut Governorate","country_id":121},{"active":false,"Giataid":"515116","cityId":null,"cityName":"Byblos","hotelId":515116,"hotelName":"Bourj Al Fidar","address":"","phones":"+9619478990","fax":"","email":"","url":"","countryIso2":"LB","countryName":"Lebanon","hotelRating":"1","latitude":"34.1009","longitude":"35.6509","state_id":null,"state_name":null,"country_id":null},{"active":false,"Giataid":"518921","cityId":null,"cityName":"Damour","hotelId":518921,"hotelName":"Janna Sur Mer","address":"Damour Seashore,Damour 5256 1111,Lebanon","phones":"","fax":"","email":"info@jannaresorts.com","url":"http://www.jannaresorts.com","countryIso2":"LB","countryName":"Lebanon","hotelRating":"1","latitude":"33.7283","longitude":"35.446","state_id":null,"state_name":null,"country_id":null},{"active":false,"Giataid":"529595","cityId":65936,"cityName":"Beirut","hotelId":529595,"hotelName":"The J Hotel & Spa","address":"Jeanne d'Arc Street,Beirut,Lebanon","phones":"","fax":"","email":"","url":"http://the-j-hotel-and-spa.beirut-hotel.net/pl/","countryIso2":"LB","countryName":"Lebanon","hotelRating":"4","latitude":"33.8955","longitude":"35.4812","state_id":2286,"state_name":"Beirut Governorate","country_id":121},{"active":false,"Giataid":"546724","cityId":null,"cityName":"Batroun","hotelId":546724,"hotelName":"Florida Beach Hotel & Resort","address":"","phones":"","fax":"","email":"","url":"","countryIso2":"LB","countryName":"Lebanon","hotelRating":"1","latitude":"34.2523","longitude":"35.6593","state_id":null,"state_name":null,"country_id":null},{"active":false,"Giataid":"546748","cityId":null,"cityName":"Mzaar Kfardebian","hotelId":546748,"hotelName":"San Antonio Hotel","address":"","phones":"","fax":"","email":"","url":"","countryIso2":"LB","countryName":"Lebanon","hotelRating":"1","latitude":"33.9937","longitude":"35.8378","state_id":null,"state_name":null,"country_id":null},{"active":false,"Giataid":"552291","cityId":65936,"cityName":"Beirut","hotelId":552291,"hotelName":"Paradise Residence","address":"Cairo Street P.O. Box 113,Hamra,Beirut 5181,Lebanon","phones":"+9611350017","fax":"+9611351559","email":"info@paradisehotellb.com","url":"http://www.paradisehotellb.com","countryIso2":"LB","countryName":"Lebanon","hotelRating":"3","latitude":"33.8945","longitude":"35.4848","state_id":2286,"state_name":"Beirut Governorate","country_id":121},{"active":false,"Giataid":"552348","cityId":65936,"cityName":"Beirut","hotelId":552348,"hotelName":"Sky Suites","address":"Hamra,Makhoul Street,Beirut,Lebanon","phones":"+9611348500","fax":"","email":"info@skysuites.net","url":"http://www.skysuites.net/","countryIso2":"LB","countryName":"Lebanon","hotelRating":"4","latitude":"33.8986","longitude":"35.4835","state_id":2286,"state_name":"Beirut Governorate","country_id":121},{"active":false,"Giataid":"589945","cityId":65936,"cityName":"Beirut","hotelId":589945,"hotelName":"Citea Apart Hotel","address":"Alfred Naccache Avenue,Ashrafieh,Beirut 24600,Lebanon","phones":"+9611332050","fax":"","email":"","url":"","countryIso2":"LB","countryName":"Lebanon","hotelRating":"4","latitude":"33.884","longitude":"35.5226","state_id":2286,"state_name":"Beirut Governorate","country_id":121},{"active":false,"Giataid":"592767","cityId":null,"cityName":"Ehden","hotelId":592767,"hotelName":"Mist Hotel & Spa By Warwick","address":"Nabeh Mar Sarkis Road,Ehden,Lebanon","phones":"+96171100222","fax":"","email":"info.misthotel@warwickhotels.com","url":"http://warwickhotels.com/mist-hotel/","countryIso2":"LB","countryName":"Lebanon","hotelRating":"5","latitude":"34.2872","longitude":"35.9839","state_id":null,"state_name":null,"country_id":null},{"active":false,"Giataid":"593980","cityId":null,"cityName":"Faraya","hotelId":593980,"hotelName":"San Georgio Hotel Faraya","address":"Faraya Main Road,Faraya,Lebanon","phones":"","fax":"","email":"","url":"","countryIso2":"LB","countryName":"Lebanon","hotelRating":"4","latitude":"34.0153","longitude":"35.8035","state_id":null,"state_name":null,"country_id":null},{"active":false,"Giataid":"612843","cityId":null,"cityName":"Bsharri","hotelId":612843,"hotelName":"Tiger House Guesthouse","address":"Cedar's Road,Bsharri 1377,Lebanon","phones":"","fax":"","email":"","url":"","countryIso2":"LB","countryName":"Lebanon","hotelRating":"1","latitude":"34.2521","longitude":"36.0104","state_id":null,"state_name":null,"country_id":null},{"active":false,"Giataid":"613557","cityId":65948,"cityName":"Jounieh","hotelId":613557,"hotelName":"Monte Mare Hotel","address":"Maameltein Street,Old Ghazir Road,Jounieh 1234,Ghazir,Lebanon","phones":"+9619851624","fax":"","email":"","url":"","countryIso2":"LB","countryName":"Lebanon","hotelRating":"4","latitude":"34.0074","longitude":"35.6458","state_id":2282,"state_name":"Mount Lebanon Governorate","country_id":121},{"active":false,"Giataid":"614329","cityId":65936,"cityName":"Beirut","hotelId":614329,"hotelName":"Caramel Boutique Hotel","address":"Hamra Street,Hamra,Beirut,Lebanon","phones":"+96181636555","fax":"","email":"info@caramelboutiquehotel.com","url":"http://caramelboutiquehotel.com/","countryIso2":"LB","countryName":"Lebanon","hotelRating":"4","latitude":"33.8958","longitude":"35.4826","state_id":2286,"state_name":"Beirut Governorate","country_id":121},{"active":false,"Giataid":"614353","cityId":null,"cityName":"Al Arz","hotelId":614353,"hotelName":"La Grande Ourse","address":"","phones":"","fax":"","email":"","url":"","countryIso2":"LB","countryName":"Lebanon","hotelRating":"1","latitude":"34.2439","longitude":"36.0399","state_id":null,"state_name":null,"country_id":null},{"active":false,"Giataid":"615955","cityId":null,"cityName":"Kfardebiane","hotelId":615955,"hotelName":"Urban Faqra Hotel","address":"President Emile Lahoud Roundbout,1206 Kfardebiane,Lebanon","phones":"+96176070605","fax":"","email":"","url":"http://www.urbanfaqra.com/","countryIso2":"LB","countryName":"Lebanon","hotelRating":"4","latitude":"33.9973","longitude":"35.8209","state_id":null,"state_name":null,"country_id":null},{"active":false,"Giataid":"618105","cityId":65936,"cityName":"Beirut","hotelId":618105,"hotelName":"Elite Hotel & Spa","address":"Australia Street,Raousche,Beirut,Lebanon","phones":"+9611798800","fax":"+9611798600","email":"info@eliteduroyhotel.com","url":"http://www.eliteduroyhotel.com/en","countryIso2":"LB","countryName":"Lebanon","hotelRating":"4","latitude":"33.888","longitude":"35.4748","state_id":2286,"state_name":"Beirut Governorate","country_id":121},{"active":false,"Giataid":"622802","cityId":null,"cityName":"Ehden","hotelId":622802,"hotelName":"Ehden Country Club Hotel","address":"Al Matal Street,PO Box 5,1304 Ehden,Lebanon","phones":"+9616560651","fax":"","email":"info@ehdencountryclubhotel.com","url":"http://www.ehdencountryclubhotel.com","countryIso2":"LB","countryName":"Lebanon","hotelRating":"4","latitude":"34.291","longitude":"35.9475","state_id":null,"state_name":null,"country_id":null},{"active":false,"Giataid":"622835","cityId":null,"cityName":"Kfardebiane","hotelId":622835,"hotelName":"Tamer Land Hotel","address":"Faraya Village,1206 Kfardebian,Lebanon","phones":"","fax":"","email":"","url":"","countryIso2":"LB","countryName":"Lebanon","hotelRating":"3","latitude":"34.0115","longitude":"35.8266","state_id":null,"state_name":null,"country_id":null},{"active":false,"Giataid":"622843","cityId":null,"cityName":"Kfardebiane","hotelId":622843,"hotelName":"Merab Hotel","address":"Mzaar,Kfardebian,Mzaar Kfardebian,Lebanon","phones":"+9619341341","fax":"","email":"info@merabhotel.com","url":"http://www.merabhotel.com/","countryIso2":"LB","countryName":"Lebanon","hotelRating":"3","latitude":"33.9919","longitude":"35.8348","state_id":null,"state_name":null,"country_id":null},{"active":false,"Giataid":"622851","cityId":null,"cityName":"Faraya","hotelId":622851,"hotelName":"Old Bridge","address":"Faraya,1200 Farayya,Lebanon","phones":"","fax":"","email":"","url":"","countryIso2":"LB","countryName":"Lebanon","hotelRating":"3","latitude":"34.0124","longitude":"35.8229","state_id":null,"state_name":null,"country_id":null},{"active":false,"Giataid":"622857","cityId":null,"cityName":"Ehden","hotelId":622857,"hotelName":"Master's Hotel","address":"Nabaa Jouit Road,1304 Ehden,North Lebanon,Lebanon","phones":"+9616561052","fax":"+9616561052","email":"info@mastershotel-ehden.com","url":"http://mastershotel-ehden.com/","countryIso2":"LB","countryName":"Lebanon","hotelRating":"1","latitude":"34.2986","longitude":"35.9664","state_id":null,"state_name":null,"country_id":null},{"active":false,"Giataid":"622880","cityId":null,"cityName":"Bikfaya","hotelId":622880,"hotelName":"Zenotel Wellness Retreat Hotel","address":"Bharsaf,PO Box 54,4821 Bekfaya,Lebanon","phones":"+9614984824","fax":"+9614984283","email":"info@zenotel.me","url":"https://zenotel.me","countryIso2":"LB","countryName":"Lebanon","hotelRating":"1","latitude":"33.9174","longitude":"35.6703","state_id":null,"state_name":null,"country_id":null},{"active":false,"Giataid":"622890","cityId":null,"cityName":"Tabarja","hotelId":622890,"hotelName":"Al Bihar Hotel","address":"Tabarja,Jounieh,Lebanon","phones":"+9619855858","fax":"+9619855858","email":"info@albiharhotel.com","url":"http://albiharhotel.com","countryIso2":"LB","countryName":"Lebanon","hotelRating":"1","latitude":"34.0294","longitude":"35.6246","state_id":null,"state_name":null,"country_id":null},{"active":false,"Giataid":"622888","cityId":null,"cityName":"Mkalles","hotelId":622888,"hotelName":"Auberge St Antoine","address":"Mar Roukos,Dayr Mar Rawqus,Mkalles,Lebanon","phones":"","fax":"","email":"","url":"","countryIso2":"LB","countryName":"Lebanon","hotelRating":"1","latitude":"33.8633","longitude":"35.5619","state_id":null,"state_name":null,"country_id":null},{"active":false,"Giataid":"622892","cityId":null,"cityName":"Tabarja","hotelId":622892,"hotelName":"Aphrodite Hotel","address":"Main Road,Tabarja,Lebanon","phones":"+9619850400","fax":"","email":"info@aphroditehotel.net","url":"http://www.aphroditehotel.net/","countryIso2":"LB","countryName":"Lebanon","hotelRating":"1","latitude":"34.0303","longitude":"35.629","state_id":null,"state_name":null,"country_id":null},{"active":false,"Giataid":"623275","cityId":null,"cityName":"Bekaa","hotelId":623275,"hotelName":"Layali Al Shams Hotel","address":"Anjar Main Road,Bekaa,Lebanon","phones":"+9618622600","fax":"","email":"","url":"http://www.shamsrestaurant.com","countryIso2":"LB","countryName":"Lebanon","hotelRating":"1","latitude":"33.6339","longitude":"35.7428","state_id":null,"state_name":null,"country_id":null},{"active":false,"Giataid":"623277","cityId":null,"cityName":"Bekaa","hotelId":623277,"hotelName":"Blue Lake Hotel","address":"Saghbine Main Road,Saghbine,Bekaa 3054,West Bekaa,Lebanon","phones":"+9618670146","fax":"","email":"info@bluelake-hotel.com","url":"http://www.bluelake-hotel.com/","countryIso2":"LB","countryName":"Lebanon","hotelRating":"1","latitude":"33.6022","longitude":"35.6944","state_id":null,"state_name":null,"country_id":null},{"active":false,"Giataid":"623381","cityId":null,"cityName":"Zgharta","hotelId":623381,"hotelName":"Residences Le Lac","address":"Bnachii Lake,Zgharta,North Lebanon,Lebanon","phones":"+9616550950","fax":"","email":"info@residencelelac.com","url":"http://www.residencelelac.com/","countryIso2":"LB","countryName":"Lebanon","hotelRating":"1","latitude":"34.3359","longitude":"35.8842","state_id":null,"state_name":null,"country_id":null},{"active":false,"Giataid":"623379","cityId":null,"cityName":"Enfeh","hotelId":623379,"hotelName":"Olive Gardens Resort","address":"Affesdiq Main Road,Affesdiq 1306,Enfeh,Koura District,Lebanon","phones":"+9613003026","fax":"+9616951111","email":"info@oliveresort.com","url":"https://oliveresort.com","countryIso2":"LB","countryName":"Lebanon","hotelRating":"1","latitude":"34.3336","longitude":"35.7971","state_id":null,"state_name":null,"country_id":null},{"active":false,"Giataid":"623380","cityId":65954,"cityName":"Tyre","hotelId":623380,"hotelName":"Victory Village","address":"Tyre Al Housh,So?r 1601,Lebanon","phones":"","fax":"","email":"","url":"","countryIso2":"LB","countryName":"Lebanon","hotelRating":"1","latitude":"33.2675","longitude":"35.209","state_id":2281,"state_name":"South Governorate","country_id":121},{"active":false,"Giataid":"645511","cityId":65954,"cityName":"Tyre","hotelId":645511,"hotelName":"Al-Yasmine Guest House","address":"Maaliyeh Main Road,Tyre,Lebanon","phones":"+9613372888","fax":"","email":"info@alyasmineguesthouse.com","url":"http://www.alyasmineguesthouse.com/","countryIso2":"LB","countryName":"Lebanon","hotelRating":"1","latitude":"33.2027","longitude":"35.2421","state_id":2281,"state_name":"South Governorate","country_id":121},{"active":false,"Giataid":"645523","cityId":null,"cityName":"Akkar","hotelId":645523,"hotelName":"Flor Do Campo","address":"Gebrayel Akkar,Akkar,Lebanon","phones":"","fax":"","email":"","url":"","countryIso2":"LB","countryName":"Lebanon","hotelRating":"1","latitude":"34.5267","longitude":"36.1426","state_id":null,"state_name":null,"country_id":null},{"active":false,"Giataid":"645527","cityId":null,"cityName":"Bsharri","hotelId":645527,"hotelName":"Bauhaus","address":"Jebran Khalil Jebran Avenue,Bsharri,Lebanon","phones":"+9616672220","fax":"","email":"info@bauhauslb.com","url":"http://www.bauhauslb.com/","countryIso2":"LB","countryName":"Lebanon","hotelRating":"1","latitude":"34.2517","longitude":"36.012","state_id":null,"state_name":null,"country_id":null},{"active":false,"Giataid":"645547","cityId":null,"cityName":"Al Judaydah","hotelId":645547,"hotelName":"Domaine Al Rachid","address":"Street Nasr,Manzel Rachid,Jedeideh El Fakeh,Al Judaydah,Lebanon","phones":"+9613218048","fax":"","email":"peterlimited@gmail.com","url":"https://domainealrachid.wordpress.com/","countryIso2":"LB","countryName":"Lebanon","hotelRating":"1","latitude":"0","longitude":"0","state_id":null,"state_name":null,"country_id":null},{"active":false,"Giataid":"645556","cityId":null,"cityName":"Chiyam","hotelId":645556,"hotelName":"La Villa Hotel","address":"South Lebanon,Khiam,Lebanon","phones":"","fax":"","email":"","url":"","countryIso2":"LB","countryName":"Lebanon","hotelRating":"1","latitude":"0","longitude":"0","state_id":null,"state_name":null,"country_id":null},{"active":false,"Giataid":"645564","cityId":null,"cityName":"Hasro?n","hotelId":645564,"hotelName":"Saint-Philippe Hotel","address":"Cedar Road,Hasro?n 1304,Lebanon","phones":"","fax":"","email":"","url":"http://hotelst-philippe.com/","countryIso2":"LB","countryName":"Lebanon","hotelRating":"1","latitude":"34.2393","longitude":"35.9718","state_id":null,"state_name":null,"country_id":null},{"active":false,"Giataid":"645568","cityId":null,"cityName":"Sannine","hotelId":645568,"hotelName":"Monte Sannine Hotel Restaurant","address":"Baskinta - Sannine - Zahleh Road,Sannine 1205,Lebanon","phones":"+9614251122","fax":"+9614251120","email":"info@montesannine.com","url":"http://www.montesannine.com/","countryIso2":"LB","countryName":"Lebanon","hotelRating":"1","latitude":"33.9354","longitude":"35.8412","state_id":null,"state_name":null,"country_id":null},{"active":false,"Giataid":"645577","cityId":null,"cityName":"Damour","hotelId":645577,"hotelName":"Kingdom Suite Hotel","address":"5.5 miles from the Airport south of Beirut,Damour 1001,Lebanon","phones":"","fax":"","email":"","url":"","countryIso2":"LB","countryName":"Lebanon","hotelRating":"1","latitude":"33.7291","longitude":"35.4544","state_id":null,"state_name":null,"country_id":null},{"active":false,"Giataid":"674444","cityId":65954,"cityName":"Tyre","hotelId":674444,"hotelName":"Turquoise Beach Resort","address":"Al Qulaleh,Nakoura Street,Sour,Tyre,Lebanon","phones":"+9613100859","fax":"","email":"info@turquoise-lb.com","url":"http://www.turquoise-lb.com/","countryIso2":"LB","countryName":"Lebanon","hotelRating":"1","latitude":"33.2675","longitude":"35.209","state_id":2281,"state_name":"South Governorate","country_id":121},{"active":false,"Giataid":"674448","cityId":null,"cityName":"Ehden","hotelId":674448,"hotelName":"Cedars Palace","address":"Cedars Main Road,Opposite Nadi Al Dabut,Al Arz,Ehden,Bsharri,Lebanon","phones":"+9616678190","fax":"","email":"info@cedarspalace.com","url":"http://www.cedars-palace.com/","countryIso2":"LB","countryName":"Lebanon","hotelRating":"1","latitude":"34.2489","longitude":"36.05","state_id":null,"state_name":null,"country_id":null},{"active":false,"Giataid":"674451","cityId":null,"cityName":"Aley","hotelId":674451,"hotelName":"Raj Hotel Apartment","address":"Piscine Street,Aley,Lebanon","phones":"","fax":"","email":"","url":"","countryIso2":"LB","countryName":"Lebanon","hotelRating":"1","latitude":"33.8093","longitude":"35.6062","state_id":null,"state_name":null,"country_id":null},{"active":false,"Giataid":"674682","cityId":null,"cityName":"Mzaar Kfardebian","hotelId":674682,"hotelName":"L'escale Du Mzaar","address":"Junction of Mzaar Ski Station,Ouyoun El Siman,Faraya,Lebanon","phones":"+96170552113","fax":"","email":"info@lescaledumzaar.com","url":"http://www.lescaledumzaar.com","countryIso2":"LB","countryName":"Lebanon","hotelRating":"1","latitude":"33.9937","longitude":"35.8378","state_id":null,"state_name":null,"country_id":null},{"active":false,"Giataid":"674687","cityId":null,"cityName":"Mayrouba","hotelId":674687,"hotelName":"Wood Hills Resort & Hotel","address":"Mayrouba,Mount Lebanon,Lebanon","phones":"+9619330202","fax":"","email":"info@wood-hills.com","url":"http://wood-hills.com/","countryIso2":"LB","countryName":"Lebanon","hotelRating":"1","latitude":"0","longitude":"0","state_id":null,"state_name":null,"country_id":null},{"active":false,"Giataid":"675083","cityId":65936,"cityName":"Beirut","hotelId":675083,"hotelName":"Orient Palace","address":"Australia Street,Raouche,Beirut,Lebanon","phones":"","fax":"","email":"","url":"","countryIso2":"LB","countryName":"Lebanon","hotelRating":"1","latitude":"33.8911","longitude":"35.5007","state_id":2286,"state_name":"Beirut Governorate","country_id":121},{"active":false,"Giataid":"675105","cityId":65936,"cityName":"Beirut","hotelId":675105,"hotelName":"Berkley Hotel","address":"Jeanne D'arc Street,Hamra,Beirut,Lebanon","phones":"","fax":"","email":"","url":"","countryIso2":"LB","countryName":"Lebanon","hotelRating":"1","latitude":"33.8911","longitude":"35.5007","state_id":2286,"state_name":"Beirut Governorate","country_id":121},{"active":false,"Giataid":"675110","cityId":null,"cityName":"Faraya","hotelId":675110,"hotelName":"San Giorgio Hotel","address":"Faraya Main Road,Kfardebian,Mount Lebanon,Faraya,Lebanon","phones":"","fax":"","email":"","url":"https://www.hotelscombined.com/Hotel/San_Giorgio_Hotel.htm","countryIso2":"LB","countryName":"Lebanon","hotelRating":"1","latitude":"34.0139","longitude":"35.8132","state_id":null,"state_name":null,"country_id":null},{"active":false,"Giataid":"675152","cityId":null,"cityName":"Bsharri","hotelId":675152,"hotelName":"Samar Resort","address":"New Cedars Road,Bsharri,Lebanon","phones":"+9616672072","fax":"","email":"resortsamar@gmail.com","url":"http://www.samarresort.com/home.html","countryIso2":"LB","countryName":"Lebanon","hotelRating":"1","latitude":"34.2593","longitude":"36.0032","state_id":null,"state_name":null,"country_id":null},{"active":false,"Giataid":"677413","cityId":null,"cityName":"Kfardebiane","hotelId":677413,"hotelName":"Ruine Royale","address":"Mayrouba Main Road,Faraya,Mayrouba,Kfardebian,Lebanon","phones":"+96179199925","fax":"","email":"","url":"http://www.ruineroyale.com","countryIso2":"LB","countryName":"Lebanon","hotelRating":"1","latitude":"34.0022","longitude":"35.8306","state_id":null,"state_name":null,"country_id":null},{"active":false,"Giataid":"677627","cityId":65936,"cityName":"Beirut","hotelId":677627,"hotelName":"Astra Hotel","address":"","phones":"","fax":"","email":"","url":"","countryIso2":"LB","countryName":"Lebanon","hotelRating":"1","latitude":"33.8952","longitude":"35.4801","state_id":2286,"state_name":"Beirut Governorate","country_id":121},{"active":false,"Giataid":"677634","cityId":null,"cityName":"Faraya","hotelId":677634,"hotelName":"Chateau D'eau Hotel","address":"Kfardebian-Aayoun El Siman Road,Near Chabrouh Dam,Faraya,Lebanon","phones":"+9613875595","fax":"","email":"","url":"http://www.chateaudeauhotel.com/","countryIso2":"LB","countryName":"Lebanon","hotelRating":"1","latitude":"33.9939","longitude":"35.833","state_id":null,"state_name":null,"country_id":null},{"active":false,"Giataid":"677645","cityId":65948,"cityName":"Jounieh","hotelId":677645,"hotelName":"High Season Hotel","address":"","phones":"","fax":"","email":"","url":"","countryIso2":"LB","countryName":"Lebanon","hotelRating":"1","latitude":"33.9979","longitude":"35.6423","state_id":2282,"state_name":"Mount Lebanon Governorate","country_id":121},{"active":false,"Giataid":"677655","cityId":65936,"cityName":"Beirut","hotelId":677655,"hotelName":"Kanjotel - Jal El Dib","address":"","phones":"","fax":"","email":"","url":"","countryIso2":"LB","countryName":"Lebanon","hotelRating":"1","latitude":"33.8911","longitude":"35.5007","state_id":2286,"state_name":"Beirut Governorate","country_id":121},{"active":false,"Giataid":"685730","cityId":null,"cityName":"Byblos","hotelId":685730,"hotelName":"eBoutique Hotel","address":"Jbeil,Byblos,Lebanon","phones":"+9619546666","fax":"+9619545955","email":"info@eddesands.com","url":"http://eddesands.com/accomodations/eBoutiqueHotel/","countryIso2":"LB","countryName":"Lebanon","hotelRating":"1","latitude":"34.1159","longitude":"35.6497","state_id":null,"state_name":null,"country_id":null},{"active":false,"Giataid":"695583","cityId":null,"cityName":"Tabarja","hotelId":695583,"hotelName":"Ibiza Hotel","address":"Sea Side Road,Ibiza Building,Jounieh,Tabarja 9614,Lebanon","phones":"","fax":"","email":"","url":"","countryIso2":"LB","countryName":"Lebanon","hotelRating":"1","latitude":"34.0261","longitude":"35.6292","state_id":null,"state_name":null,"country_id":null},{"active":false,"Giataid":"724362","cityId":65948,"cityName":"Jounieh","hotelId":724362,"hotelName":"HOtello Guest Suites","address":"Chwaya Street,Ghadir,Jounieh,Mount Lebanon,Lebanon","phones":"+9619938588","fax":"","email":"info@hotellolebanon.com","url":"http://www.hotellolebanon.com/index.php","countryIso2":"LB","countryName":"Lebanon","hotelRating":"1","latitude":"33.9829","longitude":"35.6374","state_id":2282,"state_name":"Mount Lebanon Governorate","country_id":121},{"active":false,"Giataid":"725515","cityId":null,"cityName":"Mzaar Kfardebian","hotelId":725515,"hotelName":"Hostel Auberge Beity","address":"Keserwan Highway,Close to St. Efrem Church,Mzaar Kfardebian,Lebanon","phones":"","fax":"","email":"","url":"","countryIso2":"LB","countryName":"Lebanon","hotelRating":"1","latitude":"34.0111","longitude":"35.8247","state_id":null,"state_name":null,"country_id":null},{"active":false,"Giataid":"466535","cityId":null,"cityName":"Ghazir","hotelId":725710,"hotelName":"Hotel Xperience","address":"3303 Ghazir-Maameltain Road,Kesserwan,P.O. Box: 2165,Ghazir,Lebanon","phones":"+9619854954","fax":"","email":"info@hotelxperience.com","url":"http://www.hotelxperience.com","countryIso2":"LB","countryName":"Lebanon","hotelRating":"1","latitude":"33.9979","longitude":"35.6423","state_id":null,"state_name":null,"country_id":null},{"active":false,"Giataid":"726264","cityId":null,"cityName":"Faraya","hotelId":726264,"hotelName":"Austria Luxury Apartments","address":"1 km from Faraya's Roundabout,9619 Faraya,Lebanon","phones":"","fax":"","email":"","url":"","countryIso2":"LB","countryName":"Lebanon","hotelRating":"1","latitude":"34.0139","longitude":"35.8132","state_id":null,"state_name":null,"country_id":null},{"active":false,"Giataid":"726781","cityId":65936,"cityName":"Beirut","hotelId":726781,"hotelName":"Unit For Living","address":"Ain Waraqa Street,Charles Helou Avenue,Port of Beirut,A minute distance from Downtown,Beirut 2075 7406,Lebanon","phones":"+9611580380","fax":"+9611580380","email":"info@unitforliving.com","url":"http://unitforliving.com","countryIso2":"LB","countryName":"Lebanon","hotelRating":"3","latitude":"33.8969","longitude":"35.5414","state_id":2286,"state_name":"Beirut Governorate","country_id":121},{"active":false,"Giataid":"727064","cityId":65948,"cityName":"Jounieh","hotelId":727064,"hotelName":"Remhala Guest House","address":"Remhala,Jounieh,Lebanon","phones":"","fax":"","email":"","url":"","countryIso2":"LB","countryName":"Lebanon","hotelRating":"1","latitude":"33.9979","longitude":"35.6423","state_id":2282,"state_name":"Mount Lebanon Governorate","country_id":121},{"active":false,"Giataid":"727178","cityId":65936,"cityName":"Beirut","hotelId":727178,"hotelName":"Beyt Mar Mikhael","address":"Armenia Street,Mar Mikhael,Beirut 1104,Lebanon","phones":"","fax":"","email":"","url":"","countryIso2":"LB","countryName":"Lebanon","hotelRating":"1","latitude":"33.8911","longitude":"35.5007","state_id":2286,"state_name":"Beirut Governorate","country_id":121},{"active":false,"Giataid":"727959","cityId":65936,"cityName":"Beirut","hotelId":727959,"hotelName":"Seaside Apartments","address":"George Post Street,Ain El Mreisseh,Beirut,Lebanon","phones":"","fax":"","email":"","url":"","countryIso2":"LB","countryName":"Lebanon","hotelRating":"1","latitude":"33.8911","longitude":"35.5007","state_id":2286,"state_name":"Beirut Governorate","country_id":121},{"active":false,"Giataid":"728705","cityId":65948,"cityName":"Jounieh","hotelId":728705,"hotelName":"The Rooms Boutique Hotel","address":"Haret Sakhr,Sea Side Road,Jounieh,Lebanon","phones":"+9619914514","fax":"","email":"info@theroomslb.com","url":"http://www.theroomslb.com","countryIso2":"LB","countryName":"Lebanon","hotelRating":"1","latitude":"33.9911","longitude":"35.6395","state_id":2282,"state_name":"Mount Lebanon Governorate","country_id":121},{"active":false,"Giataid":"733389","cityId":null,"cityName":"Faraya","hotelId":733389,"hotelName":"Villetta Di Faraya","address":"Highway,Fakra,Der Ali,Faraya 4764,Lebanon","phones":"+9619322552","fax":"","email":"info@villettadifaraya.com","url":"http://www.villettadifaraya.com","countryIso2":"LB","countryName":"Lebanon","hotelRating":"1","latitude":"34.0099","longitude":"35.8164","state_id":null,"state_name":null,"country_id":null},{"active":false,"Giataid":"734693","cityId":null,"cityName":"Faraya","hotelId":734693,"hotelName":"Chalets De Faraya","address":"Faraya,1206 Farayya,Lebanon","phones":"","fax":"","email":"","url":"","countryIso2":"LB","countryName":"Lebanon","hotelRating":"1","latitude":"34.0107","longitude":"35.8222","state_id":null,"state_name":null,"country_id":null},{"active":false,"Giataid":"735952","cityId":65936,"cityName":"Beirut","hotelId":735952,"hotelName":"Bahri Garden 1","address":"General De Gaulle,Beirut,Lebanon","phones":"","fax":"","email":"","url":"","countryIso2":"LB","countryName":"Lebanon","hotelRating":"1","latitude":"33.8911","longitude":"35.5007","state_id":2286,"state_name":"Beirut Governorate","country_id":121},{"active":false,"Giataid":"740463","cityId":null,"cityName":"Brummana","hotelId":740463,"hotelName":"Hotel Quartier Suisse","address":"Broumana Main Road,Near Kasr Fakhr El Din,Broumana 2761,Lebanon","phones":"+9614860606","fax":"","email":"info@quartiersuisse.com","url":"http://quartiersuisse.com","countryIso2":"LB","countryName":"Lebanon","hotelRating":"1","latitude":"33.8819","longitude":"35.6311","state_id":null,"state_name":null,"country_id":null},{"active":false,"Giataid":"740812","cityId":65936,"cityName":"Beirut","hotelId":740812,"hotelName":"41 Twelve","address":"Wadi Sabra Street,Hamra Area,Beirut,Lebanon","phones":"+96181201858","fax":"","email":"booking@41twelve.net","url":"http://www.41twelve.net/","countryIso2":"LB","countryName":"Lebanon","hotelRating":"1","latitude":"33.8911","longitude":"35.5007","state_id":2286,"state_name":"Beirut Governorate","country_id":121},{"active":false,"Giataid":"750042","cityId":null,"cityName":"Batroun","hotelId":750042,"hotelName":"Le Six Resort Hotel","address":"Thoum,0012 Batro?n,Lebanon","phones":"+9616743591","fax":"","email":"info@lesixresorthotel.com","url":"http://www.lesixresorthotel.com/","countryIso2":"LB","countryName":"Lebanon","hotelRating":"1","latitude":"34.2523","longitude":"35.6593","state_id":null,"state_name":null,"country_id":null},{"active":false,"Giataid":"750596","cityId":65936,"cityName":"Beirut","hotelId":750596,"hotelName":"Hamra Urban Gardens","address":"Abdel Baki Street,Right Turn Before Kababji,Hamra,Beirut,Lebanon","phones":"+9611742390","fax":"","email":"hello@hamragardens.com","url":"https://www.hamragardens.com","countryIso2":"LB","countryName":"Lebanon","hotelRating":"1","latitude":"33.8911","longitude":"35.5007","state_id":2286,"state_name":"Beirut Governorate","country_id":121},{"active":false,"Giataid":"752811","cityId":null,"cityName":"Batroun","hotelId":752811,"hotelName":"Batroun Village Club","address":"North Lebanon,Batroun 1400,Lebanon","phones":"+9616744333","fax":"","email":"info@batrounvclub.com","url":"http://www.batrounvclub.com","countryIso2":"LB","countryName":"Lebanon","hotelRating":"1","latitude":"34.2617","longitude":"35.6782","state_id":null,"state_name":null,"country_id":null},{"active":false,"Giataid":"758222","cityId":null,"cityName":"Zahl?","hotelId":758222,"hotelName":"La Place Hotel","address":"Zahle Boulevard,Lido Square,Zahl?,Beqaa,Lebanon","phones":"+9618824777","fax":"","email":"","url":"","countryIso2":"LB","countryName":"Lebanon","hotelRating":"1","latitude":"33.8409","longitude":"35.8954","state_id":null,"state_name":null,"country_id":null},{"active":false,"Giataid":"762371","cityId":null,"cityName":"Brummana","hotelId":762371,"hotelName":"Belvedere Hotel","address":"Brummana Main Road,Mrah Ghanem Zone,Brummana,Lebanon","phones":"","fax":"","email":"","url":"","countryIso2":"LB","countryName":"Lebanon","hotelRating":"1","latitude":"33.8819","longitude":"35.6311","state_id":null,"state_name":null,"country_id":null},{"active":false,"Giataid":"796799","cityId":null,"cityName":"Byblos","hotelId":796799,"hotelName":"C Flow Beach Resort","address":"Section 7,Plot 4 Seaside Main Road,Mastita,Byblos 9610,Lebanon","phones":"","fax":"","email":"","url":"","countryIso2":"LB","countryName":"Lebanon","hotelRating":"1","latitude":"34.1146","longitude":"35.6616","state_id":null,"state_name":null,"country_id":null},{"active":false,"Giataid":"796864","cityId":null,"cityName":"Zgharta","hotelId":796864,"hotelName":"Waterland Hotel And Resort","address":"Ardeh Street,Zgharta 1304,Lebanon","phones":"","fax":"","email":"waterland.ardeh@gmail.com","url":"http://www.waterland-lb.com/","countryIso2":"LB","countryName":"Lebanon","hotelRating":"1","latitude":"0","longitude":"0","state_id":null,"state_name":null,"country_id":null},{"active":false,"Giataid":"796870","cityId":65936,"cityName":"Beirut","hotelId":796870,"hotelName":"West House Residence","address":"Souraty,Beirut 1103,Lebanon","phones":"","fax":"","email":"info@westhousehotel.net","url":"http://www.westhousehotel.net","countryIso2":"LB","countryName":"Lebanon","hotelRating":"4","latitude":"33.8911","longitude":"35.5007","state_id":2286,"state_name":"Beirut Governorate","country_id":121},{"active":false,"Giataid":"797645","cityId":53294,"cityName":"Tripoli","hotelId":797645,"hotelName":"Diamond Bay Lebanon","address":"Al-Hraiche Balamand Exit,2038 3054 Tr?blous,Tripoli,Lebanon","phones":"","fax":"","email":"","url":"","countryIso2":"LB","countryName":"Lebanon","hotelRating":"1","latitude":"34.4253","longitude":"35.8274","state_id":2119,"state_name":"Peloponnese Region","country_id":85},{"active":false,"Giataid":"798597","cityId":65952,"cityName":"Sidon","hotelId":798597,"hotelName":"Rmeileh Resort","address":"Rmeileh Sea Road,Facing Municipality,Saida 1600,South Lebanon,Lebanon","phones":"+9617990796","fax":"+9617990795","email":"","url":"http://www.rmeilehresortlb.com","countryIso2":"LB","countryName":"Lebanon","hotelRating":"1","latitude":"33.6121","longitude":"35.3998","state_id":2281,"state_name":"South Governorate","country_id":121},{"active":false,"Giataid":"798617","cityId":null,"cityName":"Byblos","hotelId":798617,"hotelName":"Mawal Annaya","address":"Annaya Main Road,Mawal,Jbeil,Byblos 4423,Lebanon","phones":"","fax":"","email":"contact@mawalannaya.com","url":"http://www.booking.com/hotel/lb/mawal-annaya.en-gb.html?aid=357026","countryIso2":"LB","countryName":"Lebanon","hotelRating":"1","latitude":"34.1146","longitude":"35.6616","state_id":null,"state_name":null,"country_id":null},{"active":false,"Giataid":"811960","cityId":65936,"cityName":"Beirut","hotelId":811960,"hotelName":"Al Jawhara Suites","address":"Hamra,Beirut,Lebanon","phones":"+9611345334","fax":"","email":"reservation@aljawharasuites.com","url":"http://aljawharasuites.com","countryIso2":"LB","countryName":"Lebanon","hotelRating":"1","latitude":"33.8911","longitude":"35.5007","state_id":2286,"state_name":"Beirut Governorate","country_id":121},{"active":false,"Giataid":"811969","cityId":null,"cityName":"Barouk","hotelId":811969,"hotelName":"Palais Des Cedres","address":"Arz El Barouk Road,Barouk,Lebanon","phones":"+9615241100","fax":"","email":"reservations@palaisdescedres.com","url":"http://www.palaisdescedres.com/","countryIso2":"LB","countryName":"Lebanon","hotelRating":"1","latitude":"33.7074","longitude":"35.6912","state_id":null,"state_name":null,"country_id":null},{"active":false,"Giataid":"816391","cityId":null,"cityName":"Byblos","hotelId":816391,"hotelName":"St Nohra Dorms","address":"Street Mosfeye,Lau Highway,Jbeil Next To St Nohra Church,Alayn,Byblos 1401,Lebanon","phones":"","fax":"","email":"","url":"","countryIso2":"LB","countryName":"Lebanon","hotelRating":"1","latitude":"34.1146","longitude":"35.6616","state_id":null,"state_name":null,"country_id":null},{"active":false,"Giataid":"816437","cityId":53294,"cityName":"Tripoli","hotelId":816437,"hotelName":"Haddad Hotel","address":"Tell Square,Near Fahim Coffee,Trablous 9616,Lebanon","phones":"","fax":"","email":"","url":"","countryIso2":"LB","countryName":"Lebanon","hotelRating":"1","latitude":"34.4253","longitude":"35.8274","state_id":2119,"state_name":"Peloponnese Region","country_id":85},{"active":false,"Giataid":"816484","cityId":65936,"cityName":"Beirut","hotelId":816484,"hotelName":"Lancaster Eden Bay","address":"Ramlet El Bayda,Beirut,Lebanon","phones":"+9611820870","fax":"","email":"info@lancasteredenbay.com","url":"http://www.lancasteredenbay.com/","countryIso2":"LB","countryName":"Lebanon","hotelRating":"1","latitude":"33.8911","longitude":"35.5007","state_id":2286,"state_name":"Beirut Governorate","country_id":121},{"active":false,"Giataid":"817323","cityId":null,"cityName":"Barouk","hotelId":817323,"hotelName":"Tourist Motel","address":"Barouk Road,Barouk Cider Reserve,Al Baruk,Lebanon","phones":"","fax":"","email":"","url":"","countryIso2":"LB","countryName":"Lebanon","hotelRating":"1","latitude":"33.7562","longitude":"35.7197","state_id":null,"state_name":null,"country_id":null},{"active":false,"Giataid":"823960","cityId":65948,"cityName":"Jounieh","hotelId":823960,"hotelName":"Zora Residence","address":"Telefrique Street,Next To The German University,Jounieh,Lebanon","phones":"+9619642035","fax":"+9619642037","email":"omar@zora.im","url":"http://www.zora-lb.com","countryIso2":"LB","countryName":"Lebanon","hotelRating":"1","latitude":"33.9979","longitude":"35.6423","state_id":2282,"state_name":"Mount Lebanon Governorate","country_id":121},{"active":false,"Giataid":"828593","cityId":null,"cityName":"Jezzine","hotelId":828593,"hotelName":"Bluejay Valley","address":"Azour,Jezz?ne 1234,Lebanon","phones":"","fax":"","email":"","url":"","countryIso2":"LB","countryName":"Lebanon","hotelRating":"1","latitude":"33.5486","longitude":"35.5591","state_id":null,"state_name":null,"country_id":null},{"active":false,"Giataid":"828822","cityId":null,"cityName":"Byblos","hotelId":828822,"hotelName":"Byout Ghalboun","address":"Ghalboun Main Street Beit El Dayaa,Jbail,Lebanon","phones":"+9613532756","fax":"","email":"gag@dsgabriel.com","url":"http://www.byoutghalboun.com/","countryIso2":"LB","countryName":"Lebanon","hotelRating":"1","latitude":"34.1146","longitude":"35.6616","state_id":null,"state_name":null,"country_id":null},{"active":false,"Giataid":"828887","cityId":null,"cityName":"Barouk","hotelId":828887,"hotelName":"Barouk Chouf The View","address":"Joub Jannine Road Main Road,Halabi bldg,Barouk 5871,Lebanon","phones":"","fax":"","email":"","url":"https://www.a-hotel.com/lebanol-baruk/1765369-barouk-chouf-the-view/","countryIso2":"LB","countryName":"Lebanon","hotelRating":"1","latitude":"33.7074","longitude":"35.6912","state_id":null,"state_name":null,"country_id":null},{"active":false,"Giataid":"849620","cityId":65948,"cityName":"Jounieh","hotelId":849620,"hotelName":"Bay 183","address":"Jounieh,Beirut,Lebanon","phones":"","fax":"","email":"","url":"","countryIso2":"LB","countryName":"Lebanon","hotelRating":"1","latitude":"33.9979","longitude":"35.6423","state_id":2282,"state_name":"Mount Lebanon Governorate","country_id":121},{"active":false,"Giataid":"849676","cityId":65936,"cityName":"Beirut","hotelId":849676,"hotelName":"Bkerzay","address":"Deir Dourite,Beirut,Mount Lebanon Governorate,Lebanon","phones":"+9613512020","fax":"","email":"info@bkerzay.com","url":"http://www.bkerzay.com","countryIso2":"LB","countryName":"Lebanon","hotelRating":"1","latitude":"33.8911","longitude":"35.5007","state_id":2286,"state_name":"Beirut Governorate","country_id":121},{"active":false,"Giataid":"849693","cityId":65948,"cityName":"Jounieh","hotelId":849693,"hotelName":"Kandiel Furnished Apartments","address":"Pasteur Street,Jounieh,Lebanon","phones":"","fax":"","email":"","url":"","countryIso2":"LB","countryName":"Lebanon","hotelRating":"1","latitude":"33.9979","longitude":"35.6423","state_id":2282,"state_name":"Mount Lebanon Governorate","country_id":121},{"active":false,"Giataid":"849712","cityId":null,"cityName":"Byblos","hotelId":849712,"hotelName":"Maximus Hotel","address":"Blat,Byblos,Lebanon","phones":"","fax":"","email":"","url":"","countryIso2":"LB","countryName":"Lebanon","hotelRating":"1","latitude":"34.1146","longitude":"35.6616","state_id":null,"state_name":null,"country_id":null},{"active":false,"Giataid":"412348","cityId":65936,"cityName":"Beirut","hotelId":10051810,"hotelName":"The Smallville Hotel","address":"Damascus Road,Museum District Badaro,P.O. Box 1165214,Beirut,Lebanon","phones":"+9611619999","fax":"","email":"","url":"","countryIso2":"LB","countryName":"Lebanon","hotelRating":"5","latitude":"33.8775","longitude":"35.5166","state_id":2286,"state_name":"Beirut Governorate","country_id":121},{"active":false,"Giataid":"455808","cityId":65936,"cityName":"Beirut","hotelId":10053613,"hotelName":"Vie Boutique Hotel","address":"Abdullah el Mashnouk Street,Verdun Area,Beirut 2033 2901,Lebanon","phones":"+9611863444","fax":"","email":"","url":"","countryIso2":"LB","countryName":"Lebanon","hotelRating":"4","latitude":"33.8889","longitude":"35.4823","state_id":2286,"state_name":"Beirut Governorate","country_id":121},{"active":false,"Giataid":"405206","cityId":null,"cityName":"Aley","hotelId":10055089,"hotelName":"Golden Tulip Lili's Resort And Spa","address":"Zahhar Street,Abadiyeh,135595 Aley,Lebanon","phones":"+9615564015","fax":"","email":"","url":"","countryIso2":"LB","countryName":"Lebanon","hotelRating":"4","latitude":"33.8101","longitude":"35.5974","state_id":null,"state_name":null,"country_id":null},{"active":false,"Giataid":"424691","cityId":65948,"cityName":"Jounieh","hotelId":10060083,"hotelName":"Al Murjan Palace Hotel","address":"Haret Sakhr,Near Pasteur Hospital,Jounieh,Lebanon","phones":"+9619832199","fax":"","email":"","url":"","countryIso2":"LB","countryName":"Lebanon","hotelRating":"4","latitude":"33.9911","longitude":"35.6413","state_id":2282,"state_name":"Mount Lebanon Governorate","country_id":121},{"active":false,"Giataid":"424218","cityId":null,"cityName":"Kaslik","hotelId":10065244,"hotelName":"Veer Boutique Hotel & Resort","address":"PO Box 90-1185,Kaslik,Zouk Mikael,Lebanon","phones":"+9619222623","fax":"","email":"","url":"","countryIso2":"LB","countryName":"Lebanon","hotelRating":"4","latitude":"33.9756","longitude":"35.6107","state_id":null,"state_name":null,"country_id":null},{"active":false,"Giataid":"496550","cityId":null,"cityName":"Ehden","hotelId":10073554,"hotelName":"Le Tournant Hotel & Resort","address":"Serhel,El Koura Highway,Ehden,Lebanon","phones":"+9616995400","fax":"","email":"","url":"","countryIso2":"LB","countryName":"Lebanon","hotelRating":"4","latitude":"34.2931","longitude":"35.9197","state_id":null,"state_name":null,"country_id":null},{"active":false,"Giataid":"452439","cityId":null,"cityName":"Byblos","hotelId":10073928,"hotelName":"Aleph Boutique Hotel","address":"Kordahi Center,Jbeil,Byblos 1200,Lebanon","phones":"961-9-945333","fax":"961-9-543973","email":"info@alephboutiquehotel.com","url":"http://www.alephboutiquehotel.com","countryIso2":"LB","countryName":"Lebanon","hotelRating":"3","latitude":"34.1192","longitude":"35.6491","state_id":null,"state_name":null,"country_id":null},{"active":false,"Giataid":"417811","cityId":65936,"cityName":"Beirut","hotelId":10076456,"hotelName":"Saifi Suites","address":"Maroun Naccache Avenue,Saifi,Beirut,Lebanon","phones":"961-1-566567","fax":"961-1-566569","email":"rolana.habchy@saifisuites.com","url":"NULL","countryIso2":"LB","countryName":"Lebanon","hotelRating":"4","latitude":"33.8946","longitude":"35.5099","state_id":2286,"state_name":"Beirut Governorate","country_id":121},{"active":false,"Giataid":"472199","cityId":65936,"cityName":"Beirut","hotelId":10103256,"hotelName":"Warwick Stone 55 Hotel Beirut","address":"Zalka,Beirut,Lebanon","phones":"+9614723271","fax":"NULL","email":"NULL","url":"NULL","countryIso2":"LB","countryName":"Lebanon","hotelRating":"4","latitude":"33.9037","longitude":"35.574","state_id":2286,"state_name":"Beirut Governorate","country_id":121},{"active":false,"Giataid":"459066","cityId":65936,"cityName":"Beirut","hotelId":10107294,"hotelName":"1866 Court & Suites Hotel","address":"Bliss Street,Hamra,8375 Beirut,Lebanon","phones":"+9611371866","fax":"NULL","email":"NULL","url":"NULL","countryIso2":"LB","countryName":"Lebanon","hotelRating":"5","latitude":"33.8991","longitude":"35.4839","state_id":2286,"state_name":"Beirut Governorate","country_id":121},{"active":false,"Giataid":"206994","cityId":65936,"cityName":"Beirut","hotelId":10114436,"hotelName":"Casa Verde Suites","address":"Dohat Al-Hoss,Beirut,Lebanon","phones":"+9613368082","fax":"NULL","email":"NULL","url":"NULL","countryIso2":"LB","countryName":"Lebanon","hotelRating":"3","latitude":"33.7586","longitude":"35.4614","state_id":2286,"state_name":"Beirut Governorate","country_id":121},{"active":false,"Giataid":"473734","cityId":null,"cityName":"Zahl?","hotelId":20000339,"hotelName":"Hotel St Jean","address":"Down Town - Boulevard,Zahle,Lebanon","phones":"+9618815777","fax":"","email":"info@hotelsaintjean-lb.com","url":"http://www.hotelsaintjean-lb.com/","countryIso2":"LB","countryName":"Lebanon","hotelRating":"0","latitude":"33.8493","longitude":"35.8977","state_id":null,"state_name":null,"country_id":null},{"active":false,"Giataid":"466642","cityId":null,"cityName":"Byblos","hotelId":20000478,"hotelName":"L'Hotel De Mon Pere","address":"Kartaboun,Byblos,Lebanon","phones":"","fax":"","email":"","url":"http://www.lhoteldemonpere.com/","countryIso2":"LB","countryName":"Lebanon","hotelRating":"3","latitude":"34.1095","longitude":"35.658","state_id":null,"state_name":null,"country_id":null},{"active":false,"Giataid":"645552","cityId":null,"cityName":"Batroun","hotelId":20000534,"hotelName":"Aqualand Hotel & Resort","address":"Sea Side Road,Batro?n 1400,Lebanon","phones":"","fax":"","email":"","url":"http://www.aqualandlb.com/","countryIso2":"LB","countryName":"Lebanon","hotelRating":"0","latitude":"34.2523","longitude":"35.6593","state_id":null,"state_name":null,"country_id":null},{"active":false,"Giataid":"298683","cityId":null,"cityName":"Barouk","hotelId":20000577,"hotelName":"Barouk Palace","address":"Main Road,Barouk,Lebanon","phones":"+9615240251","fax":"+9615240253","email":"info@baroukpalace.com","url":"http://www.baroukpalace.com/","countryIso2":"LB","countryName":"Lebanon","hotelRating":"3","latitude":"33.7122","longitude":"35.6901","state_id":null,"state_name":null,"country_id":null},{"active":false,"Giataid":"526373","cityId":65937,"cityName":"Bhamdoun","hotelId":20000607,"hotelName":"Le Telegraphe de Belle Vue","address":"Main road,Bhamdoun,Lebanon","phones":"","fax":"","email":"s.haddad@letelegraphedebelle-vue.com","url":"http://www.chateaubelle-vue.com","countryIso2":"LB","countryName":"Lebanon","hotelRating":"0","latitude":"33.798","longitude":"35.6613","state_id":2282,"state_name":"Mount Lebanon Governorate","country_id":121},{"active":false,"Giataid":"466807","cityId":65937,"cityName":"Bhamdoun","hotelId":20000643,"hotelName":"Carlton Bhamdoun Hotel","address":"Carlton Bhamdoun Al Mahatta,1501 Bhamdoun,Lebanon","phones":"","fax":"","email":"","url":"","countryIso2":"LB","countryName":"Lebanon","hotelRating":"3","latitude":"33.8259","longitude":"35.649","state_id":2282,"state_name":"Mount Lebanon Governorate","country_id":121},{"active":false,"Giataid":"295396","cityId":null,"cityName":"Batroun","hotelId":20000764,"hotelName":"Sawary Resort & Hotel","address":"Coastal Road,Batroun Town,Batroun,Lebanon","phones":"+9616642100","fax":"+9616642100","email":"info@sawaryresort.com","url":"http://www.sawaryresort.com/","countryIso2":"LB","countryName":"Lebanon","hotelRating":"0","latitude":"34.2523","longitude":"35.6593","state_id":null,"state_name":null,"country_id":null},{"active":false,"Giataid":"466838","cityId":null,"cityName":"Byblos","hotelId":20000823,"hotelName":"Al Mayadine Hotel","address":"Jbeil-Innaya,Annaya,Byblos,Lebanon","phones":"+9619760333","fax":"","email":"info@mayadinehotel.com","url":"http://www.mayadinehotel.com","countryIso2":"LB","countryName":"Lebanon","hotelRating":"3","latitude":"34.1182","longitude":"35.7569","state_id":null,"state_name":null,"country_id":null},{"active":false,"Giataid":"645518","cityId":null,"cityName":"Byblos","hotelId":20001243,"hotelName":"La Bonita Hotel","address":"Byblos,Jbeil 1401,Lebanon","phones":"","fax":"","email":"","url":"","countryIso2":"LB","countryName":"Lebanon","hotelRating":"0","latitude":"34.1146","longitude":"35.6616","state_id":null,"state_name":null,"country_id":null},{"active":false,"Giataid":"675086","cityId":null,"cityName":"Byblos","hotelId":20001398,"hotelName":"Ocean Blue Beach Resort","address":"Mastit Jbeil,Mont Liban,Byblos,Lebanon","phones":"+9619796046","fax":"+9619796046","email":"info@oceanbluebyblos.com","url":"http://www.oceanbluebyblos.com/","countryIso2":"LB","countryName":"Lebanon","hotelRating":"0","latitude":"34.1057","longitude":"35.6512","state_id":null,"state_name":null,"country_id":null},{"active":false,"Giataid":"675463","cityId":null,"cityName":"Al Arz","hotelId":20001567,"hotelName":"Chez Alain","address":"Arez Bcharre,Al Arz 1377,Lebanon","phones":"","fax":"","email":"","url":"","countryIso2":"LB","countryName":"Lebanon","hotelRating":"0","latitude":"34.2488","longitude":"36.0485","state_id":null,"state_name":null,"country_id":null},{"active":false,"Giataid":"724715","cityId":null,"cityName":"Byblos","hotelId":20001771,"hotelName":"Whitelace Hotel Resort & Spa","address":"Halat Seaside,Byblos 1401,Halat,Lebanon","phones":"+9619478444","fax":"+9619478444","email":"info@whitelaceresort.com","url":"http://www.whitelaceresort.com","countryIso2":"LB","countryName":"Lebanon","hotelRating":"0","latitude":"34.0908","longitude":"35.6496","state_id":null,"state_name":null,"country_id":null},{"active":false,"Giataid":"221415","cityId":65948,"cityName":"Jounieh","hotelId":20002639,"hotelName":"Bzommar Palace Hotel","address":"Bzommar Main Road,Harisa,Jounieh,Lebanon","phones":"+9619261800","fax":"+9619261805","email":"info@bzommar.com","url":"http://www.bzommar.com/","countryIso2":"LB","countryName":"Lebanon","hotelRating":"4","latitude":"33.988","longitude":"35.6803","state_id":2282,"state_name":"Mount Lebanon Governorate","country_id":121},{"active":false,"Giataid":"27483","cityId":65948,"cityName":"Jounieh","hotelId":20002843,"hotelName":"Mercure Beverly Beach","address":"Maameltein,Coastal Road,Jounieh,Lebanon","phones":"","fax":"","email":"","url":"","countryIso2":"LB","countryName":"Lebanon","hotelRating":"4","latitude":"33.9979","longitude":"35.6423","state_id":2282,"state_name":"Mount Lebanon Governorate","country_id":121},{"active":false,"Giataid":"541334","cityId":65936,"cityName":"Beirut","hotelId":20003073,"hotelName":"Urban Central Suites Beirut","address":"Nefaa Street,Dekwaneh,Beirut  0961,Lebanon","phones":"+9611488927","fax":"","email":"","url":"http://urbancentralsuites.com/","countryIso2":"LB","countryName":"Lebanon","hotelRating":"4","latitude":"33.88","longitude":"35.5442","state_id":2286,"state_name":"Beirut Governorate","country_id":121},