[{"active":false,"Giataid":"244318","cityId":102957,"cityName":"Khartoum","hotelId":244318,"hotelName":"Corinthia Hotel Khartum","address":"Nile Road,P.O.Box 11042,Khartoum,Sudan","phones":"+249187155555","fax":"+249187155666","email":"reservations.khartoum@corinthia.com","url":"http://www.corinthia.com/Khartoum/home/","countryIso2":"SD","countryName":"Sudan","hotelRating":"5","latitude":"15.6063","longitude":"32.5136","state_id":881,"state_name":"Khartoum","country_id":209},{"active":false,"Giataid":"354504","cityId":102957,"cityName":"Khartoum","hotelId":354504,"hotelName":"5m Hotel","address":"55th avenue east,5M building,Khartoum,Sudan","phones":"+249183460438","fax":"","email":"","url":"","countryIso2":"SD","countryName":"Sudan","hotelRating":"3","latitude":"15.5881","longitude":"32.532","state_id":881,"state_name":"Khartoum","country_id":209},{"active":false,"Giataid":"370698","cityId":102968,"cityName":"Port Sudan","hotelId":370698,"hotelName":"Baasher Hotel","address":"","phones":"","fax":"","email":"","url":"","countryIso2":"SD","countryName":"Sudan","hotelRating":"1","latitude":"19.6146","longitude":"37.2205","state_id":880,"state_name":"Red Sea","country_id":209},{"active":false,"Giataid":"370699","cityId":102957,"cityName":"Khartoum","hotelId":370699,"hotelName":"Al Ferdous Hotel","address":"","phones":"","fax":"","email":"","url":"","countryIso2":"SD","countryName":"Sudan","hotelRating":"1","latitude":"15.593","longitude":"32.5278","state_id":881,"state_name":"Khartoum","country_id":209},{"active":false,"Giataid":"370700","cityId":102957,"cityName":"Khartoum","hotelId":370700,"hotelName":"Dandas Hotel","address":"","phones":"","fax":"","email":"","url":"","countryIso2":"SD","countryName":"Sudan","hotelRating":"1","latitude":"15.593","longitude":"32.5278","state_id":881,"state_name":"Khartoum","country_id":209},{"active":false,"Giataid":"370703","cityId":102957,"cityName":"Khartoum","hotelId":370703,"hotelName":"Sharga Hotel","address":"","phones":"","fax":"","email":"","url":"","countryIso2":"SD","countryName":"Sudan","hotelRating":"1","latitude":"15.593","longitude":"32.5278","state_id":881,"state_name":"Khartoum","country_id":209},{"active":false,"Giataid":"370701","cityId":102957,"cityName":"Khartoum","hotelId":370701,"hotelName":"Dawha Hotel","address":"","phones":"","fax":"","email":"","url":"","countryIso2":"SD","countryName":"Sudan","hotelRating":"1","latitude":"15.593","longitude":"32.5278","state_id":881,"state_name":"Khartoum","country_id":209},{"active":false,"Giataid":"370702","cityId":102957,"cityName":"Khartoum","hotelId":370702,"hotelName":"Rosa Park Hotel","address":"","phones":"","fax":"","email":"","url":"","countryIso2":"SD","countryName":"Sudan","hotelRating":"4","latitude":"15.593","longitude":"32.5278","state_id":881,"state_name":"Khartoum","country_id":209},{"active":false,"Giataid":"370704","cityId":102957,"cityName":"Khartoum","hotelId":370704,"hotelName":"Taka Hotel","address":"","phones":"","fax":"","email":"","url":"","countryIso2":"SD","countryName":"Sudan","hotelRating":"1","latitude":"15.593","longitude":"32.5278","state_id":881,"state_name":"Khartoum","country_id":209},{"active":false,"Giataid":"554856","cityId":102957,"cityName":"Khartoum","hotelId":20001247,"hotelName":"EWA Khartoum Hotel & Apartments","address":"Nile avenue,Khartoum,P.O. Box: 3113,Sudan","phones":"+249156558888","fax":"+249156558887","email":"","url":"https://www.hmhhotelgroup.com/ewa/sudan/khartoum/ewakhartoum","countryIso2":"SD","countryName":"Sudan","hotelRating":"4","latitude":"15.593","longitude":"32.5278","state_id":881,"state_name":"Khartoum","country_id":209},{"active":false,"Giataid":"429737","cityId":102957,"cityName":"Khartoum","hotelId":20001397,"hotelName":"Assaha Resort Sudan","address":"Africa Street,near Canadian Embassy,Khartoum,Sudan","phones":"+249183481919","fax":"","email":"assaha.sud@assahavillage.com","url":"http://assahavillage.com/Restaurants/6/Sudan","countryIso2":"SD","countryName":"Sudan","hotelRating":"0","latitude":"15.5642","longitude":"32.5526","state_id":881,"state_name":"Khartoum","country_id":209},{"active":false,"Giataid":"289724","cityId":102957,"cityName":"Khartoum","hotelId":20001800,"hotelName":"Regency","address":"Qasr Street,PoBox 1716,Khartoum,Sudan","phones":"+249183775971","fax":"+249183779087","email":"info@khartoumregencyhotel.com","url":"http://khartoumregencyhotel.com/","countryIso2":"SD","countryName":"Sudan","hotelRating":"0","latitude":"15.593","longitude":"32.5278","state_id":881,"state_name":"Khartoum","country_id":209},{"active":false,"Giataid":"664254","cityId":102957,"cityName":"Khartoum","hotelId":20001979,"hotelName":"Myki Residency Sudan","address":"29th Street,Khartoum,Sudan","phones":"+249183566470","fax":"","email":"info@mykiresidency.com","url":"http://www.mykiresidency.com","countryIso2":"SD","countryName":"Sudan","hotelRating":"0","latitude":"15.593","longitude":"32.5278","state_id":881,"state_name":"Khartoum","country_id":209},{"active":false,"Giataid":"296885","cityId":102957,"cityName":"Khartoum","hotelId":20002175,"hotelName":"Grand Holiday Villa","address":"Nile Avenue,P.O.Box 316,Khartoum,Sudan","phones":"+249183774039","fax":"+249183773961","email":"reservation@holidayvillakhartoum.com","url":"http://www.holidayvillakhartoum.com/","countryIso2":"SD","countryName":"Sudan","hotelRating":"4","latitude":"15.6077","longitude":"32.516","state_id":881,"state_name":"Khartoum","country_id":209},{"active":false,"Giataid":"664252","cityId":102957,"cityName":"Khartoum","hotelId":20002405,"hotelName":"Horizon Hotel Sudan","address":"P.O. Box 12646,Souk al-Arabi,Seeniath Gandool,Khartum,Sudan","phones":"+249991443355","fax":"","email":"info@horizonsudan.com","url":"http://www.horizonsudan.com","countryIso2":"SD","countryName":"Sudan","hotelRating":"0","latitude":"15.593","longitude":"32.5278","state_id":881,"state_name":"Khartoum","country_id":209}]