[{"active":false,"Giataid":"10144","cityId":null,"cityName":"Castaway Island","hotelId":10144,"hotelName":"Castaway Island Resort","address":"Private Mailbag,Nadi Airport,Fiji Islands,Fiji","phones":"+6796661233","fax":"+6796665753","email":"enquiries@castawayfiji.com.fj","url":"http://www.castawayfiji.com/","countryIso2":"FJ","countryName":"Fiji","hotelRating":"4","latitude":"-17.7337","longitude":"177.128","state_id":null,"state_name":null,"country_id":null},{"active":false,"Giataid":"13959","cityId":null,"cityName":"Sigatoka","hotelId":13959,"hotelName":"Fiji Hideaway Resort & Spa Coral Coast","address":"Queens Road,Sigatoka,Viti Levu,Fiji","phones":"+6796500177","fax":"+6796520025","email":"reservations@hideaway.com.fj","url":"http://www.hideawayfiji.com/","countryIso2":"FJ","countryName":"Fiji","hotelRating":"3","latitude":"-18.1964","longitude":"177.651","state_id":null,"state_name":null,"country_id":null},{"active":false,"Giataid":"21475","cityId":null,"cityName":"Sigatoka","hotelId":21475,"hotelName":"Shangri-La's Fijian Resort & Spa","address":"Sigatoka,Yanuca Island,Coral Coast,Viti Levu,Fiji Islands,Fiji","phones":"+6796520155","fax":"+6796500402","email":"fij@shangri-la.com","url":"http://www.shangri-la.com/yanucaisland/fijianresort","countryIso2":"FJ","countryName":"Fiji","hotelRating":"4","latitude":"-18.14","longitude":"177.42","state_id":null,"state_name":null,"country_id":null},{"active":false,"Giataid":"21475","cityId":null,"cityName":"Yanuca Island","hotelId":21475,"hotelName":"Shangri-La's Fijian Resort & Spa","address":"Sigatoka,Yanuca Island,Coral Coast,Viti Levu,Fiji Islands,Fiji","phones":"+6796520155","fax":"+6796500402","email":"fij@shangri-la.com","url":"http://www.shangri-la.com/yanucaisland/fijianresort","countryIso2":"FJ","countryName":"Fiji","hotelRating":"4","latitude":"-18.14","longitude":"177.42","state_id":null,"state_name":null,"country_id":null},{"active":false,"Giataid":"21521","cityId":null,"cityName":"Denerau","hotelId":21521,"hotelName":"Sheraton Fiji Resort","address":"Denarau Island South,Denarau Island,P.O. Box 9081,Nadi,Western Division,Fiji","phones":"+6796750777","fax":"+6796750818","email":"sheraton.fiji@sheraton.com","url":"http://www.starwoodhotels.com/sheraton/property/overview/index.html?propertyID=485","countryIso2":"FJ","countryName":"Fiji","hotelRating":"5","latitude":"-17.7735","longitude":"177.367","state_id":null,"state_name":null,"country_id":null},{"active":false,"Giataid":"21521","cityId":39144,"cityName":"Nadi","hotelId":21521,"hotelName":"Sheraton Fiji Resort","address":"Denarau Island South,Denarau Island,P.O. Box 9081,Nadi,Western Division,Fiji","phones":"+6796750777","fax":"+6796750818","email":"sheraton.fiji@sheraton.com","url":"http://www.starwoodhotels.com/sheraton/property/overview/index.html?propertyID=485","countryIso2":"FJ","countryName":"Fiji","hotelRating":"5","latitude":"-17.7735","longitude":"177.367","state_id":1923,"state_name":"Western Division","country_id":73},{"active":false,"Giataid":"21577","cityId":39144,"cityName":"Nadi","hotelId":21577,"hotelName":"The Westin Denarau Island Resort & Spa, Fiji","address":"PO Box 9081,Nadi,Denarau Island North,Fiji","phones":"+6796750000","fax":"+6796750259","email":"westin.fiji@westin.com","url":"http://www.starwoodhotels.com/westin/property/overview/index.html?propertyID=202","countryIso2":"FJ","countryName":"Fiji","hotelRating":"5","latitude":"-17.7702","longitude":"177.37","state_id":1923,"state_name":"Western Division","country_id":73},{"active":false,"Giataid":"21914","cityId":39144,"cityName":"Nadi","hotelId":21914,"hotelName":"Doubletree Resort By Hilton Hotel Fiji - Sonaisali Island","address":"Naisali Island,Sonaisali,Viti Levu,Fiji","phones":"+6796706011","fax":"+6796706092","email":"enquiries@sonaisalibookings.com","url":"http://www.sonaisali.com","countryIso2":"FJ","countryName":"Fiji","hotelRating":"4","latitude":"-17.8307","longitude":"177.356","state_id":1923,"state_name":"Western Division","country_id":73},{"active":false,"Giataid":"23311","cityId":127790,"cityName":"Treasure Island","hotelId":23311,"hotelName":"Treasure Island Resort","address":"Treasure Island,Mamanuca Islands,Fiji","phones":"+6796660380","fax":"+6796663977","email":"treasureisland@connect.com.fj","url":"http://www.treasureisland-fiji.com/","countryIso2":"FJ","countryName":"Fiji","hotelRating":"3","latitude":"-17.6552","longitude":"177.267","state_id":1436,"state_name":"Florida","country_id":233},{"active":false,"Giataid":"23598","cityId":null,"cityName":"Vatulele Island","hotelId":23598,"hotelName":"Vatulele Island Resort","address":"Vatulele Island,Fiji","phones":"+6796720300","fax":"","email":"reservations@vatulele.com","url":"http://www.vatulele.com","countryIso2":"FJ","countryName":"Fiji","hotelRating":"5","latitude":"-18.5171","longitude":"177.628","state_id":null,"state_name":null,"country_id":null},{"active":false,"Giataid":"27185","cityId":null,"cityName":"Coral Coast","hotelId":27185,"hotelName":"The Warwick Fiji Resort & Spa","address":"Queen's Road,PO Box 100,Korolevu,Viti Levu,Fiji,Fiji","phones":"+6796530555","fax":"+6796530010","email":"info.fiji@warwickhotels.com","url":"http://warwickfijihotel.com/","countryIso2":"FJ","countryName":"Fiji","hotelRating":"5","latitude":"-18.2198","longitude":"177.736","state_id":null,"state_name":null,"country_id":null},{"active":false,"Giataid":"27183","cityId":39144,"cityName":"Nadi","hotelId":27183,"hotelName":"Sheraton Denarau Villas","address":"Denarau Island West,P.O. Box: 9081,Nadi,Fiji","phones":"+6796750777","fax":"+6796750818","email":"sheraton.denarauvillas@sheraton.com","url":"http://www.starwoodhotels.com/sheraton/property/overview/index.html?propertyID=1158","countryIso2":"FJ","countryName":"Fiji","hotelRating":"5","latitude":"-17.7723","longitude":"177.368","state_id":1923,"state_name":"Western Division","country_id":73},{"active":false,"Giataid":"27184","cityId":null,"cityName":"Sigatoka","hotelId":27184,"hotelName":"Outrigger Fiji Beach Resort","address":"P.O. Box 173,Sigatoka,Viti Levu Island,Fiji,Nadroga-Navosa,Fiji","phones":"+6796500044","fax":"+6796520674","email":"reservations@outriggerfiji.com.fj","url":"http://www.outrigger.com/hotels-resorts/fiji/outrigger-on-the-lagoon-fiji","countryIso2":"FJ","countryName":"Fiji","hotelRating":"5","latitude":"-18.1785","longitude":"177.553","state_id":null,"state_name":null,"country_id":null},{"active":false,"Giataid":"27186","cityId":39144,"cityName":"Nadi","hotelId":27186,"hotelName":"Novotel Nadi","address":"Votualevu Road,Namaka Hill,P O Box 11133,Nadi Airport,Fiji","phones":"+6796722000","fax":"+6796720324","email":"reservations@novotelnadi.com.fj","url":"http://www.novotel.com/novotel/fichehotel/de/nov/6287/fiche_hotel.shtml","countryIso2":"FJ","countryName":"Fiji","hotelRating":"4","latitude":"-17.766","longitude":"177.463","state_id":1923,"state_name":"Western Division","country_id":73},{"active":false,"Giataid":"27187","cityId":null,"cityName":"Vomo Island","hotelId":27187,"hotelName":"Vomo Island Resort","address":"26 Nasoki Street,Vomo Island,Lautoka,Fiji Islands,PO Box 5650,Fiji","phones":"+6796667955","fax":"+6796724334","email":"","url":"http://www.vomofijiisland.com/","countryIso2":"FJ","countryName":"Fiji","hotelRating":"5","latitude":"-17.4894","longitude":"177.266","state_id":null,"state_name":null,"country_id":null},{"active":false,"Giataid":"27188","cityId":null,"cityName":"Matamanoa Island","hotelId":27188,"hotelName":"Matamanoa Island Resort - adults only","address":"Matamanoa Island Resort,19 Miles West of Nadi International Airport,Matamanoa Island,Central Division,Mamanuca Islands,Fiji","phones":"+6796723620","fax":"+6796720282","email":"reservations@matamanoa.com","url":"http://www.matamanoa.com","countryIso2":"FJ","countryName":"Fiji","hotelRating":"4","latitude":"-17.6395","longitude":"177.067","state_id":null,"state_name":null,"country_id":null},{"active":false,"Giataid":"27189","cityId":null,"cityName":"Malolo Island","hotelId":27189,"hotelName":"Malolo Island Resort","address":"Mamanucas,Insel Malolo,Fiji,Fiji","phones":"+6796669192","fax":"+6796724299","email":"enquiries@ahuraresorts.com","url":"http://www.maloloisland.com/how-to-get-to-us.cfm?nav_section=0","countryIso2":"FJ","countryName":"Fiji","hotelRating":"4","latitude":"-17.7434","longitude":"177.147","state_id":null,"state_name":null,"country_id":null},{"active":false,"Giataid":"30788","cityId":39144,"cityName":"Nadi","hotelId":30788,"hotelName":"Mercure Nadi","address":"Queens Road,Nadi Airport,Nadi,Fiji","phones":"+6796722255","fax":"+6796720187","email":"reservations@mercurenadi.com.fj","url":"http://www.accorhotels.com.au/Mercure-Nadi/default_en.aspx","countryIso2":"FJ","countryName":"Fiji","hotelRating":"3","latitude":"-17.7779","longitude":"177.432","state_id":1923,"state_name":"Western Division","country_id":73},{"active":false,"Giataid":"30793","cityId":null,"cityName":"Tokoriki Island","hotelId":30793,"hotelName":"Tokoriki Island Resort","address":"Tokotiki Island,Fiji","phones":"+6796725926","fax":"","email":"info@tokoriki.com","url":"http://www.tokoriki.com","countryIso2":"FJ","countryName":"Fiji","hotelRating":"4","latitude":"-17.5761","longitude":"177.088","state_id":null,"state_name":null,"country_id":null},{"active":false,"Giataid":"31754","cityId":39144,"cityName":"Nadi","hotelId":31754,"hotelName":"Tanoa International Hotel","address":"Votualevu Road,Namaka,Nadi,Fiji","phones":"+6796720277","fax":"+6796720191","email":"","url":"http://www.tanoainternational.com","countryIso2":"FJ","countryName":"Fiji","hotelRating":"4","latitude":"-17.7617","longitude":"177.465","state_id":1923,"state_name":"Western Division","country_id":73},{"active":false,"Giataid":"32435","cityId":null,"cityName":"Malolo Lailai","hotelId":32435,"hotelName":"Plantation Island Resort","address":"Malolo Lailai,Mamanuca Islands,Fiji,Fiji","phones":"+6796722444","fax":"+6796669423","email":"reserve@plantationisland.com","url":"http://www.plantationisland.com","countryIso2":"FJ","countryName":"Fiji","hotelRating":"3","latitude":"-17.7764","longitude":"177.19","state_id":null,"state_name":null,"country_id":null},{"active":false,"Giataid":"36778","cityId":null,"cityName":"Coral Coast","hotelId":36778,"hotelName":"Crusoe's Retreat","address":"Man Friday Road,Off Queens Highway,Korolevu,Coral Coast,Viti Leveu,Fiji","phones":"+6796520185","fax":"+6796520666","email":"reservations@crusoesretreat.com","url":"http://www.fiji-hotels.com.fj/Crusoes_Retreat__Coral_Coast__Fiji","countryIso2":"FJ","countryName":"Fiji","hotelRating":"3","latitude":"-18.2516","longitude":"177.83","state_id":null,"state_name":null,"country_id":null},{"active":false,"Giataid":"36779","cityId":null,"cityName":"Sigatoka","hotelId":36779,"hotelName":"Tambua Sands","address":"Queen's Highway,Coral Coast,Sigatoka,Viti Levu,Fiji","phones":"+6796500399","fax":"+6796520265","email":"info@tambuasandsfiji.com","url":"http://www.tambuasandsfiji.com/comments.html","countryIso2":"FJ","countryName":"Fiji","hotelRating":"3","latitude":"-18.1407","longitude":"177.507","state_id":null,"state_name":null,"country_id":null},{"active":false,"Giataid":"38025","cityId":null,"cityName":"Yasawa Island","hotelId":38025,"hotelName":"Yasawa Island Resort","address":"Yasawa Island,Fiji","phones":"+6796722266","fax":"+6796724456","email":"enquiries@yasawa.com.fj","url":"http://www.yasawa.com","countryIso2":"FJ","countryName":"Fiji","hotelRating":"5","latitude":"-16.7636","longitude":"177.531","state_id":null,"state_name":null,"country_id":null},{"active":false,"Giataid":"38596","cityId":null,"cityName":"Wakaya Island","hotelId":38596,"hotelName":"Wakaya Club & Spa","address":"Wakaya Island,Fiji","phones":"","fax":"","email":"","url":"","countryIso2":"FJ","countryName":"Fiji","hotelRating":"5","latitude":"-17.5993","longitude":"178.986","state_id":null,"state_name":null,"country_id":null},{"active":false,"Giataid":"129432","cityId":39138,"cityName":"Labasa","hotelId":129432,"hotelName":"Grand Eastern","address":"Gibson cnr Rasawa Street,Lasaba,Fiji,Fiji","phones":"+6793306466","fax":"+6793301470","email":"","url":"http://www.hexagonfiji.com/new/grand_eastern.htm","countryIso2":"FJ","countryName":"Fiji","hotelRating":"3","latitude":"-16.4277","longitude":"179.376","state_id":1921,"state_name":"Northern Division","country_id":73},{"active":false,"Giataid":"129434","cityId":39140,"cityName":"Lautoka","hotelId":129434,"hotelName":"Tanoa Waterfront Hotel","address":"Marine Drive,P.O.Box 4653,Lautoka,Viti Levu,Fiji","phones":"+6796664777","fax":"+6796665870","email":"","url":"http://www.tanoahotels.com/Tanoa-Hotels-Group/Tanoa-Waterfront-Hotel-Fiji-Lautoka_IDL=250_IDT=309_ID=1601_.html","countryIso2":"FJ","countryName":"Fiji","hotelRating":"3","latitude":"-17.6036","longitude":"177.448","state_id":1923,"state_name":"Western Division","country_id":73},{"active":false,"Giataid":"129435","cityId":39140,"cityName":"Lautoka","hotelId":129435,"hotelName":"Anchorage Beach Resort","address":"Vuda Point,Lautoka,Fiji Islands,Fiji","phones":"+6796662099","fax":"+6796665571","email":"anchorage@connect.com.fj","url":"http://anchoragefiji.com","countryIso2":"FJ","countryName":"Fiji","hotelRating":"3","latitude":"-17.6819","longitude":"177.399","state_id":1923,"state_name":"Western Division","country_id":73},{"active":false,"Giataid":"129436","cityId":39144,"cityName":"Nadi","hotelId":129436,"hotelName":"Aquarius","address":"17 Wasawasa Road,Wailoaloa Beach,Nadi,Fiji","phones":"+6796726000","fax":"","email":"","url":"","countryIso2":"FJ","countryName":"Fiji","hotelRating":"3","latitude":"-17.7648","longitude":"177.428","state_id":1923,"state_name":"Western Division","country_id":73},{"active":false,"Giataid":"129437","cityId":39144,"cityName":"Nadi","hotelId":129437,"hotelName":"The Terraces Apartment Resort","address":"Denarau Island,Nadi Airport,Po Box 9520,Nadi,Fiji","phones":"+6796750557","fax":"","email":"sales@theterraces.com.fj","url":"http://www.theterraces.com.fj/","countryIso2":"FJ","countryName":"Fiji","hotelRating":"4","latitude":"-17.774","longitude":"177.38","state_id":1923,"state_name":"Western Division","country_id":73},{"active":false,"Giataid":"129438","cityId":39144,"cityName":"Nadi","hotelId":129438,"hotelName":"Club Fiji Resort","address":"Nadi Airport,Fiji","phones":"+6796720150","fax":"+6796702324","email":"reservations@clubfiji-resort.com","url":"http://www.clubfiji-resort.com/","countryIso2":"FJ","countryName":"Fiji","hotelRating":"3","latitude":"-17.7729","longitude":"177.412","state_id":1923,"state_name":"Western Division","country_id":73},{"active":false,"Giataid":"129439","cityId":39144,"cityName":"Nadi","hotelId":129439,"hotelName":"Grand Melanesian Hotel","address":"Namaka Lane,Main Street,679 Nadi,Fiji","phones":"+6796722438","fax":"+6793301470","email":"agentmelhotl@connect.com.fj","url":"http://www.facebook.com/pages/Grand-Melanesian-Hotel/133206970068148?sk=info","countryIso2":"FJ","countryName":"Fiji","hotelRating":"2","latitude":"-17.7617","longitude":"177.448","state_id":1923,"state_name":"Western Division","country_id":73},{"active":false,"Giataid":"129440","cityId":39144,"cityName":"Nadi","hotelId":129440,"hotelName":"Fiji Gateway","address":"PO Box 9891,Nadi Airport,Fiji","phones":"+6796734755","fax":"+6796720620","email":"","url":"http://www.rafflesgateway.com/","countryIso2":"FJ","countryName":"Fiji","hotelRating":"3","latitude":"-17.7527","longitude":"177.455","state_id":1923,"state_name":"Western Division","country_id":73},{"active":false,"Giataid":"129441","cityId":39144,"cityName":"Nadi","hotelId":129441,"hotelName":"Grand West's Villas","address":"Newtown Road,Wailoaloa Beach,Po Box 266,Nadi Bay,Fiji","phones":"+6796724833","fax":"+6796725015","email":"","url":"http://book.bestwestern.com/bestwestern/FJ/Nadi-hotels/BEST-WESTERN-Grand-West-s-Villas/Hotel-Overview.do?propertyCode=82002","countryIso2":"FJ","countryName":"Fiji","hotelRating":"3","latitude":"-17.7701","longitude":"177.427","state_id":1923,"state_name":"Western Division","country_id":73},{"active":false,"Giataid":"129443","cityId":39144,"cityName":"Nadi","hotelId":129443,"hotelName":"Smugglers Cove","address":"Wailoaloa Beach Road,Wailoaloa Beach,Nadi,Fiji","phones":"+6796726578","fax":"+6796728740","email":"reservations@smugglerscove.com.fj","url":"http://www.smugglersbeachfiji.com/home_page.htm/1","countryIso2":"FJ","countryName":"Fiji","hotelRating":"3","latitude":"-17.7653","longitude":"177.427","state_id":1923,"state_name":"Western Division","country_id":73},{"active":false,"Giataid":"129444","cityId":39144,"cityName":"Nadi","hotelId":129444,"hotelName":"Nadi Bay Resort","address":"Wailoaloa Beach Road,Private Mail Bag NAP 0359,Nadi Airport,Fiji","phones":"+6796723599","fax":"+6796720092","email":"nadibay@connect.com.fj","url":"http://www.fijinadibayhotel.com/index.php?option=com_contact&amp;Itemid=106","countryIso2":"FJ","countryName":"Fiji","hotelRating":"3","latitude":"-17.7803","longitude":"177.429","state_id":1923,"state_name":"Western Division","country_id":73},{"active":false,"Giataid":"129445","cityId":null,"cityName":"Pacific Harbour","hotelId":129445,"hotelName":"Uprising Beach Resort","address":"Beach Road,Pacific Habour,Fiji","phones":"+6793452200","fax":"+6793452059","email":"enquiries@uprisingbeachresort.com","url":"http://www.uprisingbeachresort.com/contact.html","countryIso2":"FJ","countryName":"Fiji","hotelRating":"3","latitude":"-18.2507","longitude":"178.079","state_id":null,"state_name":null,"country_id":null},{"active":false,"Giataid":"129446","cityId":null,"cityName":"Pacific Harbour","hotelId":129446,"hotelName":"The Pearl Resort","address":"Queens Road,Pacific Harbour,Pacific Coast,Fiji","phones":"+6793450022","fax":"+6793450262","email":"stay@thepearlsouthpacific.com","url":"http://www.thepearlsouthpacific.com","countryIso2":"FJ","countryName":"Fiji","hotelRating":"4","latitude":"-18.2551","longitude":"178.069","state_id":null,"state_name":null,"country_id":null},{"active":false,"Giataid":"129447","cityId":null,"cityName":"Korolevu","hotelId":129447,"hotelName":"Wellesley Resort","address":"P.O. Box 104,Korolevu,Coral Coast,Fiji","phones":"+6796030664","fax":"","email":"wellesleyresort@connect.com.fj","url":"http://wellesleyresort.com.fj/","countryIso2":"FJ","countryName":"Fiji","hotelRating":"4","latitude":"-18.253","longitude":"177.835","state_id":null,"state_name":null,"country_id":null},{"active":false,"Giataid":"129448","cityId":null,"cityName":"Coral Coast","hotelId":129448,"hotelName":"Mango Bay Resort","address":"Namatakula Tadrawai,Coral Coast,PO BOX 1720,Sigatoka,Fiji","phones":"+6796530069","fax":"","email":"info@mangobayresortfiji.com","url":"http://www.mangobayresortfiji.com/contact.htm","countryIso2":"FJ","countryName":"Fiji","hotelRating":"2","latitude":"-18.2343","longitude":"177.789","state_id":null,"state_name":null,"country_id":null},{"active":false,"Giataid":"129450","cityId":null,"cityName":"Coral Coast","hotelId":129450,"hotelName":"Bedarra Beach Inn","address":"P.O. Box 1213,Sigatoka,Fiji","phones":"+6796500476","fax":"+6796520116","email":"frontdesk@bedarrafiji.com","url":"http://www.bedarrafiji.com","countryIso2":"FJ","countryName":"Fiji","hotelRating":"3","latitude":"-18.1785","longitude":"177.548","state_id":null,"state_name":null,"country_id":null},{"active":false,"Giataid":"129451","cityId":null,"cityName":"Rakiraki","hotelId":129451,"hotelName":"Safari Island Lodge","address":"Nananu-I-Ra Island,P.O. Box 939,Rakiraki,Fiji","phones":"+6796693332","fax":"+6796693332","email":"","url":"http://www.safarilodge.com.fj","countryIso2":"FJ","countryName":"Fiji","hotelRating":"3","latitude":"-17.2822","longitude":"178.201","state_id":null,"state_name":null,"country_id":null},{"active":false,"Giataid":"129452","cityId":null,"cityName":"Savusavu","hotelId":129452,"hotelName":"Koro Sun Resort","address":"Hibiscus Highway,Private Bag,Savusavu,Fiji","phones":"+6798853247","fax":"+6798850352","email":"merlyn@korosunresort.com","url":"http://www.korosunresort.com","countryIso2":"FJ","countryName":"Fiji","hotelRating":"4","latitude":"-16.7786","longitude":"179.333","state_id":null,"state_name":null,"country_id":null},{"active":false,"Giataid":"129453","cityId":null,"cityName":"Savusavu","hotelId":129453,"hotelName":"Savusavu Hot Springs","address":"Naveria,alternative: PO Box 208 / Vanua Levu Island / Nakama,Savusavu,Fiji","phones":"+6798850195","fax":"+6798850430","email":"res@hotspringsfiji.com","url":"http://www.hotspringsfiji.com","countryIso2":"FJ","countryName":"Fiji","hotelRating":"2","latitude":"-16.7807","longitude":"179.331","state_id":null,"state_name":null,"country_id":null},{"active":false,"Giataid":"129454","cityId":39151,"cityName":"Suva","hotelId":129454,"hotelName":"Capricorn","address":"7 Saint Fort Street,P.O.Box 1261,Suva,Fiji","phones":"+6793303732","fax":"+6793303069","email":"capricornsuva@connect.com.fj","url":"http://www.capricornfiji.com/capricornsuva/suva-home.htm","countryIso2":"FJ","countryName":"Fiji","hotelRating":"2","latitude":"-18.1362","longitude":"178.428","state_id":1929,"state_name":"Central Division","country_id":73},{"active":false,"Giataid":"129455","cityId":39151,"cityName":"Suva","hotelId":129455,"hotelName":"Suva Motor Inn","address":"Corner of Gorrie and Mitchell Street,Suva,Viti Levu,Fiji","phones":"+6796724274","fax":"+6793300381","email":"","url":"http://book.bestwestern.com/bestwestern/productInfo.do?iata=&amp;promoCode=&amp;corpID=&amp;propertyCode=82001","countryIso2":"FJ","countryName":"Fiji","hotelRating":"3","latitude":"-18.1461","longitude":"178.427","state_id":1929,"state_name":"Central Division","country_id":73},{"active":false,"Giataid":"129458","cityId":null,"cityName":"Tokoriki Island","hotelId":129458,"hotelName":"Amunuca Island","address":"P.O. Box 10656,Nadi Airport,Nadi,Fiji Islands,Fiji","phones":"+6796640640","fax":"+6796640641","email":"reservations@amunuca.com","url":"http://www.amunuca.com","countryIso2":"FJ","countryName":"Fiji","hotelRating":"3","latitude":"-17.5813","longitude":"177.091","state_id":null,"state_name":null,"country_id":null},{"active":false,"Giataid":"130956","cityId":39144,"cityName":"Nadi","hotelId":130956,"hotelName":"Tanoa Apartments","address":"Votualevu,Namaka,Nadi,Fiji","phones":"+6796723685","fax":"","email":"","url":"","countryIso2":"FJ","countryName":"Fiji","hotelRating":"3","latitude":"-17.7643","longitude":"177.457","state_id":1923,"state_name":"Western Division","country_id":73},{"active":false,"Giataid":"130958","cityId":null,"cityName":"Rakiraki","hotelId":130958,"hotelName":"Dreamview Villas","address":"Volivoli Road,Rakiraki,Fiji","phones":"","fax":"","email":"","url":"","countryIso2":"FJ","countryName":"Fiji","hotelRating":"4","latitude":"-17.3293","longitude":"178.192","state_id":null,"state_name":null,"country_id":null},{"active":false,"Giataid":"130959","cityId":39151,"cityName":"Suva","hotelId":130959,"hotelName":"Holiday Inn Suva","address":"Victoria Parade,PO BOx 1357,Suva,Viti Levu,Fiji","phones":"+6793301600","fax":"+6793300251","email":"reservations@holidayinnsuva.com.fj","url":"http://www.holidayinn.com/hotels/us/en/suva/suvvp/hoteldetail","countryIso2":"FJ","countryName":"Fiji","hotelRating":"3","latitude":"-18.1457","longitude":"178.423","state_id":1929,"state_name":"Central Division","country_id":73},{"active":false,"Giataid":"130961","cityId":null,"cityName":"Taveuni Island","hotelId":130961,"hotelName":"Paradise Taveuni","address":"PO Box 69,Waiyevo,Taveuni,Fiji","phones":"","fax":"","email":"","url":"","countryIso2":"FJ","countryName":"Fiji","hotelRating":"4","latitude":"-16.9345","longitude":"179.901","state_id":null,"state_name":null,"country_id":null},{"active":false,"Giataid":"134197","cityId":39144,"cityName":"Nadi","hotelId":134197,"hotelName":"Capricorn International","address":"Queens Road,P.O.Box 9043,Martintar,Nadi,Viti Levu,Fiji","phones":"+6796720088","fax":"+6796820522","email":"capricorn@connect.com.fj","url":"http://www.capricornfiji.com/nadi/index.html","countryIso2":"FJ","countryName":"Fiji","hotelRating":"2","latitude":"-17.78","longitude":"177.431","state_id":1923,"state_name":"Western Division","country_id":73},{"active":false,"Giataid":"137831","cityId":null,"cityName":"Malolo Island","hotelId":137831,"hotelName":"Bungalows Tropica Island Resort","address":"","phones":"","fax":"","email":"","url":"","countryIso2":"FJ","countryName":"Fiji","hotelRating":"3","latitude":"-17.7537","longitude":"177.155","state_id":null,"state_name":null,"country_id":null},{"active":false,"Giataid":"138415","cityId":null,"cityName":"Matangi Island","hotelId":138415,"hotelName":"Matangi Private Island Resort","address":"Matangi Island,Fiji,Fiji","phones":"+6797780061","fax":"","email":"","url":"","countryIso2":"FJ","countryName":"Fiji","hotelRating":"4","latitude":"-16.7343","longitude":"-179.751","state_id":null,"state_name":null,"country_id":null},{"active":false,"Giataid":"138422","cityId":null,"cityName":"Naigani Island","hotelId":138422,"hotelName":"Naigani Island Resort","address":"Insel Naigani,Fiji","phones":"+6793312433","fax":"+6796030614","email":"","url":"http://www.naiganiresort.com","countryIso2":"FJ","countryName":"Fiji","hotelRating":"3","latitude":"-17.5854","longitude":"178.678","state_id":null,"state_name":null,"country_id":null},{"active":false,"Giataid":"138504","cityId":39144,"cityName":"Nadi","hotelId":138504,"hotelName":"Hexagon International Hotel Villas & Spa","address":"Lot 1 Martintar Road,P.O.Box 10097,Nadi Airport,Nadi,Fiji Islands,Fiji","phones":"+6796720044","fax":"+6796720071","email":"","url":"http://book.bestwestern.com/bestwestern/FJ/Nadi-hotels/BEST-WESTERN-Hexagon-International-Hotel/Hotel-Overview.do?propertyCode=82003","countryIso2":"FJ","countryName":"Fiji","hotelRating":"3","latitude":"-17.779","longitude":"177.432","state_id":1923,"state_name":"Western Division","country_id":73},{"active":false,"Giataid":"145272","cityId":null,"cityName":"Viwa Island","hotelId":145272,"hotelName":"Viwa Island Resort","address":"Viwa Island,Fiji","phones":"+6796030066","fax":"+6796030068","email":"reservations@viwaislandresort.com","url":"http://www.viwaislandresort.com","countryIso2":"FJ","countryName":"Fiji","hotelRating":"4","latitude":"-17.1387","longitude":"176.93","state_id":null,"state_name":null,"country_id":null},{"active":false,"Giataid":"151751","cityId":null,"cityName":"Pacific Harbour","hotelId":151751,"hotelName":"Taunovo Bay Resort & Spa","address":"Cultural Centre,P.O. Box 351,Pacific Harbour,Fiji","phones":"","fax":"","email":"","url":"","countryIso2":"FJ","countryName":"Fiji","hotelRating":"1","latitude":"-18.2468","longitude":"178.074","state_id":null,"state_name":null,"country_id":null},{"active":false,"Giataid":"201876","cityId":null,"cityName":"Natadola Beach","hotelId":201876,"hotelName":"Intercontinental Fiji Golf Resort & Spa","address":"Maro Road,Natadola Bay,Viti Levu,Natadola Beach,Fiji","phones":"+6796733300","fax":"+6796733499","email":"enquiries.fiji@interconti.com","url":"http://www.ichotelsgroup.com/intercontinental/en/gb/locations/fiji","countryIso2":"FJ","countryName":"Fiji","hotelRating":"5","latitude":"-18.1077","longitude":"177.322","state_id":null,"state_name":null,"country_id":null},{"active":false,"Giataid":"214596","cityId":39151,"cityName":"Suva","hotelId":214596,"hotelName":"Novotel Suva Lami Bay","address":"Queens Road,Lami Bay,Suva,Fiji","phones":"+6793362450","fax":"+6793362455","email":"reservations@novotelsuva.com.fj","url":"http://www.novotel.com/de/hotel-6990-novotel-suva-lami-bay/index.shtml","countryIso2":"FJ","countryName":"Fiji","hotelRating":"4","latitude":"-18.1083","longitude":"178.396","state_id":1929,"state_name":"Central Division","country_id":73},{"active":false,"Giataid":"234132","cityId":39144,"cityName":"Nadi","hotelId":234132,"hotelName":"Navini Island Resort","address":"Navini Island,Nadi,Fiji Islands,Fiji","phones":"+6796662188","fax":"+67966655566","email":"reservations@navinifiji.com.fj","url":"https://www.navinifiji.com.fj/","countryIso2":"FJ","countryName":"Fiji","hotelRating":"1","latitude":"-17.7757","longitude":"177.419","state_id":1923,"state_name":"Western Division","country_id":73},{"active":false,"Giataid":"235551","cityId":39140,"cityName":"Lautoka","hotelId":235551,"hotelName":"The Fiji Orchid","address":"Saweni Beach Road,Lautoka,Nadi,Fiji","phones":"+6796640099","fax":"","email":"info@fijiorchid.com","url":"http://www.fijiorchid.com/","countryIso2":"FJ","countryName":"Fiji","hotelRating":"4","latitude":"-17.767","longitude":"177.429","state_id":1923,"state_name":"Western Division","country_id":73},{"active":false,"Giataid":"238247","cityId":null,"cityName":"Coral Coast","hotelId":238247,"hotelName":"Namuka Lagoon Bay Resort","address":"Nadi Town,Coral Coast,Viti Levu,Fiji","phones":"+6797070243","fax":"+6796702746","email":"info@namukabayresort.com","url":"http://www.namukabayresort.com/index.html","countryIso2":"FJ","countryName":"Fiji","hotelRating":"2","latitude":"-18.1242","longitude":"177.377","state_id":null,"state_name":null,"country_id":null},{"active":false,"Giataid":"240755","cityId":39138,"cityName":"Labasa","hotelId":240755,"hotelName":"Palmlea Lodge & Bures Villas","address":"Labasa,Vanua Levu,Fiji Islands,Fiji","phones":"+6798282220","fax":"+6798283220","email":"palmleafarms@yahoo.com","url":"http://www.palmleafarms.com/","countryIso2":"FJ","countryName":"Fiji","hotelRating":"3","latitude":"-16.4307","longitude":"179.371","state_id":1921,"state_name":"Northern Division","country_id":73},{"active":false,"Giataid":"240756","cityId":39144,"cityName":"Nadi","hotelId":240756,"hotelName":"Tadrai Island Resort","address":"PO Box 2544,Nadi,Fiji Islands,Fiji","phones":"+6799103333","fax":"+6796706092","email":"sales@tadrai.com","url":"http://www.tadrai.com/","countryIso2":"FJ","countryName":"Fiji","hotelRating":"5","latitude":"-17.6745","longitude":"177.113","state_id":1923,"state_name":"Western Division","country_id":73},{"active":false,"Giataid":"240757","cityId":39144,"cityName":"Nadi","hotelId":240757,"hotelName":"Beachside Resort","address":"Nadi,Viti Levu,Fiji,Fiji","phones":"+6799993840","fax":"+6796703688","email":"beachsideresort@connect.com.fj","url":"http://www.beachsideresortfiji.com/","countryIso2":"FJ","countryName":"Fiji","hotelRating":"3","latitude":"-17.7719","longitude":"177.415","state_id":1923,"state_name":"Western Division","country_id":73},{"active":false,"Giataid":"240758","cityId":39144,"cityName":"Nadi","hotelId":240758,"hotelName":"Jetset Accommodation","address":"Palm Road,P.O. Box 10362,New Town,Wailoaloa,Nadi,Viti Levu,Fiji","phones":"+6796728750","fax":"+6796728751","email":"","url":"http://www.jetsetaccommodation.com/","countryIso2":"FJ","countryName":"Fiji","hotelRating":"3","latitude":"-17.767","longitude":"177.429","state_id":1923,"state_name":"Western Division","country_id":73},{"active":false,"Giataid":"240759","cityId":39144,"cityName":"Nadi","hotelId":240759,"hotelName":"Nadi Downtown & Backpackers","address":"Main Street,Nadi Town,Viti Levu,Fiji","phones":"+6796700600","fax":"+6796701541","email":"pacvalley@connect.com.fj","url":"http://www.fijidowntownhotel.com/","countryIso2":"FJ","countryName":"Fiji","hotelRating":"2","latitude":"-17.8058","longitude":"177.415","state_id":1923,"state_name":"Western Division","country_id":73},{"active":false,"Giataid":"240761","cityId":39144,"cityName":"Nadi","hotelId":240761,"hotelName":"Trans International","address":"Queens Road,Opposite Nadi International Airport,Nadi,Viti Levu,Fiji","phones":"+6796728633","fax":"+6796728673","email":"info@transinthotel.com.fj","url":"http://www.transinthotel.com.fj/","countryIso2":"FJ","countryName":"Fiji","hotelRating":"3","latitude":"-17.7547","longitude":"177.455","state_id":1923,"state_name":"Western Division","country_id":73},{"active":false,"Giataid":"240762","cityId":39144,"cityName":"Nadi","hotelId":240762,"hotelName":"Tropic of Capricorn","address":"11 Wasawasa Road,Newtown Beach,7200 Nadi,Viti Levu,Fiji","phones":"+6796726607","fax":"","email":"","url":"http://tropicofcapricornfiji.com/","countryIso2":"FJ","countryName":"Fiji","hotelRating":"2","latitude":"-17.8018","longitude":"177.416","state_id":1923,"state_name":"Western Division","country_id":73},{"active":false,"Giataid":"240764","cityId":39144,"cityName":"Nadi","hotelId":240764,"hotelName":"Wailoaloa Beach Resort","address":"Newton Roat,Wailoaloa Beach,Nadi,Viti Levu,Fiji","phones":"+6796726633","fax":"+6796727130","email":"roger@wailoaloabeachresortfiji.com","url":"http://www.wailoaloabeachresortfiji.com/","countryIso2":"FJ","countryName":"Fiji","hotelRating":"2","latitude":"-17.7715","longitude":"177.426","state_id":1923,"state_name":"Western Division","country_id":73},{"active":false,"Giataid":"240765","cityId":null,"cityName":"Rakiraki","hotelId":240765,"hotelName":"Volivoli Beach Resort Fiji","address":"P.O. Box 417,Rakiraki,Viti Levu,Fiji","phones":"+6799920942","fax":"+6796694611","email":"info@volivoli.com","url":"http://www.volivoli.com/","countryIso2":"FJ","countryName":"Fiji","hotelRating":"3","latitude":"-17.3263","longitude":"178.2","state_id":null,"state_name":null,"country_id":null},{"active":false,"Giataid":"240766","cityId":null,"cityName":"Savusavu","hotelId":240766,"hotelName":"Daku Resort","address":"Lesciasceva Road,P.O.Box 18,Savusavu,Vanua Levu,Fiji","phones":"+6798850046","fax":"+6798850334","email":"reservations@dakuresort.com","url":"http://dakuresort.com/","countryIso2":"FJ","countryName":"Fiji","hotelRating":"3","latitude":"-16.7846","longitude":"179.317","state_id":null,"state_name":null,"country_id":null},{"active":false,"Giataid":"240768","cityId":39151,"cityName":"Suva","hotelId":240768,"hotelName":"Studio 6 Apartments","address":"1-3 Walu Street,Suva,Viti Levu,Fiji","phones":"+6793307477","fax":"+6793307133","email":"studio6@unwired.com.fj","url":"http://www.studio6.com.fj/","countryIso2":"FJ","countryName":"Fiji","hotelRating":"3","latitude":"-18.1342","longitude":"178.431","state_id":1929,"state_name":"Central Division","country_id":73},{"active":false,"Giataid":"240769","cityId":null,"cityName":"Vanua Levu Island","hotelId":240769,"hotelName":"Sau Bay Fiji Retreat","address":"Na Sau Bay,Insel Vanua Levu,Fiji","phones":"","fax":"","email":"","url":"","countryIso2":"FJ","countryName":"Fiji","hotelRating":"4","latitude":"-16.7337","longitude":"-128.493","state_id":null,"state_name":null,"country_id":null},{"active":false,"Giataid":"240770","cityId":null,"cityName":"Vanua Levu Island","hotelId":240770,"hotelName":"The Remote Resort","address":"Nukuni Bay,Vanua Levu,Fiji","phones":"+6799793116","fax":"","email":"request@theremoteresort.com","url":"http://www.theremoteresort.com/","countryIso2":"FJ","countryName":"Fiji","hotelRating":"4","latitude":"-16.717","longitude":"179.896","state_id":null,"state_name":null,"country_id":null},{"active":false,"Giataid":"243063","cityId":null,"cityName":"Mamanuca Islands","hotelId":243063,"hotelName":"Wadigi Island Resort","address":"Wadigi Island,Mamanuca Islands,Fiji","phones":"+6796720901","fax":"+6796651053","email":"wadigiisland@connect.com.fj","url":"http://www.wadigi.com","countryIso2":"FJ","countryName":"Fiji","hotelRating":"1","latitude":"-17.7525","longitude":"177.143","state_id":null,"state_name":null,"country_id":null},{"active":false,"Giataid":"243068","cityId":null,"cityName":"Pacific Harbour","hotelId":243068,"hotelName":"Beqa Lagoon Resort","address":"P.O. Box 112 Deuba,Beqa Lagoon,Pacific Harbour,Beqa Island,Fiji","phones":"+6793304042","fax":"+6796493315139","email":"gm@beqalagoonresort.com","url":"http://www.beqalagoonresort.com/","countryIso2":"FJ","countryName":"Fiji","hotelRating":"4","latitude":"-18.3806","longitude":"178.103","state_id":null,"state_name":null,"country_id":null},{"active":false,"Giataid":"243065","cityId":39144,"cityName":"Nadi","hotelId":243065,"hotelName":"Sandalwood Lodge","address":"Box 9454,Nadi,Viti Levu,Fiji","phones":"+6796722044","fax":"+6796720103","email":"sandalwood@connect.com.fj","url":"http://www.sandalwoodfiji.com","countryIso2":"FJ","countryName":"Fiji","hotelRating":"1","latitude":"-17.7785","longitude":"177.434","state_id":1923,"state_name":"Western Division","country_id":73},{"active":false,"Giataid":"243066","cityId":null,"cityName":"Taveuni Island","hotelId":243066,"hotelName":"Coconut Grove Beachfront Cottages","address":"Matei,Taveuni,Fiji","phones":"+6798880328","fax":"+6798882329","email":"","url":"http://www.coconutgrovefiji.com","countryIso2":"FJ","countryName":"Fiji","hotelRating":"1","latitude":"-16.6883","longitude":"-179.879","state_id":null,"state_name":null,"country_id":null},{"active":false,"Giataid":"243070","cityId":null,"cityName":"Kadavu","hotelId":243070,"hotelName":"Matava - Fiji's Premier Eco-Adventure Resort","address":"P.O.Box 63,Vunisea,Kadavu,Fiji","phones":"+6796030685","fax":"+6796030684","email":"","url":"http://www.matava.com/","countryIso2":"FJ","countryName":"Fiji","hotelRating":"3","latitude":"-19.0445","longitude":"178.399","state_id":null,"state_name":null,"country_id":null},{"active":false,"Giataid":"243071","cityId":null,"cityName":"Kadavu","hotelId":243071,"hotelName":"Papageno Resort","address":"Kadavu,Kadavu Island,Fiji,Fiji","phones":"+6796030466","fax":"","email":"info@papagenoresort.com","url":"http://www.papagenoresort.com/","countryIso2":"FJ","countryName":"Fiji","hotelRating":"3","latitude":"-19.0375","longitude":"178.38","state_id":null,"state_name":null,"country_id":null},{"active":false,"Giataid":"243073","cityId":null,"cityName":"Dolphin Island","hotelId":243073,"hotelName":"Dolphin Island Resort","address":"Viti Levu,Fiji,Fiji","phones":"+6796473785791","fax":"","email":"reservations@hukalodge.co.nz","url":"http://www.dolphinislandfiji.com","countryIso2":"FJ","countryName":"Fiji","hotelRating":"1","latitude":"-17.3048","longitude":"178.227","state_id":null,"state_name":null,"country_id":null},{"active":false,"Giataid":"245157","cityId":null,"cityName":"Yasawa Island","hotelId":245157,"hotelName":"Mantaray Island Resort","address":"Nanuya Balavu Island,Fiji,Fiji","phones":"+6796030202","fax":"","email":"","url":"http://www.stayinfiji.com","countryIso2":"FJ","countryName":"Fiji","hotelRating":"3","latitude":"-17.175","longitude":"177.184","state_id":null,"state_name":null,"country_id":null},{"active":false,"Giataid":"245159","cityId":null,"cityName":"Sigatoka","hotelId":245159,"hotelName":"Geckos Fiji Resort","address":"P.O.Box 1477,Sigatoka,Viti Levu,Fiji","phones":"+6796520200","fax":"+6796520322","email":"geckossales@connect.com.fj","url":"http://www.fijiculturalcentre.com/","countryIso2":"FJ","countryName":"Fiji","hotelRating":"3","latitude":"-18.1429","longitude":"177.505","state_id":null,"state_name":null,"country_id":null},{"active":false,"Giataid":"245163","cityId":null,"cityName":"Kadavu","hotelId":245163,"hotelName":"Matana Beach Resort","address":"Drue,Kadavu Island,Fiji,Fiji","phones":"+6793683502","fax":"","email":"admin@divekadavu.com","url":"http://www.divekadavu.com/","countryIso2":"FJ","countryName":"Fiji","hotelRating":"1","latitude":"-19.0071","longitude":"178.162","state_id":null,"state_name":null,"country_id":null},{"active":false,"Giataid":"323305","cityId":39144,"cityName":"Nadi","hotelId":323305,"hotelName":"Newtown Beach Motel","address":"","phones":"","fax":"","email":"","url":"","countryIso2":"FJ","countryName":"Fiji","hotelRating":"1","latitude":"-17.7757","longitude":"177.419","state_id":1923,"state_name":"Western Division","country_id":73},{"active":false,"Giataid":"365441","cityId":null,"cityName":"Natadola Beach","hotelId":365441,"hotelName":"Robinson Crusoe Island","address":"P.O. Box: 2580,Nadi,Natadola Beach,Fiji","phones":"+6796281999","fax":"+6796282901","email":"","url":"http://www.robinsoncrusoeislandfiji.com","countryIso2":"FJ","countryName":"Fiji","hotelRating":"2","latitude":"-18.055","longitude":"177.289","state_id":null,"state_name":null,"country_id":null},{"active":false,"Giataid":"368952","cityId":39144,"cityName":"Nadi","hotelId":368952,"hotelName":"Hans Travel Inn","address":"Lot 2 Haji Street Martintar ","phones":"","fax":"","email":"","url":"","countryIso2":"FJ","countryName":"Fiji","hotelRating":"3","latitude":"-17.7776","longitude":"177.432","state_id":1923,"state_name":"Western Division","country_id":73},{"active":false,"Giataid":"245164","cityId":null,"cityName":"Laucala","hotelId":368953,"hotelName":"Laucala Island Resort","address":"Laucala Island,Taveuni,Fiji","phones":"+6798880077","fax":"","email":"","url":"","countryIso2":"FJ","countryName":"Fiji","hotelRating":"5","latitude":"-16.7527","longitude":"-179.686","state_id":null,"state_name":null,"country_id":null},{"active":false,"Giataid":"368954","cityId":39144,"cityName":"Nadi","hotelId":368954,"hotelName":"Worldmark Fiji","address":"Narewa Road Nadi","phones":"","fax":"","email":"","url":"","countryIso2":"FJ","countryName":"Fiji","hotelRating":"3","latitude":"-17.7774","longitude":"177.368","state_id":1923,"state_name":"Western Division","country_id":73},{"active":false,"Giataid":"429703","cityId":null,"cityName":"Kadavu","hotelId":429703,"hotelName":"Tiliva Resort","address":"PO Box Naleca,Kavala Bay,Nakasaleka,Kadavu,Fiji","phones":"+6797476976","fax":"","email":"enquiries@tilivaresortfiji.com","url":"http://www.tilivaresortfiji.com","countryIso2":"FJ","countryName":"Fiji","hotelRating":"1","latitude":"-18.963","longitude":"178.452","state_id":null,"state_name":null,"country_id":null},{"active":false,"Giataid":"440808","cityId":39151,"cityName":"Suva","hotelId":440808,"hotelName":"Five Princes Hotel","address":"5 Princes Road","phones":"+6793381575","fax":"","email":"","url":"","countryIso2":"FJ","countryName":"Fiji","hotelRating":"4","latitude":"-18.1259","longitude":"178.439","state_id":1929,"state_name":"Central Division","country_id":73},{"active":false,"Giataid":"448676","cityId":39138,"cityName":"Labasa","hotelId":448676,"hotelName":"The Friendly North Inn","address":"679 Siberia Road","phones":"","fax":"","email":"","url":"","countryIso2":"FJ","countryName":"Fiji","hotelRating":"1","latitude":"-16.4349","longitude":"179.378","state_id":1921,"state_name":"Northern Division","country_id":73},{"active":false,"Giataid":"452833","cityId":null,"cityName":"Natadola Beach","hotelId":452833,"hotelName":"Yatule Resort & Spa","address":"Maro Road,Exit Queens Highway,Natadola Beach,Fiji","phones":"+6796728004","fax":"","email":"sales_marketing@yatulefijicom.fj","url":"http://yatulefiji.com/","countryIso2":"FJ","countryName":"Fiji","hotelRating":"4","latitude":"-18.1042","longitude":"177.321","state_id":null,"state_name":null,"country_id":null},{"active":false,"Giataid":"511791","cityId":39144,"cityName":"Nadi","hotelId":511791,"hotelName":"The Palms Denarau Fiji","address":"Denarau Island,Nadi,Fiji","phones":"","fax":"","email":"","url":"","countryIso2":"FJ","countryName":"Fiji","hotelRating":"3","latitude":"-17.7729","longitude":"177.38","state_id":1923,"state_name":"Western Division","country_id":73},{"active":false,"Giataid":"513893","cityId":null,"cityName":"Nacula Island","hotelId":513893,"hotelName":"Navotua Homestay","address":"Navotua Village","phones":"","fax":"","email":"","url":"","countryIso2":"FJ","countryName":"Fiji","hotelRating":"2","latitude":"-16.8673","longitude":"177.44","state_id":null,"state_name":null,"country_id":null},{"active":false,"Giataid":"522201","cityId":null,"cityName":"Lauwaki","hotelId":522201,"hotelName":"Saweni Beach Apartment Hotel","address":"","phones":"","fax":"","email":"","url":"","countryIso2":"FJ","countryName":"Fiji","hotelRating":"1","latitude":"-17.6612","longitude":"177.41","state_id":null,"state_name":null,"country_id":null},{"active":false,"Giataid":"529894","cityId":null,"cityName":"Malolo Island","hotelId":529894,"hotelName":"Rendezvous Malolo Eco Lodge","address":"Solevu i Ra,Malolo Island,Fiji","phones":"","fax":"","email":"","url":"","countryIso2":"FJ","countryName":"Fiji","hotelRating":"2","latitude":"-17.7528","longitude":"177.156","state_id":null,"state_name":null,"country_id":null},{"active":false,"Giataid":"550819","cityId":null,"cityName":"Pacific Harbour","hotelId":550819,"hotelName":"ULTIQA at Fiji Palms Beach Resort","address":"Pacific Harbour,Deuba,Fiji","phones":"","fax":"","email":"","url":"","countryIso2":"FJ","countryName":"Fiji","hotelRating":"3","latitude":"-18.25","longitude":"177.9","state_id":null,"state_name":null,"country_id":null},{"active":false,"Giataid":"579833","cityId":null,"cityName":"Dolphin Island","hotelId":579833,"hotelName":"Dolphin Island","address":"20 minutes off Rakiraki,Dolphin Island,Fiji","phones":"+6796473785791","fax":"","email":"reservations@hukalodge.co.nz","url":"http://www.dolphinislandfiji.com/","countryIso2":"FJ","countryName":"Fiji","hotelRating":"1","latitude":"-17.305","longitude":"178.227","state_id":null,"state_name":null,"country_id":null},{"active":false,"Giataid":"23311","cityId":127790,"cityName":"Treasure Island","hotelId":610470,"hotelName":"Treasure Island Resort Fiji","address":"Treasure Island,Mamanuca Islands,Fiji","phones":"+6796660380","fax":"","email":"reservations@treasure.com.fj","url":"http://www.treasureisland-fiji.com","countryIso2":"FJ","countryName":"Fiji","hotelRating":"0","latitude":"-17.6552","longitude":"177.267","state_id":1436,"state_name":"Florida","country_id":233},{"active":false,"Giataid":"615765","cityId":null,"cityName":"Taveuni Island","hotelId":615765,"hotelName":"Aroha Taveuni","address":"South Coast Road,P.O. Box 10,Waiyevo,Taveuni,Fiji","phones":"","fax":"","email":"","url":"","countryIso2":"FJ","countryName":"Fiji","hotelRating":"3","latitude":"-16.7337","longitude":"-128.493","state_id":null,"state_name":null,"country_id":null},{"active":false,"Giataid":"626403","cityId":null,"cityName":"Kadavu","hotelId":626403,"hotelName":"Kokomo Island Fiji","address":"Yaukuve Island,Kadavu,Fiji","phones":"+6797764441","fax":"","email":"reservations@kokomoislandfiji.com","url":"http://www.kokomoislandfiji.com","countryIso2":"FJ","countryName":"Fiji","hotelRating":"5","latitude":"-18.8033","longitude":"178.529","state_id":null,"state_name":null,"country_id":null},{"active":false,"Giataid":"631853","cityId":39144,"cityName":"Nadi","hotelId":631853,"hotelName":"Horizon Backpackers & Travel Centre","address":"","phones":"","fax":"","email":"","url":"","countryIso2":"FJ","countryName":"Fiji","hotelRating":"1","latitude":"-17.7657","longitude":"177.427","state_id":1923,"state_name":"Western Division","country_id":73},{"active":false,"Giataid":"36779","cityId":null,"cityName":"Sigatoka","hotelId":631877,"hotelName":"Tambua Sands Beach Resort","address":"Queen's Highway,Coral Coast,Sigatoka,Viti Levu,Fiji","phones":"+6796500399","fax":"+6796520265","email":"res.tambuasands@warwickhotels.com","url":"https://warwickhotels.com/tambua-sands","countryIso2":"FJ","countryName":"Fiji","hotelRating":"2","latitude":"-18.1801","longitude":"177.562","state_id":null,"state_name":null,"country_id":null},{"active":false,"Giataid":"639756","cityId":null,"cityName":"Savusavu","hotelId":639756,"hotelName":"Savasi Island Resort","address":"Hibiscus Highway,Savusavu,Vanua Levu,Fiji","phones":"+67961479144355","fax":"","email":"enquire@savasiisland.com","url":"http://www.savasiisland.com","countryIso2":"FJ","countryName":"Fiji","hotelRating":"4","latitude":"-16.8048","longitude":"179.379","state_id":null,"state_name":null,"country_id":null},{"active":false,"Giataid":"670038","cityId":39144,"cityName":"Nadi","hotelId":670038,"hotelName":"Ramada Suites Wailoaloa Beach Fiji","address":"Wailoaloa Beach,Nadi Bay,Fiji","phones":"+6796726578","fax":"","email":"reservations@ramadafiji.com","url":"http://ramadabeachfiji.com/","countryIso2":"FJ","countryName":"Fiji","hotelRating":"4","latitude":"-17.765","longitude":"177.428","state_id":1923,"state_name":"Western Division","country_id":73},{"active":false,"Giataid":"681624","cityId":39151,"cityName":"Suva","hotelId":681624,"hotelName":"Peninsula International Hotel","address":"Corner McGregor Road,Pender Street,Suva,Fiji","phones":"+6793313711","fax":"+6793314473","email":"reservations@peninsula.com.fj","url":"http://www.peninsula.com.fj","countryIso2":"FJ","countryName":"Fiji","hotelRating":"3","latitude":"-18.1468","longitude":"178.43","state_id":1929,"state_name":"Central Division","country_id":73},{"active":false,"Giataid":"690203","cityId":null,"cityName":"Silana","hotelId":690203,"hotelName":"Takalana Bay Retreat","address":"Lodoni Road,Silana,Viti Levu,Fiji","phones":"","fax":"","email":"","url":"","countryIso2":"FJ","countryName":"Fiji","hotelRating":"1","latitude":"-17.7889","longitude":"177.84","state_id":null,"state_name":null,"country_id":null},{"active":false,"Giataid":"690203","cityId":null,"cityName":"Silana","hotelId":690203,"hotelName":"Takalana Bay Retreat","address":"Lodoni Road,Silana,Viti Levu,Fiji","phones":"","fax":"","email":"","url":"","countryIso2":"FJ","countryName":"Fiji","hotelRating":"1","latitude":"-17.7889","longitude":"177.84","state_id":null,"state_name":null,"country_id":null},{"active":false,"Giataid":"723754","cityId":39144,"cityName":"Nadi","hotelId":723754,"hotelName":"Prime Apartments","address":"Kennedy Avenue,Nadi,Fiji","phones":"+6796703009","fax":"","email":"info@primeapartments.com.fj","url":"http://www.primeapartments.com.fj/","countryIso2":"FJ","countryName":"Fiji","hotelRating":"1","latitude":"-17.7907","longitude":"177.424","state_id":1923,"state_name":"Western Division","country_id":73},{"active":false,"Giataid":"725550","cityId":39144,"cityName":"Nadi","hotelId":725550,"hotelName":"Apartments Fiji","address":"24 Votualevu Road,PO Box 11280,Nadi,Fiji","phones":"","fax":"","email":"","url":"","countryIso2":"FJ","countryName":"Fiji","hotelRating":"1","latitude":"-17.7757","longitude":"177.419","state_id":1923,"state_name":"Western Division","country_id":73},{"active":false,"Giataid":"725562","cityId":null,"cityName":"Yasawa Island","hotelId":725562,"hotelName":"Enedala Homestay","address":"Enedala Beach,Nanuya Lailai Island,Yasawa Islands,Fiji","phones":"","fax":"","email":"","url":"","countryIso2":"FJ","countryName":"Fiji","hotelRating":"1","latitude":"-16.9468","longitude":"177.381","state_id":null,"state_name":null,"country_id":null},{"active":false,"Giataid":"725845","cityId":39151,"cityName":"Suva","hotelId":725845,"hotelName":"Island Accommodation Suva","address":"56 Extension Road,Suva,Fiji,Fiji","phones":"+6793316316","fax":"","email":"reservation@island.com.fj","url":"http://www.island.com.fj","countryIso2":"FJ","countryName":"Fiji","hotelRating":"1","latitude":"-18.1386","longitude":"178.426","state_id":1929,"state_name":"Central Division","country_id":73},{"active":false,"Giataid":"726374","cityId":39144,"cityName":"Nadi","hotelId":726374,"hotelName":"Island Accommodation Nadi","address":"Yadraca Circular Road,Legalega Lane,Nadi,Fiji","phones":"","fax":"","email":"","url":"","countryIso2":"FJ","countryName":"Fiji","hotelRating":"1","latitude":"-17.7563","longitude":"177.461","state_id":1923,"state_name":"Western Division","country_id":73},{"active":false,"Giataid":"726411","cityId":null,"cityName":"Rakiraki","hotelId":726411,"hotelName":"The Beehive Fiji","address":"34 Wailevu Road Nanuku,Rakiraki,Fiji","phones":"","fax":"","email":"","url":"","countryIso2":"FJ","countryName":"Fiji","hotelRating":"1","latitude":"-17.3764","longitude":"178.059","state_id":null,"state_name":null,"country_id":null},{"active":false,"Giataid":"726638","cityId":null,"cityName":"Taveuni Island","hotelId":726638,"hotelName":"Tides Reach Resort","address":"P.O. Box M71,Matei,Taveuni,Fiji","phones":"+6798882080","fax":"","email":"eunice@tidesreachresort.com","url":"http://www.tidesreachresort.com","countryIso2":"FJ","countryName":"Fiji","hotelRating":"1","latitude":"-16.7337","longitude":"-128.493","state_id":null,"state_name":null,"country_id":null},{"active":false,"Giataid":"726909","cityId":null,"cityName":"Yasawa Island","hotelId":726909,"hotelName":"Waitui Basecamp Hostel","address":"Matacawalevu Island,Yasawa Islands,Matathawa Island,Fiji","phones":"+6798062697","fax":"","email":"waituibasecamp@gmail.com","url":"http://www.waituibasecamp.com","countryIso2":"FJ","countryName":"Fiji","hotelRating":"1","latitude":"-16.9581","longitude":"177.342","state_id":null,"state_name":null,"country_id":null},{"active":false,"Giataid":"727641","cityId":null,"cityName":"Nanuya Lailai Island","hotelId":727641,"hotelName":"Boathouse Nanuya","address":"Blue Lagoon,Nanuya Lailai Island,Fiji","phones":"+6796667633","fax":"","email":"","url":"http://boathousenanuya.com.fj","countryIso2":"FJ","countryName":"Fiji","hotelRating":"1","latitude":"-16.9418","longitude":"177.37","state_id":null,"state_name":null,"country_id":null},{"active":false,"Giataid":"742011","cityId":39140,"cityName":"Lautoka","hotelId":742011,"hotelName":"Fiji Hideaway Resort & Spa Vuda","address":"Vuda Beach,Lautoka,Fiji","phones":"+6796500177","fax":"+6796520025","email":"reservations@hideaway.com.fj","url":"http://hideawayfiji.com/vuda-resort","countryIso2":"FJ","countryName":"Fiji","hotelRating":"4","latitude":"-18.196","longitude":"177.652","state_id":1923,"state_name":"Western Division","country_id":73},{"active":false,"Giataid":"746218","cityId":39144,"cityName":"Nadi","hotelId":746218,"hotelName":"Flametree Villas","address":"Martintar Road 2,Mehortra Place,Nadi,Fiji","phones":"","fax":"","email":"","url":"","countryIso2":"FJ","countryName":"Fiji","hotelRating":"1","latitude":"-17.7757","longitude":"177.419","state_id":1923,"state_name":"Western Division","country_id":73},{"active":false,"Giataid":"746875","cityId":39144,"cityName":"Nadi","hotelId":746875,"hotelName":"Best View Apartment","address":"Transmitter Road,Malolo,Nadi,Fiji","phones":"","fax":"","email":"","url":"","countryIso2":"FJ","countryName":"Fiji","hotelRating":"1","latitude":"-17.7757","longitude":"177.419","state_id":1923,"state_name":"Western Division","country_id":73},{"active":false,"Giataid":"747842","cityId":null,"cityName":"Nanuya Lailai Island","hotelId":747842,"hotelName":"Sunrise Lagoon Homestay","address":"Nanuya Lailai,Fiji","phones":"","fax":"","email":"","url":"","countryIso2":"FJ","countryName":"Fiji","hotelRating":"1","latitude":"-16.9421","longitude":"177.37","state_id":null,"state_name":null,"country_id":null},{"active":false,"Giataid":"750865","cityId":39138,"cityName":"Labasa","hotelId":750865,"hotelName":"The Royale Lodge","address":"Naseakula Road,Labasa,Fiji","phones":"","fax":"","email":"royale.wd@gmail.com","url":"http://www.theroyale.net/lodge.html","countryIso2":"FJ","countryName":"Fiji","hotelRating":"1","latitude":"-16.4298","longitude":"179.373","state_id":1921,"state_name":"Northern Division","country_id":73},{"active":false,"Giataid":"751345","cityId":null,"cityName":"Pacific Harbour","hotelId":751345,"hotelName":"Golden Palms Retreat","address":"189 Cook Place,Pacific Harbour,Fiji","phones":"","fax":"","email":"","url":"","countryIso2":"FJ","countryName":"Fiji","hotelRating":"1","latitude":"-18.2445","longitude":"178.08","state_id":null,"state_name":null,"country_id":null},{"active":false,"Giataid":"759120","cityId":null,"cityName":"Yasawa Island","hotelId":759120,"hotelName":"Turtle Island","address":"Yasawa Islands,Fiji","phones":"","fax":"","email":"matt@turtlefiji.com","url":"https://www.turtlefiji.com/","countryIso2":"FJ","countryName":"Fiji","hotelRating":"1","latitude":"-17.0661","longitude":"177.29","state_id":null,"state_name":null,"country_id":null},{"active":false,"Giataid":"774927","cityId":null,"cityName":"Malolo Island","hotelId":774927,"hotelName":"Six Senses Fiji","address":"Malolo Island,Fiji,Fiji","phones":"+6796665028","fax":"","email":"reservations-fiji@sixsenses.com","url":"http://www.sixsenses.com//resorts/fiji/destination","countryIso2":"FJ","countryName":"Fiji","hotelRating":"1","latitude":"-17.7528","longitude":"177.156","state_id":null,"state_name":null,"country_id":null},{"active":false,"Giataid":"782917","cityId":39144,"cityName":"Nadi","hotelId":782917,"hotelName":"Funworld Plaza Hotel","address":"Nadi Back Road,Nadi,Fiji","phones":"+6797385020","fax":"","email":"","url":"http://funworldplaza.website/","countryIso2":"FJ","countryName":"Fiji","hotelRating":"2","latitude":"-17.7887","longitude":"177.442","state_id":1923,"state_name":"Western Division","country_id":73},{"active":false,"Giataid":"782982","cityId":39144,"cityName":"Nadi","hotelId":782982,"hotelName":"Wailoaloa Seascape Hotel Pte Ltd","address":"6 Palm Road,Wailoaloa,Nadi,Nakavu,Fiji","phones":"","fax":"","email":"","url":"","countryIso2":"FJ","countryName":"Fiji","hotelRating":"1","latitude":"-17.7757","longitude":"177.419","state_id":1923,"state_name":"Western Division","country_id":73},{"active":false,"Giataid":"785481","cityId":null,"cityName":"Sigatoka","hotelId":785481,"hotelName":"Beach Cocomo","address":"Lot 1 Navoto,Sovi Bay,Coral Coast,Sigatoka,Viti Levu,Fiji","phones":"+6799367063","fax":"","email":"beachcocomo@gmail.com","url":"http://www.beachcocomofiji.com","countryIso2":"FJ","countryName":"Fiji","hotelRating":"1","latitude":"-18.1622","longitude":"177.53","state_id":null,"state_name":null,"country_id":null},{"active":false,"Giataid":"789903","cityId":null,"cityName":"Sigatoka","hotelId":789903,"hotelName":"Dunes Accommodations","address":"Kulukulu,Sigatoka,Fiji","phones":"","fax":"","email":"","url":"","countryIso2":"FJ","countryName":"Fiji","hotelRating":"1","latitude":"-18.1622","longitude":"177.53","state_id":null,"state_name":null,"country_id":null},{"active":false,"Giataid":"795602","cityId":39151,"cityName":"Suva","hotelId":795602,"hotelName":"Town House Apartment Hotels Suva","address":"3 Forster Street,Suva,Fiji","phones":"","fax":"","email":"","url":"","countryIso2":"FJ","countryName":"Fiji","hotelRating":"1","latitude":"-18.1386","longitude":"178.426","state_id":1929,"state_name":"Central Division","country_id":73},{"active":false,"Giataid":"819216","cityId":null,"cityName":"Sigatoka","hotelId":819216,"hotelName":"Namolevu Beach Bures Resort","address":"Queens Highway,Coral Coast,Korolevu,PO Box 118,Sigatoka,Fiji Islands,Fiji","phones":"+6796507077","fax":"","email":"info@namolevufiji.com","url":"http://www.namolevufiji.com","countryIso2":"FJ","countryName":"Fiji","hotelRating":"1","latitude":"-18.1622","longitude":"177.53","state_id":null,"state_name":null,"country_id":null},{"active":false,"Giataid":"850465","cityId":39144,"cityName":"Nadi","hotelId":850465,"hotelName":"J & J","address":"Meiguniyah Nadi Back Road,Lot 2,Nadi,l'?le Viti Levu,Fiji","phones":"","fax":"","email":"","url":"","countryIso2":"FJ","countryName":"Fiji","hotelRating":"1","latitude":"-17.7757","longitude":"177.419","state_id":1923,"state_name":"Western Division","country_id":73},{"active":false,"Giataid":"850471","cityId":39151,"cityName":"Suva","hotelId":850471,"hotelName":"Al's Bed & Breakfast","address":"10 Udit Narayan,Raiwaqa Behind Old Raiwaqa Market,Suva,Viti Levu,Fiji","phones":"+6798096056","fax":"","email":"alisha@alsbnb.com","url":"http://www.alsbnb.com/","countryIso2":"FJ","countryName":"Fiji","hotelRating":"1","latitude":"-18.1386","longitude":"178.426","state_id":1929,"state_name":"Central Division","country_id":73},{"active":false,"Giataid":"111120","cityId":null,"cityName":"Taveuni Island","hotelId":10042410,"hotelName":"Taveuni Island Resort & Spa","address":"Main Road,Matei,Taveuni,Fiji","phones":"+6798880441","fax":"","email":"","url":"","countryIso2":"FJ","countryName":"Fiji","hotelRating":"4","latitude":"-16.7369","longitude":"-179.913","state_id":null,"state_name":null,"country_id":null},{"active":false,"Giataid":"441618","cityId":39144,"cityName":"Nadi","hotelId":10048023,"hotelName":"Sss Manhao Hotel","address":"Lot 14 Nasau Back Road,Nadi,Fiji","phones":"+6797760880","fax":"","email":"","url":"","countryIso2":"FJ","countryName":"Fiji","hotelRating":"3","latitude":"-17.7831","longitude":"177.483","state_id":1923,"state_name":"Western Division","country_id":73},{"active":false,"Giataid":"473896","cityId":39144,"cityName":"Nadi","hotelId":10049563,"hotelName":"Wellesley Palms Hotel","address":"Fantasy Island,Nadi,Fiji","phones":"","fax":"","email":"","url":"","countryIso2":"FJ","countryName":"Fiji","hotelRating":"3","latitude":"-17.7774","longitude":"177.406","state_id":1923,"state_name":"Western Division","country_id":73},{"active":false,"Giataid":"494639","cityId":null,"cityName":"Pacific Harbour","hotelId":10053855,"hotelName":"Nanuku Auberge Resort","address":"11 Nanuku Drive,Pacific Harbour,Fiji","phones":"+6793452100","fax":"","email":"","url":"","countryIso2":"FJ","countryName":"Fiji","hotelRating":"5","latitude":"-18.2624","longitude":"178.044","state_id":null,"state_name":null,"country_id":null},{"active":false,"Giataid":"569037","cityId":39151,"cityName":"Suva","hotelId":10055340,"hotelName":"Elixir Hotel And Serviced Apartments","address":"77 Gordon Street,00679 Suva,Fiji","phones":"+6793303288","fax":"","email":"","url":"","countryIso2":"FJ","countryName":"Fiji","hotelRating":"2","latitude":"-18.1436","longitude":"178.426","state_id":1929,"state_name":"Central Division","country_id":73},{"active":false,"Giataid":"413376","cityId":null,"cityName":"Tokoriki Island","hotelId":10056242,"hotelName":"Sheraton Resort & Spa Tokoriki Island","address":"Tokoriki Island,Mamanuca Islands,Fiji","phones":"","fax":"","email":"","url":"","countryIso2":"FJ","countryName":"Fiji","hotelRating":"5","latitude":"-17.5813","longitude":"177.091","state_id":null,"state_name":null,"country_id":null},{"active":false,"Giataid":"490515","cityId":39144,"cityName":"Nadi","hotelId":10056469,"hotelName":"Travellers Beach Resort Hostel","address":"19 Wasawasa Road,Wailoaloa Beach,Nadi,Viti Levu,Fiji","phones":"","fax":"","email":"","url":"","countryIso2":"FJ","countryName":"Fiji","hotelRating":"2","latitude":"-17.7641","longitude":"177.428","state_id":1923,"state_name":"Western Division","country_id":73},{"active":false,"Giataid":"488038","cityId":39144,"cityName":"Nadi","hotelId":10056622,"hotelName":"Beach Escape Resort","address":"31 Barava Road","phones":"","fax":"","email":"","url":"","countryIso2":"FJ","countryName":"Fiji","hotelRating":"2","latitude":"-17.7653","longitude":"177.429","state_id":1923,"state_name":"Western Division","country_id":73},{"active":false,"Giataid":"449054","cityId":39151,"cityName":"Suva","hotelId":10056658,"hotelName":"Southern Cross Hotel","address":"63 Gordon Street","phones":"","fax":"","email":"","url":"","countryIso2":"FJ","countryName":"Fiji","hotelRating":"3","latitude":"-18.1428","longitude":"178.425","state_id":1929,"state_name":"Central Division","country_id":73},{"active":false,"Giataid":"431722","cityId":null,"cityName":"Savusavu","hotelId":10057617,"hotelName":"Emaho Sekawa Resort","address":"Sekawa Beach Estate,PO Box 899,Savusavu,Fiji","phones":"+6799725515","fax":"","email":"","url":"","countryIso2":"FJ","countryName":"Fiji","hotelRating":"5","latitude":"-16.7011","longitude":"179.285","state_id":null,"state_name":null,"country_id":null},{"active":false,"Giataid":"507606","cityId":null,"cityName":"Sigatoka","hotelId":10058943,"hotelName":"Devos - The Private Residence","address":"19 Maui Private Road,Sigatoka,Coral Coast,Fiji","phones":"+6796507130","fax":"","email":"","url":"","countryIso2":"FJ","countryName":"Fiji","hotelRating":"3","latitude":"-18.1412","longitude":"177.508","state_id":null,"state_name":null,"country_id":null},{"active":false,"Giataid":"245160","cityId":39151,"cityName":"Suva","hotelId":10058948,"hotelName":"De Vos On The Park","address":"YWCA Building,Ratu Sukuna Park,Suva,Fiji","phones":"+6793305005","fax":"","email":"","url":"","countryIso2":"FJ","countryName":"Fiji","hotelRating":"3","latitude":"-18.1401","longitude":"178.423","state_id":1929,"state_name":"Central Division","country_id":73},{"active":false,"Giataid":"497612","cityId":39144,"cityName":"Nadi","hotelId":10059288,"hotelName":"Bamboo Travellers","address":"33 New Town Beach,Nadi,PO Box 9713,Fiji","phones":"+6796722225","fax":"","email":"","url":"","countryIso2":"FJ","countryName":"Fiji","hotelRating":"2","latitude":"-17.7649","longitude":"177.428","state_id":1923,"state_name":"Western Division","country_id":73},{"active":false,"Giataid":"30797","cityId":null,"cityName":"Taveuni Island","hotelId":10059355,"hotelName":"Maravu Taveuni Lodge - Hostel","address":"Coastal Road,Matei,Taveuni,Fiji","phones":"+6798880555","fax":"","email":"","url":"","countryIso2":"FJ","countryName":"Fiji","hotelRating":"2","latitude":"-16.7337","longitude":"-128.493","state_id":null,"state_name":null,"country_id":null},{"active":false,"Giataid":"638830","cityId":39144,"cityName":"Nadi","hotelId":10060331,"hotelName":"Naisoso Island Resort Villas","address":"Sunrise Drive,Nadi,Naisoso Island Viti Levu,Fiji,Fiji","phones":"00-679-6729342","fax":"","email":"","url":"http://www.naisosoislandresortvillas.com","countryIso2":"FJ","countryName":"Fiji","hotelRating":"5","latitude":"-17.7421","longitude":"177.43","state_id":1923,"state_name":"Western Division","country_id":73},{"active":false,"Giataid":"550550","cityId":null,"cityName":"Taveuni Island","hotelId":10061522,"hotelName":"Dolphin Bay Divers Bungalow","address":"Airport Road,P.O. Box 213,Taveuni Island East,Waiyevo,Taveuni,Fiji","phones":"+6798283001","fax":"","email":"","url":"","countryIso2":"FJ","countryName":"Fiji","hotelRating":"2","latitude":"-16.7337","longitude":"-128.493","state_id":null,"state_name":null,"country_id":null},{"active":false,"Giataid":"658680","cityId":39140,"cityName":"Lautoka","hotelId":10061758,"hotelName":"Sapphire Bay Fiji","address":"Sapphire Bay,Vuda Point,Lautoka,Fiji","phones":"+6799996011","fax":"","email":"","url":"","countryIso2":"FJ","countryName":"Fiji","hotelRating":"4","latitude":"-17.6797","longitude":"177.403","state_id":1923,"state_name":"Western Division","country_id":73},{"active":false,"Giataid":"449810","cityId":39151,"cityName":"Suva","hotelId":10062390,"hotelName":"Grand Pacific Hotel","address":"584-618 Victoria Parade,P.O. Box 15014,Suva,Fiji","phones":"+6793222000","fax":"","email":"","url":"","countryIso2":"FJ","countryName":"Fiji","hotelRating":"4","latitude":"-18.1468","longitude":"178.423","state_id":1929,"state_name":"Central Division","country_id":73},{"active":false,"Giataid":"449919","cityId":39144,"cityName":"Nadi","hotelId":10062988,"hotelName":"Dulcinea Hotel Oasis","address":"1 Ragg Street,Martintar,Nadi,Fiji","phones":"+6796722044","fax":"","email":"","url":"","countryIso2":"FJ","countryName":"Fiji","hotelRating":"3","latitude":"-17.7786","longitude":"177.434","state_id":1923,"state_name":"Western Division","country_id":73},{"active":false,"Giataid":"463099","cityId":null,"cityName":"Korolevu","hotelId":10063263,"hotelName":"Coral Lagoon Resort","address":"Queens Road,Sigatoka,Naibale,P.O Box 151,Korolevu,Coral Coast,Fiji","phones":"","fax":"","email":"","url":"","countryIso2":"FJ","countryName":"Fiji","hotelRating":"2","latitude":"-18.2145","longitude":"177.716","state_id":null,"state_name":null,"country_id":null},{"active":false,"Giataid":"60016","cityId":39151,"cityName":"Suva","hotelId":10063462,"hotelName":"ColO-I-Suva Rainforest Eco Resort","address":"Princes Road,opposite Police Post,Colo-i-Suva,Suva,Fiji","phones":"+6793320562","fax":"","email":"","url":"","countryIso2":"FJ","countryName":"Fiji","hotelRating":"2","latitude":"-18.0576","longitude":"178.457","state_id":1929,"state_name":"Central Division","country_id":73},{"active":false,"Giataid":"685000","cityId":39144,"cityName":"Nadi","hotelId":10064920,"hotelName":"Horizon Beach Resort","address":"Wailoaloa Beach,Nadi,Nadi Bay,Fiji","phones":"+6796722832","fax":"","email":"","url":"","countryIso2":"FJ","countryName":"Fiji","hotelRating":"2","latitude":"-17.7655","longitude":"177.428","state_id":1923,"state_name":"Western Division","country_id":73},{"active":false,"Giataid":"410566","cityId":null,"cityName":"Qamea","hotelId":10066312,"hotelName":"Macai Beach Eco Surf Resort","address":"Qamea,Taveuni,Northern Islands,Fiji","phones":"+6798503488","fax":"","email":"","url":"","countryIso2":"FJ","countryName":"Fiji","hotelRating":"2","latitude":"-16.8037","longitude":"-179.783","state_id":null,"state_name":null,"country_id":null},{"active":false,"Giataid":"53036","cityId":null,"cityName":"Nukubati Island","hotelId":10067850,"hotelName":"Nukubati Island Resort","address":"Great Sea Reef,Nukubati Island,Vanua Levu,Fiji","phones":"+6796030919","fax":"","email":"","url":"","countryIso2":"FJ","countryName":"Fiji","hotelRating":"4","latitude":"-16.464","longitude":"179.021","state_id":null,"state_name":null,"country_id":null},{"active":false,"Giataid":"478557","cityId":null,"cityName":"Ono Island","hotelId":10070204,"hotelName":"Mai Dive Astrolabe Reef Resort","address":"Nukubalavu Estate,Ono Island,Kadavu Island,Fiji","phones":"+67961280053845","fax":"","email":"","url":"","countryIso2":"FJ","countryName":"Fiji","hotelRating":"3","latitude":"-18.9023","longitude":"178.517","state_id":null,"state_name":null,"country_id":null},{"active":false,"Giataid":"511867","cityId":null,"cityName":"Vanua Levu Island","hotelId":10070236,"hotelName":"Dolphin Bay Divers Retreat","address":"Waiyevo,PO Box 213,Taveuni,Vanua Levo,Fiji","phones":"+6798283001","fax":"","email":"","url":"","countryIso2":"FJ","countryName":"Fiji","hotelRating":"3","latitude":"-16.7567","longitude":"179.922","state_id":null,"state_name":null,"country_id":null},{"active":false,"Giataid":"534041","cityId":null,"cityName":"Mamanuca Islands","hotelId":10070525,"hotelName":"South Sea Island Resort","address":"Mamanuca Islands,South Sea Island,Fiji","phones":"","fax":"","email":"","url":"","countryIso2":"FJ","countryName":"Fiji","hotelRating":"2","latitude":"-17.6931","longitude":"177.313","state_id":null,"state_name":null,"country_id":null},{"active":false,"Giataid":"432438","cityId":null,"cityName":"Yasawa Island","hotelId":10071475,"hotelName":"Barefoot Manta Island","address":"Barefoot Manta Island,Manta Island,Drawaqa Islands,Yasawa Islands,Fiji","phones":"+6797763040","fax":"","email":"","url":"","countryIso2":"FJ","countryName":"Fiji","hotelRating":"3","latitude":"-16.7881","longitude":"177.507","state_id":null,"state_name":null,"country_id":null},{"active":false,"Giataid":"581337","cityId":null,"cityName":"Pacific Harbour","hotelId":10071482,"hotelName":"Waidroka Bay Resort","address":"P.O. Box 323,Pacific Harbour,Deuba,Fiji","phones":"+6797734605","fax":"","email":"","url":"","countryIso2":"FJ","countryName":"Fiji","hotelRating":"3","latitude":"-18.2681","longitude":"177.987","state_id":null,"state_name":null,"country_id":null},{"active":false,"Giataid":"505425","cityId":39144,"cityName":"Nadi","hotelId":10099541,"hotelName":"Oasis Palms Hotel","address":"Wailoaloa Beach Road,Nadi,Fiji","phones":"+6797777337","fax":"NULL","email":"NULL","url":"NULL","countryIso2":"FJ","countryName":"Fiji","hotelRating":"3","latitude":"-17.7747","longitude":"177.409","state_id":1923,"state_name":"Western Division","country_id":73},{"active":false,"Giataid":"311199","cityId":null,"cityName":"Mamanuca Islands","hotelId":10100448,"hotelName":"Tropica Island Resort","address":"Malolo Island,Mamanuca Islands,Fiji","phones":"+6796651777","fax":"NULL","email":"NULL","url":"NULL","countryIso2":"FJ","countryName":"Fiji","hotelRating":"4","latitude":"-17.754","longitude":"177.155","state_id":null,"state_name":null,"country_id":null},{"active":false,"Giataid":"522530","cityId":null,"cityName":"Pacific Harbour","hotelId":10100849,"hotelName":"Ultiqa Fiji Palms Beach Resort","address":"Pacific Harbour Dr, Fiji,Pacific Harbour,Fiji","phones":"NULL","fax":"NULL","email":"NULL","url":"NULL","countryIso2":"FJ","countryName":"Fiji","hotelRating":"4","latitude":"-18.2535","longitude":"178.068","state_id":null,"state_name":null,"country_id":null},{"active":false,"Giataid":"542184","cityId":null,"cityName":"Wavi Island","hotelId":10103329,"hotelName":"Wavi Island Resort","address":"Wavi Island,Savusavu,Fiji","phones":"+67916262553925","fax":"NULL","email":"NULL","url":"NULL","countryIso2":"FJ","countryName":"Fiji","hotelRating":"4","latitude":"-16.8022","longitude":"179.411","state_id":null,"state_name":null,"country_id":null},{"active":false,"Giataid":"436547","cityId":null,"cityName":"Mana Island","hotelId":10104987,"hotelName":"Ratu Kini Dive Resort","address":"Mana Island,Fiji","phones":"+6796282375","fax":"NULL","email":"NULL","url":"NULL","countryIso2":"FJ","countryName":"Fiji","hotelRating":"2","latitude":"-17.6756","longitude":"177.107","state_id":null,"state_name":null,"country_id":null},{"active":false,"Giataid":"245152","cityId":null,"cityName":"Nacula Island","hotelId":10113305,"hotelName":"Blue Lagoon Beach Resort","address":"Nacula Island,Yasawa Islands,Fiji,Fiji","phones":"+6796030224","fax":"NULL","email":"NULL","url":"NULL","countryIso2":"FJ","countryName":"Fiji","hotelRating":"3","latitude":"-16.8923","longitude":"177.414","state_id":null,"state_name":null,"country_id":null},{"active":false,"Giataid":"447443","cityId":39151,"cityName":"Suva","hotelId":10115170,"hotelName":"City Private Hotel","address":"58 Robertson Road,Suva,Fiji","phones":"NULL","fax":"NULL","email":"NULL","url":"NULL","countryIso2":"FJ","countryName":"Fiji","hotelRating":"2","latitude":"-18.1351","longitude":"178.428","state_id":1929,"state_name":"Central Division","country_id":73},{"active":false,"Giataid":"55804","cityId":null,"cityName":"Nacula Island","hotelId":20000863,"hotelName":"Oarsman's Bay Lodge","address":"Nacula Island,Yasawa Islands,Fiji","phones":"+6796280485","fax":"","email":"oarsmansbay@hotmail.com","url":"http://www.oarsmansbay.com/","countryIso2":"FJ","countryName":"Fiji","hotelRating":"3","latitude":"-16.9099","longitude":"177.387","state_id":null,"state_name":null,"country_id":null},{"active":false,"Giataid":"436750","cityId":null,"cityName":"Yasawa Island","hotelId":20001041,"hotelName":"Paradise Cove Resort","address":"Naukacuvu Island,Yasawa Islands,Fiji","phones":"","fax":"","email":"paradise@ftn.net.nz","url":"http://www.paradisecoveresortfiji.com","countryIso2":"FJ","countryName":"Fiji","hotelRating":"4","latitude":"-17.194","longitude":"177.174","state_id":null,"state_name":null,"country_id":null},{"active":false,"Giataid":"682938","cityId":null,"cityName":"Yasawa Island","hotelId":20001138,"hotelName":"Coconut Beach Resort","address":"Tavewa Island,Yasawa Islands,Fiji,Fiji","phones":"+6799457505","fax":"","email":"","url":"http://coconutbeachfiji.com","countryIso2":"FJ","countryName":"Fiji","hotelRating":"0","latitude":"-16.9332","longitude":"177.36","state_id":null,"state_name":null,"country_id":null},{"active":false,"Giataid":"245150","cityId":null,"cityName":"Taveuni Island","hotelId":20001273,"hotelName":"Nakia Resort","address":"P.O. Box 204,Waiyevo,Taveuni,Fiji","phones":"+6798881111","fax":"+6798881333","email":"info@nakiafiji.com","url":"http://www.nakiafiji.com","countryIso2":"FJ","countryName":"Fiji","hotelRating":"0","latitude":"-16.7839","longitude":"-179.98","state_id":null,"state_name":null,"country_id":null},{"active":false,"Giataid":"245162","cityId":null,"cityName":"Taveuni Island","hotelId":20001467,"hotelName":"Matei Pointe Taveuni","address":"Matei,Taveuni,Fiji","phones":"","fax":"","email":"scottschulman@sbcglobal.net","url":"http://www.fijilodging.com/","countryIso2":"FJ","countryName":"Fiji","hotelRating":"0","latitude":"-16.6885","longitude":"-179.879","state_id":null,"state_name":null,"country_id":null},{"active":false,"Giataid":"137837","cityId":null,"cityName":"Natadola Beach","hotelId":20001646,"hotelName":"Natadola Beach Resort","address":"Maro Road,Natadola Beach,Fiji","phones":"+6796721001","fax":"+6796721000","email":"natadola@connect.com.fj","url":"http://www.natadola.com","countryIso2":"FJ","countryName":"Fiji","hotelRating":"3","latitude":"-18.1041","longitude":"177.322","state_id":null,"state_name":null,"country_id":null},{"active":false,"Giataid":"243062","cityId":null,"cityName":"Coral Coast","hotelId":20001869,"hotelName":"Maui Palms Fiji","address":"Coral Coast,Vitu Levu,Fiji,Fiji","phones":"+6796507082","fax":"","email":"info@mauipalms-accommodation.com","url":"http://www.mauipalms-accommodation.com/","countryIso2":"FJ","countryName":"Fiji","hotelRating":"4","latitude":"-18.1781","longitude":"177.549","state_id":null,"state_name":null,"country_id":null},{"active":false,"Giataid":"517768","cityId":39133,"cityName":"Ba","hotelId":20002341,"hotelName":"Vatia Beach Eco Lodge","address":"Vatia Road,Off Kings Rd,Tavua,PO Box 1929,Ba,Fiji","phones":"+6796254737","fax":"","email":"bookings@vatiabeach.com","url":"http://www.vatiabeach.com/ecolodge","countryIso2":"FJ","countryName":"Fiji","hotelRating":"2","latitude":"-17.4201","longitude":"177.752","state_id":1923,"state_name":"Western Division","country_id":73},{"active":false,"Giataid":"552663","cityId":null,"cityName":"Yasawa Island","hotelId":20002510,"hotelName":"Barefoot Kuata Island","address":"Barefoot Kuata Island,Kuata Island,Ba Province,Yasawa Islands,Fiji","phones":"+6797763040","fax":"","email":"reservations@thebarefootcollection.com","url":"http://www.thebarefootcollection.com/kuata-island","countryIso2":"FJ","countryName":"Fiji","hotelRating":"0","latitude":"-17.362","longitude":"177.134","state_id":null,"state_name":null,"country_id":null},{"active":false,"Giataid":"690020","cityId":null,"cityName":"Yasawa Island","hotelId":20003016,"hotelName":"Naqalia Lodge","address":"P.O. Box 2264,Wayasewa,Yasawa Islands,Fiji","phones":"+6799322650","fax":"","email":"info@naqalialodge-fijiresort.com","url":"http://www.naqalialodge-fijiresort.com","countryIso2":"FJ","countryName":"Fiji","hotelRating":"0","latitude":"-17.347","longitude":"177.151","state_id":null,"state_name":null,"country_id":null},{"active":false,"Giataid":"688884","cityId":null,"cityName":"Taveuni Island","hotelId":20003234,"hotelName":"Raiwasa Grand Villa","address":"P.O. Box 362,Waiyevo,Taveuni,Fiji","phones":"","fax":"","email":"info@raiwasa.com","url":"http://www.fijiluxuryvacation.com/","countryIso2":"FJ","countryName":"Fiji","hotelRating":"0","latitude":"-16.7337","longitude":"-128.493","state_id":null,"state_name":null,"country_id":null},{"active":false,"Giataid":"55802","cityId":null,"cityName":"Naviti Island","hotelId":20003461,"hotelName":"Botaira Beach Resort","address":"Naviti Island,Yasawa Islands,Fiji,Fiji","phones":"","fax":"","email":"","url":"http://www.botaira.com/","countryIso2":"FJ","countryName":"Fiji","hotelRating":"3","latitude":"-17.1389","longitude":"177.208","state_id":null,"state_name":null,"country_id":null},{"active":false,"Giataid":"515811","cityId":null,"cityName":"Taveuni Island","hotelId":20003652,"hotelName":"Taveuni Dive Resort","address":"West Coast Road,P.O. Box 223,Waiyevo,Taveuni,Fiji","phones":"+6798911063","fax":"","email":"inquiry@taveunidiveresort.com","url":"http://www.taveunidiveresort.com","countryIso2":"FJ","countryName":"Fiji","hotelRating":"3","latitude":"-16.8415","longitude":"179.971","state_id":null,"state_name":null,"country_id":null},{"active":false,"Giataid":"534322","cityId":39138,"cityName":"Labasa","hotelId":20003848,"hotelName":"Hotel Northpole","address":"9 Damanu Street,Naseakula Road,Labasa,Fiji","phones":"+6798818008","fax":"+6798818010","email":"resv@northpole.com.fj","url":"http://www.northpole.com.fj","countryIso2":"FJ","countryName":"Fiji","hotelRating":"3","latitude":"-16.4298","longitude":"179.373","state_id":1921,"state_name":"Northern Division","country_id":73},{"active":false,"Giataid":"301309","cityId":39133,"cityName":"Ba","hotelId":20004018,"hotelName":"Navala Lodges","address":"Kings Road,Ba,Fidschi,Fiji","phones":"","fax":"","email":"","url":"","countryIso2":"FJ","countryName":"Fiji","hotelRating":"0","latitude":"-17.5309","longitude":"177.672","state_id":1923,"state_name":"Western Division","country_id":73},{"active":false,"Giataid":"243072","cityId":null,"cityName":"Rakiraki","hotelId":20004224,"hotelName":"Bularangi Villa","address":"7 Sunset Point,Wananavu,Rakiraki,Viti Levu,Fiji","phones":"","fax":"","email":"enquiries@bularangi.com","url":"http://www.bularangi.com/accommodation/fiji/the-villa/","countryIso2":"FJ","countryName":"Fiji","hotelRating":"0","latitude":"-17.3204","longitude":"178.209","state_id":null,"state_name":null,"country_id":null},{"active":false,"Giataid":"488409","cityId":39144,"cityName":"Nadi","hotelId":20004801,"hotelName":"Resort Relax Fiji","address":"Sonaisali Road,Nadi,Fiji","phones":"+6799999847","fax":"","email":"res@resortrelaxfiji.com.fj","url":"https://de.hotels.com/ho548142/resort-relax-fiji-nadi-fidschi/","countryIso2":"FJ","countryName":"Fiji","hotelRating":"3","latitude":"-17.828","longitude":"177.363","state_id":1923,"state_name":"Western Division","country_id":73},{"active":false,"Giataid":"550827","cityId":39144,"cityName":"Nadi","hotelId":20004925,"hotelName":"Bayview Cove Health Resort","address":"Coconut Road,Sonaisali,Nadi,Fiji","phones":"","fax":"","email":"","url":"","countryIso2":"FJ","countryName":"Fiji","hotelRating":"3","latitude":"-17.8263","longitude":"177.364","state_id":1923,"state_name":"Western Division","country_id":73},{"active":false,"Giataid":"243075","cityId":null,"cityName":"Pacific Harbour","hotelId":20005126,"hotelName":"Arts Village","address":"Pacific Harbour,Deuba,Viti Levu,Fiji","phones":"+6793450065","fax":"+6793450866","email":"","url":"http://www.artsvillage.com.fj/contactus.html","countryIso2":"FJ","countryName":"Fiji","hotelRating":"0","latitude":"-18.2477","longitude":"177.886","state_id":null,"state_name":null,"country_id":null},{"active":false,"Giataid":"611075","cityId":39144,"cityName":"Nadi","hotelId":20005271,"hotelName":"Hibiscus Residences Fiji","address":"Lot 25 Normas Place, Enamanu Road,Martintar,Nadi,Fiji","phones":"","fax":"","email":"","url":"","countryIso2":"FJ","countryName":"Fiji","hotelRating":"3","latitude":"-17.7883","longitude":"177.427","state_id":1923,"state_name":"Western Division","country_id":73},{"active":false,"Giataid":"509709","cityId":39144,"cityName":"Nadi","hotelId":20005397,"hotelName":"Stoney Creek Resort Hostel","address":"Queens Highway Sabeto Road,PO Box 143,Sabeto,Nadi,Fiji","phones":"+6797464669","fax":"","email":"stay@stoneycreekfiji.net","url":"http://www.stoneycreekfiji.net","countryIso2":"FJ","countryName":"Fiji","hotelRating":"2","latitude":"-17.7219","longitude":"177.503","state_id":1923,"state_name":"Western Division","country_id":73},{"active":false,"Giataid":"243064","cityId":39144,"cityName":"Nadi","hotelId":20005572,"hotelName":"Feejee Experience","address":"P.O.Box 9612,Nadi Airport,Viti Levu,Fiji","phones":"+67967225950","fax":"","email":"enquiries@feejeeexperience.com","url":"http://www.feejeeexperience.com/","countryIso2":"FJ","countryName":"Fiji","hotelRating":"0","latitude":"-17.8","longitude":"177.417","state_id":1923,"state_name":"Western Division","country_id":73},{"active":false,"Giataid":"511193","cityId":39144,"cityName":"Nadi","hotelId":20005723,"hotelName":"Ratsun Nadi Airport Apartment Hotel","address":"1 Queens Rd,Namaka,Nadi,Fiji","phones":"+6796727435","fax":"+6796727437","email":"reservations@ratsunhotels.com","url":"http://www.ratsunhotels.com/","countryIso2":"FJ","countryName":"Fiji","hotelRating":"4","latitude":"-17.7616","longitude":"177.454","state_id":1923,"state_name":"Western Division","country_id":73},{"active":false,"Giataid":"724269","cityId":39140,"cityName":"Lautoka","hotelId":20005883,"hotelName":"Belo Vula Resort","address":"Bekana Island,Lautoka,Fiji","phones":"+6798697932","fax":"","email":"","url":"http://www.belovula.com/","countryIso2":"FJ","countryName":"Fiji","hotelRating":"0","latitude":"-17.5917","longitude":"177.441","state_id":1923,"state_name":"Western Division","country_id":73},{"active":false,"Giataid":"245156","cityId":null,"cityName":"Sigatoka","hotelId":20006053,"hotelName":"The Crow's Nest Resort","address":"PO Box 270,Sigatoka,Fiji","phones":"+6796500230","fax":"+6796520354","email":"crowsnest@connect.com.fj","url":"http://www.crowsnestfiji.com/","countryIso2":"FJ","countryName":"Fiji","hotelRating":"3","latitude":"-18.177","longitude":"177.544","state_id":null,"state_name":null,"country_id":null},{"active":false,"Giataid":"240763","cityId":39144,"cityName":"Nadi","hotelId":20006209,"hotelName":"Villa 23","address":"Mahesh Dutt Road,Namaka,Viti Levu,Fiji","phones":"","fax":"","email":"","url":"","countryIso2":"FJ","countryName":"Fiji","hotelRating":"0","latitude":"-17.7625","longitude":"177.451","state_id":1923,"state_name":"Western Division","country_id":73},{"active":false,"Giataid":"240767","cityId":39151,"cityName":"Suva","hotelId":20006560,"hotelName":"Quest Suva","address":"Renwick Road,Suva Central,Viti Levu,Fiji","phones":"+6793319119","fax":"+6793319118","email":"stay@questsuva.com","url":"http://www.questapartments.co.nz/Accommodation/133/fiji/suva/quest_suva/welcome.aspx","countryIso2":"FJ","countryName":"Fiji","hotelRating":"4","latitude":"-18.1387","longitude":"178.425","state_id":1929,"state_name":"Central Division","country_id":73},{"active":false,"Giataid":"724268","cityId":39151,"cityName":"Suva","hotelId":20006751,"hotelName":"Dreams Homestay","address":"88 Kaunitoni Street,Suva,Fiji","phones":"","fax":"","email":"","url":"","countryIso2":"FJ","countryName":"Fiji","hotelRating":"0","latitude":"-18.1288","longitude":"178.46","state_id":1929,"state_name":"Central Division","country_id":73},{"active":false,"Giataid":"129433","cityId":39140,"cityName":"Lautoka","hotelId":20006879,"hotelName":"Bekana Garden Island Resort","address":"P.O. Box D661,Lautoka,Fidschi,Viti Levu,Fiji","phones":"","fax":"","email":"","url":"","countryIso2":"FJ","countryName":"Fiji","hotelRating":"3","latitude":"-17.5917","longitude":"177.441","state_id":1923,"state_name":"Western Division","country_id":73},{"active":false,"Giataid":"612730","cityId":null,"cityName":"Sigatoka","hotelId":20007028,"hotelName":"Shalini Garden Hotel & Apartments","address":"Queens Road,Olosara,Sigatoka,Fiji","phones":"","fax":"","email":"","url":"","countryIso2":"FJ","countryName":"Fiji","hotelRating":"3","latitude":"-18.1622","longitude":"177.53","state_id":null,"state_name":null,"country_id":null},{"active":false,"Giataid":"568453","cityId":39144,"cityName":"Nadi","hotelId":20007151,"hotelName":"Gate 8","address":"Westfield,Nadi Airport,Nadi,Viti Levu 679,Fiji","phones":"","fax":"","email":"","url":"","countryIso2":"FJ","countryName":"Fiji","hotelRating":"0","latitude":"-17.7586","longitude":"177.459","state_id":1923,"state_name":"Western Division","country_id":73},{"active":false,"Giataid":"674413","cityId":39144,"cityName":"Nadi","hotelId":20007341,"hotelName":"Fiji Marriott Resort Momi Bay","address":"Savusavu Road,Momi Bay,Nadi,Fiji","phones":"+6796707000","fax":"","email":"","url":"http://www.marriott.com/","countryIso2":"FJ","countryName":"Fiji","hotelRating":"5","latitude":"-17.9348","longitude":"177.261","state_id":1923,"state_name":"Western Division","country_id":73},{"active":false,"Giataid":"689996","cityId":39144,"cityName":"Nadi","hotelId":20007487,"hotelName":"A.I. Apartments","address":"Lot 3,Qalibuto Road,Legalega,Nadi,Fiji","phones":"","fax":"","email":"","url":"","countryIso2":"FJ","countryName":"Fiji","hotelRating":"0","latitude":"-17.7572","longitude":"177.466","state_id":1923,"state_name":"Western Division","country_id":73},{"active":false,"Giataid":"723969","cityId":39144,"cityName":"Nadi","hotelId":20007639,"hotelName":"Bluewater Lodge","address":"Baravi Road,Newtown,Nadi,Fiji","phones":"+6796728858","fax":"","email":"bula@travellersfiji.com","url":"http://www.bluewater-lodge-fj.book.direct/","countryIso2":"FJ","countryName":"Fiji","hotelRating":"0","latitude":"-17.7652","longitude":"177.429","state_id":1923,"state_name":"Western Division","country_id":73},{"active":false,"Giataid":"58104","cityId":null,"cityName":"Beqa Island","hotelId":20007748,"hotelName":"Lawaki Beach House","address":"Beqa,Navua,Viti Levu,Fiji Islands,Fiji","phones":"+6799921621","fax":"","email":"info@lawakibeachhousefiji.com","url":"http://www.lawakibeachhousefiji.com/","countryIso2":"FJ","countryName":"Fiji","hotelRating":"0","latitude":"-18.3944","longitude":"178.123","state_id":null,"state_name":null,"country_id":null},{"active":false,"Giataid":"631858","cityId":null,"cityName":"Nacula Island","hotelId":20008080,"hotelName":"Safe Landing Resort","address":"Nacula Island,Yasawa Islands,Ba Province,Fiji","phones":"","fax":"","email":"enquiries@safelandingfiji.com","url":"https://www.safelandingfiji.com/","countryIso2":"FJ","countryName":"Fiji","hotelRating":"2","latitude":"-16.9286","longitude":"177.398","state_id":null,"state_name":null,"country_id":null},{"active":false,"Giataid":"689082","cityId":null,"cityName":"Taveuni Island","hotelId":20008247,"hotelName":"Vacala Bay Resort","address":"Matei,Taveuni Island East,Taveuni,Fiji","phones":"+6799068600","fax":"","email":"vacalabay@gmail.com","url":"http://vacalabayresort.com","countryIso2":"FJ","countryName":"Fiji","hotelRating":"0","latitude":"-16.6961","longitude":"-179.893","state_id":null,"state_name":null,"country_id":null},{"active":false,"Giataid":"30798","cityId":null,"cityName":"Vanua Levu Island","hotelId":20008358,"hotelName":"Jean-Michel Cousteau Resort","address":"Savusavu,Vanua Levu Island,Fiji","phones":"+67914157885794","fax":"+67914157880150","email":"info@fijiresort.com","url":"http://www.fijiresort.com","countryIso2":"FJ","countryName":"Fiji","hotelRating":"4","latitude":"-16.8135","longitude":"179.287","state_id":null,"state_name":null,"country_id":null},{"active":false,"Giataid":"245158","cityId":null,"cityName":"Savusavu","hotelId":20008534,"hotelName":"Moody's Namena","address":"Savusavu,Fiji,Fiji","phones":"+6798280577","fax":"+6798280901","email":"moodysnamena@connect.com.fj","url":"http://www.moodysnamenafiji.com/","countryIso2":"FJ","countryName":"Fiji","hotelRating":"0","latitude":"-17.1079","longitude":"179.103","state_id":null,"state_name":null,"country_id":null},{"active":false,"Giataid":"508285","cityId":null,"cityName":"Savusavu","hotelId":20008692,"hotelName":"Lani Paradise Retreat","address":"Cakaudrove,Savusavu,Fiji","phones":"","fax":"","email":"","url":"","countryIso2":"FJ","countryName":"Fiji","hotelRating":"4","latitude":"-16.7863","longitude":"179.326","state_id":null,"state_name":null,"country_id":null},{"active":false,"Giataid":"631887","cityId":null,"cityName":"Coral Coast","hotelId":20008826,"hotelName":"Beachouse","address":"1 Queens Highway,Namatakula,Korolevu,Viti Levu,Fiji","phones":"+6797777550","fax":"","email":"info@fijibeachouse.com","url":"http://fijibeachouse.com/beachouse-backpackers-coral-coast-viti-levu-fiji/","countryIso2":"FJ","countryName":"Fiji","hotelRating":"3","latitude":"-18.1886","longitude":"177.684","state_id":null,"state_name":null,"country_id":null},{"active":false,"Giataid":"534316","cityId":null,"cityName":"Coral Coast","hotelId":20008955,"hotelName":"The Beachouse","address":"Queens Highway,P.O. Box 68,Coral Coast,Namatakula,Viti Levu,Fiji","phones":"+6799929500","fax":"","email":"info@fijibeachouse.com","url":"http://fijibeachouse.com/","countryIso2":"FJ","countryName":"Fiji","hotelRating":"0","latitude":"-17.8666","longitude":"177.866","state_id":null,"state_name":null,"country_id":null},{"active":false,"Giataid":"534316","cityId":null,"cityName":"Namatakula","hotelId":20008955,"hotelName":"The Beachouse","address":"Queens Highway,P.O. Box 68,Coral Coast,Namatakula,Viti Levu,Fiji","phones":"+6799929500","fax":"","email":"info@fijibeachouse.com","url":"http://fijibeachouse.com/","countryIso2":"FJ","countryName":"Fiji","hotelRating":"0","latitude":"-17.8666","longitude":"177.866","state_id":null,"state_name":null,"country_id":null},{"active":false,"Giataid":"301311","cityId":null,"cityName":"Sigatoka","hotelId":20009077,"hotelName":"Lomawai Lodge","address":"Lomowai Village,14569 Sigatoka,Fiji","phones":"","fax":"","email":"","url":"","countryIso2":"FJ","countryName":"Fiji","hotelRating":"0","latitude":"-18.142","longitude":"177.506","state_id":null,"state_name":null,"country_id":null},{"active":false,"Giataid":"448074","cityId":39144,"cityName":"Nadi","hotelId":20009354,"hotelName":"Central Sunview Hotel","address":"14 Gray Road,Mountain View Estate,Martintar,Nadi,Fiji","phones":"","fax":"","email":"","url":"","countryIso2":"FJ","countryName":"Fiji","hotelRating":"2","latitude":"-17.7765","longitude":"177.436","state_id":1923,"state_name":"Western Division","country_id":73},{"active":false,"Giataid":"30797","cityId":null,"cityName":"Taveuni Island","hotelId":20009511,"hotelName":"Maravu Plantation","address":"Coastal Road,Matei,Taveuni,Fiji","phones":"+6798880585","fax":"+6798880600","email":"","url":"","countryIso2":"FJ","countryName":"Fiji","hotelRating":"3","latitude":"-16.6936","longitude":"-179.888","state_id":null,"state_name":null,"country_id":null},{"active":false,"Giataid":"243069","cityId":null,"cityName":"Beqa Island","hotelId":20009890,"hotelName":"Lalati Resort & Spa","address":"Malumu Bay,PO Box 461,Beqa Island,Fiji","phones":"+6793680453","fax":"+6793472034","email":"info@lalatifiji.com","url":"http://www.lalatifiji.com","countryIso2":"FJ","countryName":"Fiji","hotelRating":"4","latitude":"-18.3715","longitude":"178.147","state_id":null,"state_name":null,"country_id":null},{"active":false,"Giataid":"243067","cityId":null,"cityName":"Taveuni Island","hotelId":20010296,"hotelName":"Taveuni Palms","address":"P.O. Box 51,Matei,Taveuni,Fiji","phones":"+6798880032","fax":"","email":"info@taveunipalms.com","url":"http://www.taveunipalms.com/","countryIso2":"FJ","countryName":"Fiji","hotelRating":"5","latitude":"-16.69","longitude":"-179.875","state_id":null,"state_name":null,"country_id":null},{"active":false,"Giataid":"41720","cityId":null,"cityName":"Vanua Levu Island","hotelId":20010452,"hotelName":"Lomalagi Resort","address":"Natewa Bay Savusavu,Near Hibiscus Highway,Vanua Levu,Fiji","phones":"+6798500077","fax":"+6798816099","email":"info@lomalagi.com","url":"","countryIso2":"FJ","countryName":"Fiji","hotelRating":"4","latitude":"-16.7529","longitude":"179.511","state_id":null,"state_name":null,"country_id":null},{"active":false,"Giataid":"530536","cityId":null,"cityName":"Savusavu","hotelId":20010580,"hotelName":"Vosa Ni Ua Lodge","address":"Buca Road,Savusavu,Fiji","phones":"","fax":"","email":"","url":"","countryIso2":"FJ","countryName":"Fiji","hotelRating":"0","latitude":"-16.7993","longitude":"179.421","state_id":null,"state_name":null,"country_id":null},{"active":false,"Giataid":"668133","cityId":null,"cityName":"Coral Coast","hotelId":20010928,"hotelName":"Maui Bay Holiday Villas","address":"Lot 5 & Lot 15 Maui Bay Estates,Coral Coast,Fiji","phones":"+6796507110","fax":"","email":"roselyn@mauibayholidayvillasfiji.com","url":"http://www.mauibayholidayvillasfiji.com","countryIso2":"FJ","countryName":"Fiji","hotelRating":"0","latitude":"-18.2029","longitude":"177.673","state_id":null,"state_name":null,"country_id":null},{"active":false,"Giataid":"534333","cityId":null,"cityName":"Pacific Harbour","hotelId":20011211,"hotelName":"Club Oceanus","address":"1 Atoll Place,Pacific Harbour,Fiji","phones":"","fax":"","email":"","url":"","countryIso2":"FJ","countryName":"Fiji","hotelRating":"3","latitude":"-18.2537","longitude":"178.066","state_id":null,"state_name":null,"country_id":null},{"active":false,"Giataid":"301312","cityId":null,"cityName":"Sigatoka","hotelId":20011346,"hotelName":"Tau Lodges","address":"Sigatoka,Insel Viti Levu,Fiji","phones":"","fax":"","email":"","url":"","countryIso2":"FJ","countryName":"Fiji","hotelRating":"0","latitude":"-17.9704","longitude":"177.28","state_id":null,"state_name":null,"country_id":null},{"active":false,"Giataid":"461876","cityId":39144,"cityName":"Nadi","hotelId":20011501,"hotelName":"Galaxy Hotel","address":"184 Queens Road,Nadi,Fiji Islands,Fiji","phones":"+6796702400","fax":"","email":"reception@galaxyhotelfj.com","url":"http://www.galaxyhotelfj.com","countryIso2":"FJ","countryName":"Fiji","hotelRating":"0","latitude":"-17.7939","longitude":"177.422","state_id":1923,"state_name":"Western Division","country_id":73},{"active":false,"Giataid":"594468","cityId":39144,"cityName":"Nadi","hotelId":20011622,"hotelName":"Al-Minhaj Apartments","address":"Lot 6 Vunisalato Road,P.O.Box 742,Nadi,Fiji","phones":"+6796727605","fax":"","email":"enquiries@alminhajapartments.com","url":"http://www.alminhajapartments.com/","countryIso2":"FJ","countryName":"Fiji","hotelRating":"3","latitude":"-17.7641","longitude":"177.446","state_id":1923,"state_name":"Western Division","country_id":73},{"active":false,"Giataid":"724267","cityId":39144,"cityName":"Nadi","hotelId":20011839,"hotelName":"Bua Bed & Breakfast","address":"40 Wasawasa Road,PO Box 7,Nadi,Fiji","phones":"","fax":"","email":"","url":"","countryIso2":"FJ","countryName":"Fiji","hotelRating":"0","latitude":"-17.7661","longitude":"177.428","state_id":1923,"state_name":"Western Division","country_id":73},{"active":false,"Giataid":"937657","cityId":null,"cityName":"Naviti Island","hotelId":20300044,"hotelName":"White Sandy Beach Resort","address":"Yasawa Long Beach,Naviti Island,Fiji","phones":"","fax":"","email":"","url":"","countryIso2":"FJ","countryName":"Fiji","hotelRating":"0","latitude":"-17.1218","longitude":"177.217","state_id":null,"state_name":null,"country_id":null},{"active":false,"Giataid":"941691","cityId":null,"cityName":"Taveuni Island","hotelId":20300045,"hotelName":"Bibi's Hideaway","address":"Matei Road,Waiyevo,Taveuni Island,Fiji","phones":"","fax":"","email":"","url":"","countryIso2":"FJ","countryName":"Fiji","hotelRating":"1","latitude":"-16.7295","longitude":"-119.92","state_id":null,"state_name":null,"country_id":null},{"active":false,"Giataid":"937732","cityId":39144,"cityName":"Nadi","hotelId":20300046,"hotelName":"Westfield Homestay Fiji","address":"Lot 6 Eloto Road,Westfield,Nadi,Fiji","phones":"","fax":"","email":"","url":"","countryIso2":"FJ","countryName":"Fiji","hotelRating":"0","latitude":"-17.755","longitude":"177.459","state_id":1923,"state_name":"Western Division","country_id":73},{"active":false,"Giataid":"941800","cityId":39151,"cityName":"Suva","hotelId":20300047,"hotelName":"Colonial Lodge","address":"19 Anand Street,Off Robertson Road,Suva,Viti Levu,Fiji","phones":"","fax":"","email":"","url":"","countryIso2":"FJ","countryName":"Fiji","hotelRating":"0","latitude":"-18.1386","longitude":"178.426","state_id":1929,"state_name":"Central Division","country_id":73},{"active":false,"Giataid":"937672","cityId":39140,"cityName":"Lautoka","hotelId":20300048,"hotelName":"Mt Batimalu Lodge","address":"Abaca Village,Lautoka,Fiji","phones":"","fax":"","email":"","url":"","countryIso2":"FJ","countryName":"Fiji","hotelRating":"0","latitude":"-17.6672","longitude":"177.427","state_id":1923,"state_name":"Western Division","country_id":73},{"active":false,"Giataid":"941736","cityId":39144,"cityName":"Nadi","hotelId":20300050,"hotelName":"Nadi Airport Transit Hotel","address":"Queens Road Lot 4,Nadi International Airport,Nadi,Viti Levu,Fiji","phones":"","fax":"","email":"","url":"","countryIso2":"FJ","countryName":"Fiji","hotelRating":"0","latitude":"-17.7742","longitude":"177.426","state_id":1923,"state_name":"Western Division","country_id":73},