[{"active":false,"Giataid":"7792","cityId":38770,"cityName":"Helsinki","hotelId":7792,"hotelName":"Anna","address":"Annankatu 1,00120 Helsinki,Finland","phones":"+3589616621","fax":"+3589602664","email":"info@hotelanna.fi","url":"http://www.hotelanna.fi/en/","countryIso2":"FI","countryName":"Finland","hotelRating":"3","latitude":"60.1629","longitude":"24.9426","state_id":1510,"state_name":"Uusimaa","country_id":74},{"active":false,"Giataid":"8044","cityId":38770,"cityName":"Helsinki","hotelId":8044,"hotelName":"Arthur","address":"Vuorikatu 19,00100 Helsinki,Finland","phones":"+3589173411","fax":"+3589626880","email":"myyntipalvelu@hotelarthur.fi","url":"http://www.hotelarthur.fi","countryIso2":"FI","countryName":"Finland","hotelRating":"3","latitude":"60.1722","longitude":"24.9476","state_id":1510,"state_name":"Uusimaa","country_id":74},{"active":false,"Giataid":"11031","cityId":38770,"cityName":"Helsinki","hotelId":11031,"hotelName":"Scandic Kaisaniemi","address":"Kaisaniemenkatu 7,00100 Helsinki,Finland","phones":"+358968999026","fax":"+3589605379","email":"kaisaniemi.cumulus@restel.fi","url":"http://www.cumulus.fi","countryIso2":"FI","countryName":"Finland","hotelRating":"3","latitude":"60.1717","longitude":"24.9479","state_id":1510,"state_name":"Uusimaa","country_id":74},{"active":false,"Giataid":"11032","cityId":38770,"cityName":"Helsinki","hotelId":11032,"hotelName":"Scandic Kallio","address":"L?ntinen Brahenkatu 2,00510 Helsinki,Finland","phones":"+358968999036","fax":"+35896915219","email":"olympia.cumulus@restel.fi","url":"http://www.cumulus.fi/hotellit/olympia/en_GB/olympia/","countryIso2":"FI","countryName":"Finland","hotelRating":"3","latitude":"60.1868","longitude":"24.9481","state_id":1510,"state_name":"Uusimaa","country_id":74},{"active":false,"Giataid":"15157","cityId":38770,"cityName":"Helsinki","hotelId":15157,"hotelName":"Kamp","address":"Pohjoisesplanadi 29,00100 Helsinki,Finland","phones":"+3589576111","fax":"+35895761122","email":"hotelkamp@hotelkamp.fi","url":"http://www.hotelkamp.fi","countryIso2":"FI","countryName":"Finland","hotelRating":"5","latitude":"60.168","longitude":"24.9471","state_id":1510,"state_name":"Uusimaa","country_id":74},{"active":false,"Giataid":"15420","cityId":38770,"cityName":"Helsinki","hotelId":15420,"hotelName":"Klaus K Hotel","address":"Bulevardi 2-4,00120 Helsinki,Finland","phones":"+358207704700","fax":"+358207704730","email":"rooms@klauskhotel.com","url":"http://www.klauskhotel.com","countryIso2":"FI","countryName":"Finland","hotelRating":"4","latitude":"60.1662","longitude":"24.9428","state_id":1510,"state_name":"Uusimaa","country_id":74},{"active":false,"Giataid":"19813","cityId":38770,"cityName":"Helsinki","hotelId":19813,"hotelName":"Radisson Blu Royal","address":"Runeberginkatu 2,00100 Helsinki,Finland","phones":"+358201234701","fax":"+358201234702","email":"info.royal.helsinki@radissonblu.com","url":"http://www.radissonblu.com/royalhotel-helsinki","countryIso2":"FI","countryName":"Finland","hotelRating":"4","latitude":"60.1679","longitude":"24.9293","state_id":1510,"state_name":"Uusimaa","country_id":74},{"active":false,"Giataid":"19900","cityId":38770,"cityName":"Helsinki","hotelId":19900,"hotelName":"Original Sokos Hotel Presidentti","address":"Etel?inen Rautatiekatu 4,00100 Helsinki,Finland","phones":"+358201234608","fax":"+35896947886","email":"presidentti.helsinki@sokoshotels.fi","url":"http://www.sokoshotelpresidentti.fi","countryIso2":"FI","countryName":"Finland","hotelRating":"4","latitude":"60.1707","longitude":"24.9324","state_id":1510,"state_name":"Uusimaa","country_id":74},{"active":false,"Giataid":"21191","cityId":38770,"cityName":"Helsinki","hotelId":21191,"hotelName":"Scandic Grand Marina Hotel ","address":"Katajanokanlaituri 7,00160 Helsinki,Finland","phones":"+358916661","fax":"+3589664764","email":"grandmarina@scandichotels.com","url":"http://www.scandichotels.com/en/Hotels/Countries/Finland/Helsinki/Hotels/Scandic-Grand-Marina/#","countryIso2":"FI","countryName":"Finland","hotelRating":"4","latitude":"60.1657","longitude":"24.9648","state_id":1510,"state_name":"Uusimaa","country_id":74},{"active":false,"Giataid":"21195","cityId":38770,"cityName":"Helsinki","hotelId":21195,"hotelName":"Hotel Scandic Park ","address":"Mannerheimintie 46,00260 Helsinki,Finland","phones":"+358947371","fax":"+358947372211","email":"continentalhelsinki@scandichotels.com","url":"http://www.scandichotels.com/en/Hotels/Countries/Finland/Helsinki/Hotels/Scandic-Continental-Helsinki/","countryIso2":"FI","countryName":"Finland","hotelRating":"4","latitude":"60.1791","longitude":"24.9278","state_id":1510,"state_name":"Uusimaa","country_id":74},{"active":false,"Giataid":"21202","cityId":38770,"cityName":"Helsinki","hotelId":21202,"hotelName":"Scandic Marski Hotel","address":"Mannerheimintie 10,00100 Helsinki,Finland","phones":"+358968061","fax":"+3589642377","email":"marski@scandichotels.com","url":"http://www.scandichotels.com/templates/ScanWeb/Pages/HotelLandingPage.aspx?id=1294&amp;epslanguage=en","countryIso2":"FI","countryName":"Finland","hotelRating":"4","latitude":"60.1676","longitude":"24.9412","state_id":1510,"state_name":"Uusimaa","country_id":74},{"active":false,"Giataid":"21205","cityId":38770,"cityName":"Helsinki","hotelId":21205,"hotelName":"Scandic Simonkentta Hotel","address":"Simonkatu 9,00100 Helsinki,Finland","phones":"+358968380","fax":"+35896838111","email":"simonkentta@scandichotels.com","url":"http://www.scandichotels.com/templates/ScanWeb/Pages/HotelLandingPage.aspx?id=1409&amp;epslanguage=en","countryIso2":"FI","countryName":"Finland","hotelRating":"4","latitude":"60.169","longitude":"24.9351","state_id":1510,"state_name":"Uusimaa","country_id":74},{"active":false,"Giataid":"21828","cityId":38770,"cityName":"Helsinki","hotelId":21828,"hotelName":"Solo Sokos Hotel Torni","address":"Yrj?nkatu 26,00100 Helsinki,Finland","phones":"+358201234604","fax":"+35896980638","email":"torni.helsinki@sokoshotels.fi","url":"http://www.sokoshotels.fi/en/hotels/helsinki/torni/","countryIso2":"FI","countryName":"Finland","hotelRating":"4","latitude":"60.1678","longitude":"24.9385","state_id":1510,"state_name":"Uusimaa","country_id":74},{"active":false,"Giataid":"23534","cityId":38770,"cityName":"Helsinki","hotelId":23534,"hotelName":"Original Sokos Hotel Vaakuna, Helsinki","address":"Asema-Aukio 2,00100 Helsinki,Finland","phones":"+358201234610","fax":"+358943377100","email":"vaakuna.helsinki@sokoshotels.fi","url":"http://www.sokoshotels.fi/hotellit/helsinki/vaakuna/","countryIso2":"FI","countryName":"Finland","hotelRating":"4","latitude":"60.1706","longitude":"24.9389","state_id":1510,"state_name":"Uusimaa","country_id":74},{"active":false,"Giataid":"31941","cityId":38770,"cityName":"Helsinki","hotelId":31941,"hotelName":"Helka","address":"Pohjoinen Rautatiekatu 23,00100 Helsinki,Finland","phones":"+3589613580","fax":"+3589441087","email":"reservations@helka.fi","url":"http://www.helka.fi/varauslomake_eng.html","countryIso2":"FI","countryName":"Finland","hotelRating":"3","latitude":"60.1698","longitude":"24.9272","state_id":1510,"state_name":"Uusimaa","country_id":74},{"active":false,"Giataid":"31964","cityId":39027,"cityName":"Rovaniemi","hotelId":31964,"hotelName":"Santa's Santa Claus","address":"Korkalonkatu 29,96200 Rovaniemi,Finland","phones":"+35816321321","fax":"+358163213222","email":"sales@hotelsantaclaus.fi","url":"http://www.hotelsantaclaus.fi","countryIso2":"FI","countryName":"Finland","hotelRating":"4","latitude":"66.5026","longitude":"25.7324","state_id":1500,"state_name":"Lapland","country_id":74},{"active":false,"Giataid":"31966","cityId":39027,"cityName":"Rovaniemi","hotelId":31966,"hotelName":"Lapland Hotel Ounasvaara Chalets","address":"Antinmukka 4,96600 Rovaniemi,Finland","phones":"+358163234100","fax":"+35816369061","email":"sales@polarholidays.fi","url":"http://www.ounasvaaranpirtit.fi","countryIso2":"FI","countryName":"Finland","hotelRating":"3","latitude":"66.509","longitude":"25.7894","state_id":1500,"state_name":"Lapland","country_id":74},{"active":false,"Giataid":"31967","cityId":39027,"cityName":"Rovaniemi","hotelId":31967,"hotelName":"Scandic Pohjanhovi","address":"Pohjanpuistikko 2,96200 Rovaniemi,Finland","phones":"+358164654014","fax":"+35816313997","email":"pohjanhovi.rantasipi@restel.fi","url":"http://www.rantasipi.fi/hotellit/pohjanhovi/en_GB/home/","countryIso2":"FI","countryName":"Finland","hotelRating":"4","latitude":"66.5025","longitude":"25.7381","state_id":1500,"state_name":"Lapland","country_id":74},{"active":false,"Giataid":"31968","cityId":39027,"cityName":"Rovaniemi","hotelId":31968,"hotelName":"Original Sokos Hotel Vaakuna, Rovaniemi","address":"Koskikatu 4,96200 Rovaniemi,Finland","phones":"+358201234695","fax":"+358163322199","email":"vaakuna.rovaniemi@sokoshotels.fi","url":"http://www.sokoshotels.fi/en/hotels/rovaniemi/","countryIso2":"FI","countryName":"Finland","hotelRating":"4","latitude":"66.5021","longitude":"25.7364","state_id":1500,"state_name":"Lapland","country_id":74},{"active":false,"Giataid":"31969","cityId":null,"cityName":"Levi","hotelId":31969,"hotelName":"Hullu Poro","address":"Rakkavaarantie 5,99130 Levi,Finland","phones":"+358166510100","fax":"+35816641568","email":"hullu.poro@levi.fi","url":"http://www.hulluporo.fi","countryIso2":"FI","countryName":"Finland","hotelRating":"3","latitude":"67.8076","longitude":"24.8136","state_id":null,"state_name":null,"country_id":null},{"active":false,"Giataid":"31970","cityId":null,"cityName":"Levi","hotelId":31970,"hotelName":"Levi Hotel Spa","address":"Levintie 1590,99130 Sirkka,Finland","phones":"+35816646301","fax":"+35816646660","email":"hotel@hotellilevitunturi.fi","url":"http://www.trivago.de/sirkka--levi-117316/hotel/levitunturi-spa-687966","countryIso2":"FI","countryName":"Finland","hotelRating":"4","latitude":"67.8038","longitude":"24.8004","state_id":null,"state_name":null,"country_id":null},{"active":false,"Giataid":"31972","cityId":null,"cityName":"Levi","hotelId":31972,"hotelName":"K5 Levi","address":"K?tk?nrannantie 2,99130 Levi,Finland","phones":"+358166391100","fax":"+358166391333","email":"k5@golevi.fi","url":"http://www.k5levi.fi","countryIso2":"FI","countryName":"Finland","hotelRating":"4","latitude":"67.8055","longitude":"24.7979","state_id":null,"state_name":null,"country_id":null},{"active":false,"Giataid":"31973","cityId":null,"cityName":"Levi","hotelId":31973,"hotelName":"Polarmeeting Reihenhauser","address":"NULL","phones":"","fax":"","email":"","url":"","countryIso2":"FI","countryName":"Finland","hotelRating":"3","latitude":"67.8045","longitude":"24.8189","state_id":null,"state_name":null,"country_id":null},{"active":false,"Giataid":"31974","cityId":null,"cityName":"Yll?s","hotelId":31974,"hotelName":"Yllas Blockhauser","address":"NULL","phones":"","fax":"","email":"","url":"","countryIso2":"FI","countryName":"Finland","hotelRating":"3","latitude":"67.5642","longitude":"24.2287","state_id":null,"state_name":null,"country_id":null},{"active":false,"Giataid":"31976","cityId":38941,"cityName":"Muonio","hotelId":31976,"hotelName":"Holiday Center Loma-Olos","address":"Rovaniementie 351,Muonio 99300,Finland","phones":"","fax":"","email":"","url":"","countryIso2":"FI","countryName":"Finland","hotelRating":"4","latitude":"67.9405","longitude":"23.754","state_id":1500,"state_name":"Lapland","country_id":74},{"active":false,"Giataid":"31977","cityId":38941,"cityName":"Muonio","hotelId":31977,"hotelName":"Lapland Hotel Pallas","address":"Pallastunturintie 560,Pallas,99300 Muonio,Finland","phones":"+35816323355","fax":"","email":"","url":"","countryIso2":"FI","countryName":"Finland","hotelRating":"2","latitude":"68.0461","longitude":"24.0619","state_id":1500,"state_name":"Lapland","country_id":74},{"active":false,"Giataid":"31979","cityId":null,"cityName":"?k?slompolo","hotelId":31979,"hotelName":"Lapland Hotel Yllaskaltio","address":"Sivulantie 7,95970 ?k?slompolo,Finland","phones":"+35816552000","fax":"+35816552251","email":"yllaskaltio@laplandhotels.com","url":"http://www.laplandhotels.com","countryIso2":"FI","countryName":"Finland","hotelRating":"3","latitude":"67.5997","longitude":"24.1511","state_id":null,"state_name":null,"country_id":null},{"active":false,"Giataid":"31980","cityId":null,"cityName":"?k?slompolo","hotelId":31980,"hotelName":"Akaskero WilderneSS Lodge","address":"95970 ?k?slompolo,Finland","phones":"+35816533077","fax":"+35816533078","email":"office@akaskero.com","url":"http://www.akaskero.com","countryIso2":"FI","countryName":"Finland","hotelRating":"3","latitude":"67.6198","longitude":"24.1484","state_id":null,"state_name":null,"country_id":null},{"active":false,"Giataid":"31981","cityId":null,"cityName":"Iso-Sy?te","hotelId":31981,"hotelName":"Iso-Syote","address":"Isosy?tteentie 246,93280 Sy?te,Finland","phones":"+358201476400","fax":"+358207818135","email":"reception@isosyote.fi","url":"http://www.hotelli-isosyote.fi","countryIso2":"FI","countryName":"Finland","hotelRating":"3","latitude":"65.6244","longitude":"27.609","state_id":null,"state_name":null,"country_id":null},{"active":false,"Giataid":"31987","cityId":null,"cityName":"Tahkovuori","hotelId":31987,"hotelName":"Break Sokos Hotel Tahko","address":"S??skiniementie 560,73310 Tahkovuori,Finland","phones":"+358107629550","fax":"+358171923001","email":"reception.tahkovuori@sokoshotels.fi","url":"","countryIso2":"FI","countryName":"Finland","hotelRating":"4","latitude":"63.2917","longitude":"28.0385","state_id":null,"state_name":null,"country_id":null},{"active":false,"Giataid":"34140","cityId":39081,"cityName":"Turku","hotelId":34140,"hotelName":"Hotel Scandic Julia","address":"Eerikinkatu 4,20100 Turku,Finland","phones":"+358385233200","fax":"+35838523320111","email":"plaza.turku@scandichotels.com","url":"http://www.scandichotels.com/Hotels/Countries/Finland/Turku/Hotels/Scandic-Julia/","countryIso2":"FI","countryName":"Finland","hotelRating":"3","latitude":"60.4524","longitude":"22.2719","state_id":1507,"state_name":"Finland Proper","country_id":74},{"active":false,"Giataid":"34141","cityId":38881,"cityName":"Kuopio","hotelId":34141,"hotelName":"Hotel Scandic Kuopio","address":"Satamakatu 1,70100 Kuopio,Finland","phones":"+35817195111","fax":"+358171952211","email":"kuopio@scandichotels.com","url":"http://www.scandichotels.com","countryIso2":"FI","countryName":"Finland","hotelRating":"3","latitude":"62.8875","longitude":"27.6944","state_id":1506,"state_name":"Pirkanmaa","country_id":74},{"active":false,"Giataid":"34142","cityId":38998,"cityName":"Punkaharju","hotelId":34142,"hotelName":"Punkaharju","address":"","phones":"","fax":"","email":"","url":"","countryIso2":"FI","countryName":"Finland","hotelRating":"3","latitude":"61.7899","longitude":"29.3058","state_id":1495,"state_name":"Southern Savonia","country_id":74},{"active":false,"Giataid":"34143","cityId":39041,"cityName":"Savonlinna","hotelId":34143,"hotelName":"Hotel Pietari Kylliainen","address":"Olavinkatu 15,57130 Savonlinna,Finland","phones":"+3581551830","fax":"","email":"","url":"","countryIso2":"FI","countryName":"Finland","hotelRating":"3","latitude":"61.8669","longitude":"28.896","state_id":1495,"state_name":"Southern Savonia","country_id":74},{"active":false,"Giataid":"34146","cityId":39041,"cityName":"Savonlinna","hotelId":34146,"hotelName":"Best Western Spahotel Casino","address":"Kylpylaitoksentie 7,57130 Savonlinna,Finland","phones":"+3581573950","fax":"+35815272524","email":"sales@spahotelcasino.fi","url":"http://www.spahotelcasino.fi","countryIso2":"FI","countryName":"Finland","hotelRating":"3","latitude":"61.871","longitude":"28.8884","state_id":1495,"state_name":"Southern Savonia","country_id":74},{"active":false,"Giataid":"34152","cityId":null,"cityName":"Kuusa","hotelId":34152,"hotelName":"Sinikumpu Ferienhauser","address":"NULL","phones":"","fax":"","email":"","url":"","countryIso2":"FI","countryName":"Finland","hotelRating":"1","latitude":"62.4606","longitude":"25.9413","state_id":null,"state_name":null,"country_id":null},{"active":false,"Giataid":"34155","cityId":null,"cityName":"Rukatunturi","hotelId":34155,"hotelName":"Scandic Rukahovi ","address":"Rukankyl?ntie 15,93830 Rukatunturi,Finland","phones":"+35820048126","fax":"+35888681135","email":"ruka.rantasipi@restel.fi","url":"http://www.rantasipi.fi/hotellit/rukahovi/en_GB/home/","countryIso2":"FI","countryName":"Finland","hotelRating":"4","latitude":"66.1679","longitude":"29.1405","state_id":null,"state_name":null,"country_id":null},{"active":false,"Giataid":"35482","cityId":38770,"cityName":"Helsinki","hotelId":35482,"hotelName":"Radisson Blu Plaza","address":"Mikonkatu 23,00100 Helsinki,Finland","phones":"+358201234700","fax":"+358201234704","email":"info.plaza.helsinki@radissonblu.com","url":"http://www.radissonblu.com/plazahotel-helsinki","countryIso2":"FI","countryName":"Finland","hotelRating":"4","latitude":"60.1725","longitude":"24.9453","state_id":1510,"state_name":"Uusimaa","country_id":74},{"active":false,"Giataid":"36538","cityId":null,"cityName":"Saariselk?","hotelId":36538,"hotelName":"Holiday Club Saariselka","address":"Saarisel?ntie 7,99830 Saariselk?,Finland","phones":"+358306866000","fax":"+35816682328","email":"sales.saariselka@holidayclubhotels.fi","url":"","countryIso2":"FI","countryName":"Finland","hotelRating":"4","latitude":"68.4205","longitude":"27.4184","state_id":null,"state_name":null,"country_id":null},{"active":false,"Giataid":"36727","cityId":38770,"cityName":"Helsinki","hotelId":36727,"hotelName":"City Center","address":"","phones":"","fax":"","email":"","url":"","countryIso2":"FI","countryName":"Finland","hotelRating":"4","latitude":"60.177","longitude":"24.9453","state_id":1510,"state_name":"Uusimaa","country_id":74},{"active":false,"Giataid":"38016","cityId":null,"cityName":"Luosto","hotelId":38016,"hotelName":"Lapland Hotels Luostotunturi","address":"Luostontie 1,99555 Luosto,Finland","phones":"+35816620400","fax":"+358166204500","email":"hotelli@luostotunturi.com","url":"http://www.luostotunturi.com","countryIso2":"FI","countryName":"Finland","hotelRating":"4","latitude":"67.1574","longitude":"26.9149","state_id":null,"state_name":null,"country_id":null},{"active":false,"Giataid":"38114","cityId":38770,"cityName":"Helsinki","hotelId":38114,"hotelName":"Hilton Strand","address":"John Stenbergin Ranta 4,00530 Helsinki,Finland","phones":"+358939351","fax":"+358939353255","email":"","url":"http://www.hilton.de/helsinkistrand","countryIso2":"FI","countryName":"Finland","hotelRating":"4","latitude":"60.177","longitude":"24.9516","state_id":1510,"state_name":"Uusimaa","country_id":74},{"active":false,"Giataid":"38218","cityId":38770,"cityName":"Helsinki","hotelId":38218,"hotelName":"Radisson Blu Seaside","address":"Ruoholahdenranta 3,00180 Helsinki,Finland","phones":"+358201234700","fax":"+358201234708","email":"info.seaside.helsinki@radissonsas.com","url":"http://www.radissonsas.com/cs/Satellite/Page/RadissonSAS/Page/rsasHotelDescription/1053502949880/en/","countryIso2":"FI","countryName":"Finland","hotelRating":"4","latitude":"60.1618","longitude":"24.9246","state_id":1510,"state_name":"Uusimaa","country_id":74},{"active":false,"Giataid":"38372","cityId":null,"cityName":"Rauhala","hotelId":38372,"hotelName":"Lappland Dream","address":"99135 Rauhala,Jerisjarvi-See,Lappland,Finland","phones":"+358408213587","fax":"+35816533391","email":"lauri.temmes@winterdream.inet.fi","url":"http://www.winterdream.com/","countryIso2":"FI","countryName":"Finland","hotelRating":"5","latitude":"67.891","longitude":"24.2137","state_id":null,"state_name":null,"country_id":null},{"active":false,"Giataid":"38521","cityId":null,"cityName":"Saariselk?","hotelId":38521,"hotelName":"Santa's Hotel Tunturi","address":"Lutontie 3,99830 Saariselk?,Finland","phones":"+3581668111","fax":"+35816668771","email":"sales@tunturihotelli.fi","url":"http://www.tunturihotelli.fi","countryIso2":"FI","countryName":"Finland","hotelRating":"3","latitude":"68.4194","longitude":"27.4268","state_id":null,"state_name":null,"country_id":null},{"active":false,"Giataid":"38522","cityId":null,"cityName":"Pyh?","hotelId":38522,"hotelName":"Hotel Pyhatunturi","address":"Kultakeronkatu 21,98530 Pyh?tunturi,Finland","phones":"+35888600400","fax":"+35816882740","email":"info@hotellipyhatunturi.fi","url":"http://www.hotellipyhatunturi.fi","countryIso2":"FI","countryName":"Finland","hotelRating":"3","latitude":"67.0216","longitude":"27.2422","state_id":null,"state_name":null,"country_id":null},{"active":false,"Giataid":"38523","cityId":null,"cityName":"Levi","hotelId":38523,"hotelName":"Lapland Hotel Sirkantahti","address":"Levintie 1630,99130 Sirkka,Finland","phones":"+35816323500","fax":"+358163235520","email":"sirkantahti@laplandhotels.com","url":"","countryIso2":"FI","countryName":"Finland","hotelRating":"3","latitude":"67.8056","longitude":"24.8013","state_id":null,"state_name":null,"country_id":null},{"active":false,"Giataid":"38525","cityId":null,"cityName":"?k?slompolo","hotelId":38525,"hotelName":"Villa Armas","address":"95970 ?k?slompolo,Finland","phones":"+358165103300","fax":"+35816569611","email":"info@destinationlapland.com","url":"https://shop.destinationlapland.com/cottageDetail/1298","countryIso2":"FI","countryName":"Finland","hotelRating":"4","latitude":"67.6047","longitude":"24.1763","state_id":null,"state_name":null,"country_id":null},{"active":false,"Giataid":"38839","cityId":null,"cityName":"Yll?sj?rvi","hotelId":38839,"hotelName":"Lapland Hotel Saaga & Apartments","address":"Iso-Yll?ksentie 42,95980 Yll?sj?rvi,Finland","phones":"+35816323600","fax":"+358162158888","email":"hotel@yllassaaga.fi","url":"http://www.yllassaaga.fi/","countryIso2":"FI","countryName":"Finland","hotelRating":"4","latitude":"67.5513","longitude":"24.2505","state_id":null,"state_name":null,"country_id":null},{"active":false,"Giataid":"39373","cityId":38877,"cityName":"Kuhmo","hotelId":39373,"hotelName":"Kalevala","address":"V?in?m?inen 9,88900 Kuhmo,Finland","phones":"+35886554100","fax":"+35886554200","email":"info@hotellikalevala.fi","url":"http://www.hotellikalevala.fi","countryIso2":"FI","countryName":"Finland","hotelRating":"4","latitude":"64.1187","longitude":"29.5883","state_id":1496,"state_name":"Kainuu","country_id":74},{"active":false,"Giataid":"39374","cityId":null,"cityName":"Saariselk?","hotelId":39374,"hotelName":"Hotel Kieppi","address":"Saanatunturintie 1,01230 Lappi,Finland","phones":"+358165544600","fax":"+358165544700","email":"reservations@hotellikieppi.fi","url":"http://www.hotellikieppi.fi","countryIso2":"FI","countryName":"Finland","hotelRating":"2","latitude":"68.4194","longitude":"27.4188","state_id":null,"state_name":null,"country_id":null},{"active":false,"Giataid":"39375","cityId":null,"cityName":"Saariselk?","hotelId":39375,"hotelName":"Lapland Hotel Riekonlinna","address":"Saarisel?ntie 13,99830 Saariselk?,Finland","phones":"+358165594455","fax":"+358165594456","email":"riekonlinna@laplandhotels.com","url":"","countryIso2":"FI","countryName":"Finland","hotelRating":"3","latitude":"68.4215","longitude":"27.4262","state_id":null,"state_name":null,"country_id":null},{"active":false,"Giataid":"39984","cityId":38770,"cityName":"Helsinki","hotelId":39984,"hotelName":"Holiday Inn Helsinki City Centre","address":"Elielinaukio 5,00100 Helsinki,Finland","phones":"+358954255000","fax":"+358954255299","email":"Helsinki.hihcc@restel.fi","url":"http://www.holidayinn.com/hotels/us/en/helsinki/helek/hoteldetail?_requestid=167879#","countryIso2":"FI","countryName":"Finland","hotelRating":"4","latitude":"60.1724","longitude":"24.9392","state_id":1510,"state_name":"Uusimaa","country_id":74},{"active":false,"Giataid":"93418","cityId":39081,"cityName":"Turku","hotelId":40341,"hotelName":"Holiday Inn Turku","address":"Eerikinkatu 28-30,20100 Turku,Finland","phones":"+3582338211","fax":"+35823382299","email":"turku.holidayinn@restel.fi","url":"http://www.finland.holidayinn.com/hotellit/turku","countryIso2":"FI","countryName":"Finland","hotelRating":"4","latitude":"60.448","longitude":"22.2586","state_id":1507,"state_name":"Finland Proper","country_id":74},{"active":false,"Giataid":"40342","cityId":null,"cityName":"Koli","hotelId":40342,"hotelName":"Break Sokos Hotel Koli","address":"Yl?-Kolintie 39,83960 Koli,Finland","phones":"+358201234662","fax":"+358107623629","email":"sales.koli@sokoshotels.fi","url":"http://www.sokoshotels.fi/hotellit/koli/","countryIso2":"FI","countryName":"Finland","hotelRating":"4","latitude":"63.0966","longitude":"29.8059","state_id":null,"state_name":null,"country_id":null},{"active":false,"Giataid":"40347","cityId":38899,"cityName":"Lappeenranta","hotelId":40347,"hotelName":"Scandic Patria Hotel","address":"Kauppakatu 21,53100 Lappeenranta,Finland","phones":"+3585677511","fax":"+35854512441","email":"patria@scandichotels.com","url":"http://www.scandichotels.com/Hotels/Countries/Finland/Lappeenranta/Hotels/Scandic-Patria/","countryIso2":"FI","countryName":"Finland","hotelRating":"4","latitude":"61.0614","longitude":"28.184","state_id":1497,"state_name":"South Karelia","country_id":74},{"active":false,"Giataid":"439351","cityId":null,"cityName":"Svart? Mustio","hotelId":40561,"hotelName":"Mustio Manor","address":"H?llsn?sintie 89,10360 Mustio,Raasepori,Finland","phones":"","fax":"","email":"","url":"","countryIso2":"FI","countryName":"Finland","hotelRating":"1","latitude":"60.177","longitude":"24.9453","state_id":null,"state_name":null,"country_id":null},{"active":false,"Giataid":"40825","cityId":39027,"cityName":"Rovaniemi","hotelId":40825,"hotelName":"Hotel Scandic Rovaniemi ","address":"Koskikatu 23,96200 Rovaniemi,Finland","phones":"+358164606000","fax":"+358164606666","email":"rovaniemi@scandichotels.com","url":"http://www.scandichotels.com/Hotels/Countries/Finland/Rovaniemi/Hotels/Scandic-Rovaniemi/?hotelpage=overview","countryIso2":"FI","countryName":"Finland","hotelRating":"4","latitude":"66.5029","longitude":"25.7271","state_id":1500,"state_name":"Lapland","country_id":74},{"active":false,"Giataid":"41137","cityId":39099,"cityName":"Vantaa","hotelId":41137,"hotelName":"Scandic Helsinki Aviapolis","address":"Robert Huberin tie 6,01510 Vantaa,Finland","phones":"+358968999030","fax":"+358941575800","email":"vantaa.cumulus@restel.fi","url":"http://www.cumulus.fi/hotellit/airport/en_GB/airport/","countryIso2":"FI","countryName":"Finland","hotelRating":"4","latitude":"60.2973","longitude":"24.9618","state_id":1510,"state_name":"Uusimaa","country_id":74},{"active":false,"Giataid":"41617","cityId":39099,"cityName":"Vantaa","hotelId":41617,"hotelName":"Bonus Inn Airport","address":"Elannontie 9,01510 Vantaa,Finland","phones":"+3589825511","fax":"+358982551818","email":"hotel@bonusinn.fi","url":"http://www.bonusinn.fi","countryIso2":"FI","countryName":"Finland","hotelRating":"3","latitude":"60.289","longitude":"24.9501","state_id":1510,"state_name":"Uusimaa","country_id":74},{"active":false,"Giataid":"41618","cityId":38770,"cityName":"Helsinki","hotelId":41618,"hotelName":"Holiday Inn Helsinki - Vantaa Airport","address":"R?lssitie 2,01510 Helsinki,Finland,Finland","phones":"+35820048111","fax":"+358987090101","email":"","url":"http://www.ichotelsgroup.com/h/d/hi/1/en/hotel/helfi?firstpoint=dcb2&amp;_franchisee=HELFI&amp;HI;jsessionid=XDTWSJXIHSFQCCTGWAKCJ0QKM0YDKIY4&amp;_requestid=276866","countryIso2":"FI","countryName":"Finland","hotelRating":"3","latitude":"60.2952","longitude":"24.9715","state_id":1510,"state_name":"Uusimaa","country_id":74},{"active":false,"Giataid":"41623","cityId":38760,"cityName":"Hankasalmi","hotelId":41623,"hotelName":"Revontuli","address":"Revontulentie 1,41500 Hankasalmi,Finland","phones":"+358148448200","fax":"","email":"myynti@revontuli.fi","url":"http://www.revontuli.fi","countryIso2":"FI","countryName":"Finland","hotelRating":"3","latitude":"62.2905","longitude":"26.4913","state_id":1511,"state_name":"Central Finland","country_id":74},{"active":false,"Giataid":"41624","cityId":38881,"cityName":"Kuopio","hotelId":41624,"hotelName":"Spa Hotel Rauhalahti","address":"Katiskaniementie 8,70700 Kuopio,Finland","phones":"+3583060830","fax":"","email":"myynti@rauhalahti.fi","url":"http://www.rauhalahti.fi/en/majoitus/kylpylahotelli.php","countryIso2":"FI","countryName":"Finland","hotelRating":"3","latitude":"62.8667","longitude":"27.6434","state_id":1506,"state_name":"Pirkanmaa","country_id":74},{"active":false,"Giataid":"46865","cityId":39099,"cityName":"Vantaa","hotelId":46865,"hotelName":"Scandic Helsinki Aviacongress","address":"Robert Huberin tie 4,01510 Vantaa,Finland","phones":"+358968999031","fax":"+358941577101","email":"airport.rantasipi@restel.fi","url":"http://www.rantasipi.fi/hotellit/airport/en_GB/home/","countryIso2":"FI","countryName":"Finland","hotelRating":"3","latitude":"60.2965","longitude":"24.9617","state_id":1510,"state_name":"Uusimaa","country_id":74},{"active":false,"Giataid":"48491","cityId":38770,"cityName":"Helsinki","hotelId":48491,"hotelName":"Original Sokos Hotel Helsinki, Helsinki","address":"Kluuvikatu 8,00100 Helsinki,Finland","phones":"+358201234601","fax":"+3589176014","email":"hotelhelsinki.helsinki@sokoshotels.fi","url":"http://www.sokoshotels.fi/hotellit/helsinki/helsinki/","countryIso2":"FI","countryName":"Finland","hotelRating":"4","latitude":"60.1696","longitude":"24.9472","state_id":1510,"state_name":"Uusimaa","country_id":74},{"active":false,"Giataid":"49926","cityId":null,"cityName":"H?meenlinna","hotelId":49926,"hotelName":"Scandic Aulanko","address":"Aulangontie 93,13210 H?meenlinna,Tavastia Proper,Finland","phones":"+358341081633","fax":"+35836821922","email":"aulanko.rantasipi@restel.fi","url":"http://www.rantasipi.fi/rantasipi!/hotellit/aulanko/","countryIso2":"FI","countryName":"Finland","hotelRating":"4","latitude":"61.0227","longitude":"24.4428","state_id":null,"state_name":null,"country_id":null},{"active":false,"Giataid":"49927","cityId":38770,"cityName":"Helsinki","hotelId":49927,"hotelName":"Seurahuone Helsinki","address":"Kaivokatu 12,00100 Helsinki,Finland","phones":"+358968999035","fax":"+35896914010","email":"helsinki.seurahuone@restel.fi","url":"http://www.hotelliseurahuone.fi","countryIso2":"FI","countryName":"Finland","hotelRating":"4","latitude":"60.1701","longitude":"24.9398","state_id":1510,"state_name":"Uusimaa","country_id":74},{"active":false,"Giataid":"49928","cityId":38885,"cityName":"Kuusamo","hotelId":49928,"hotelName":"Holiday Club Kuusamon Tropiikki","address":"Kylpyl?ntie 5,93600 Kuusamo,Finland","phones":"+358300870961","fax":"+35888521909","email":"sales@hcresorts.com","url":"http://hcresorts.com/en/resorts/kuusamontropiikki/introduction/","countryIso2":"FI","countryName":"Finland","hotelRating":"4","latitude":"66.0017","longitude":"29.1673","state_id":1505,"state_name":"Northern Ostrobothnia","country_id":74},{"active":false,"Giataid":"49929","cityId":null,"cityName":"Tampere","hotelId":49929,"hotelName":"Lapland Hotels Tampere","address":"Yliopistonkatu 44,near Tampere Hall,33100 Tampere,Region Pirkanmaa,Finland","phones":"+35833830000","fax":"+35832455100","email":"tampere.holidayinn@restel.fi","url":"http://www.holidayinn.com/hotels/de/de/tampere/tmpfi/hoteldetail","countryIso2":"FI","countryName":"Finland","hotelRating":"4","latitude":"61.4978","longitude":"23.7795","state_id":null,"state_name":null,"country_id":null},{"active":false,"Giataid":"570257","cityId":null,"cityName":"Tampere","hotelId":49930,"hotelName":"Radisson Blu Grand Hotel Tammer","address":"Satakunnankatu, 13,33100 Tampere,Finland","phones":"+358201234632","fax":"+358356976266","email":"tammer.tampere@sokoshotels.fi","url":"http://www.sokoshotels.fi/en/hotels/tampere/tammer/","countryIso2":"FI","countryName":"Finland","hotelRating":"4","latitude":"61.501","longitude":"23.7647","state_id":null,"state_name":null,"country_id":null},{"active":false,"Giataid":"50184","cityId":38770,"cityName":"Helsinki","hotelId":50184,"hotelName":"Original Sokos Hotel Pasila, Helsinki","address":"Maistraatinportti 3,00240 Helsinki,Finland","phones":"+358201234613","fax":"+3589143771","email":"pasila.helsinki@sokoshotels.fi","url":"http://www.sokoshotels.fi/en/hotels/helsinki/pasila/","countryIso2":"FI","countryName":"Finland","hotelRating":"3","latitude":"60.1987","longitude":"24.9257","state_id":1510,"state_name":"Uusimaa","country_id":74},{"active":false,"Giataid":"51086","cityId":null,"cityName":"H?meenlinna","hotelId":51086,"hotelName":"Scandic Hameenlinna City","address":"Raatihuoneenkatu 16,13100 H?meenlinna,Finland","phones":"+358341081632","fax":"+35836488299","email":"hameenlinna.cumulus@restel.fi","url":"http://www.cumulus.fi/hotellit/hameenlinna/en_GB/hameenlinna/","countryIso2":"FI","countryName":"Finland","hotelRating":"4","latitude":"60.9954","longitude":"24.4614","state_id":null,"state_name":null,"country_id":null},{"active":false,"Giataid":"51087","cityId":null,"cityName":"Tampere","hotelId":51087,"hotelName":"Scandic Tampere Hameenpuisto","address":"H?meenpuisto 47,33200 Tampere,Finland","phones":"+358341081628","fax":"+35833862299","email":"hameenpuisto.cumulus@restel.fi","url":"http://www.cumulus.fi/hotellit/hameenpuisto/en_GB/hameenpuisto/","countryIso2":"FI","countryName":"Finland","hotelRating":"3","latitude":"61.493","longitude":"23.754","state_id":null,"state_name":null,"country_id":null},{"active":false,"Giataid":"51225","cityId":38748,"cityName":"Espoo","hotelId":51225,"hotelName":"Hotel Scandic Espoo ","address":"Nihtisillantie 1,02630 Espoo,Finland","phones":"+358943520","fax":"+358943522211","email":"espoo@scandichotels.com","url":"http://www.scandichotels.com/Hotels/Countries/Finland/Espoo/Hotels/Scandic-Espoo/#.UMLknqzNkxE","countryIso2":"FI","countryName":"Finland","hotelRating":"3","latitude":"60.2072","longitude":"24.7556","state_id":1510,"state_name":"Uusimaa","country_id":74},{"active":false,"Giataid":"51234","cityId":38966,"cityName":"Oulu","hotelId":51234,"hotelName":"Scandic Oulu Station","address":"Kajaaninkatu 17,90100 Oulu,Finland","phones":"+358823748949","fax":"+35888827299","email":"oulu.cumulus@restel.fi","url":"http://www.cumulus.fi/hotellit/oulu/en_GB/oulu/","countryIso2":"FI","countryName":"Finland","hotelRating":"3","latitude":"65.0132","longitude":"25.4806","state_id":1505,"state_name":"Northern Ostrobothnia","country_id":74},{"active":false,"Giataid":"51250","cityId":null,"cityName":"Jyv?skyl?","hotelId":51250,"hotelName":"Cumulus City Jyvaskyla","address":"V?in?nkatu 3,40100 Jyv?skyl?,Finland","phones":"+35820048120","fax":"+35814653299","email":"jyvaskyla.cumulus@restel.fi","url":"http://www.cumulus.fi/hotellit/jyvaskyla/en_GB/jyvaskyla/","countryIso2":"FI","countryName":"Finland","hotelRating":"3","latitude":"62.2425","longitude":"25.7519","state_id":null,"state_name":null,"country_id":null},{"active":false,"Giataid":"76245","cityId":38770,"cityName":"Helsinki","hotelId":76245,"hotelName":"Holiday Inn Helsinki - West Ruoholahti","address":"Sulhasenkuja 3,00180 Helsinki,Finland","phones":"+358941521000","fax":"+358941521299","email":"helsinki.hihw@restel.fi","url":"http://www.ihg.com/holidayinn/hotels/us/en/helsinki/helwe/hoteldetail?cm_mmc=GoogleMaps-_-hi-_-FIEN-_-helwe","countryIso2":"FI","countryName":"Finland","hotelRating":"4","latitude":"60.1647","longitude":"24.9104","state_id":1510,"state_name":"Uusimaa","country_id":74},{"active":false,"Giataid":"128464","cityId":38970,"cityName":"Paimio","hotelId":128464,"hotelName":"Valtatie 1","address":"","phones":"","fax":"","email":"","url":"","countryIso2":"FI","countryName":"Finland","hotelRating":"1","latitude":"0","longitude":"0","state_id":1507,"state_name":"Finland Proper","country_id":74},{"active":false,"Giataid":"130925","cityId":38752,"cityName":"Forssa","hotelId":130925,"hotelName":"Rantasipi Forssa","address":"Saarelankatu 12,30100 Forssa,Finland","phones":"+358341941","fax":"+35834194299","email":"forssa.rantasipi@restel.fi","url":"http://www.rantasipi.fi/hotellit/forssa/en_GB/home/","countryIso2":"FI","countryName":"Finland","hotelRating":"4","latitude":"60.8268","longitude":"23.637","state_id":1493,"state_name":"Tavastia Proper","country_id":74},{"active":false,"Giataid":"130928","cityId":38770,"cityName":"Helsinki","hotelId":130928,"hotelName":"Hotel Rantapuisto","address":"Furuborginkatu 3,00980 Helsinki,Finland","phones":"+358931911","fax":"","email":"","url":"","countryIso2":"FI","countryName":"Finland","hotelRating":"3","latitude":"60.1949","longitude":"25.1151","state_id":1510,"state_name":"Uusimaa","country_id":74},{"active":false,"Giataid":"130929","cityId":null,"cityName":"Hyvink??","hotelId":130929,"hotelName":"Scandic Hyvinkaa","address":"H?meenkatu 2-4,05800 Hyvink??,Finland","phones":"+358194291100","fax":"+35819452409","email":"","url":"http://www.cumulus.fi/hotellit/hyvinkaa/en_GB/hyvinkaa/","countryIso2":"FI","countryName":"Finland","hotelRating":"3","latitude":"60.6311","longitude":"24.8597","state_id":null,"state_name":null,"country_id":null},{"active":false,"Giataid":"130930","cityId":null,"cityName":"Hyvink??","hotelId":130930,"hotelName":"Spahotel Sveitsi","address":"Harkavehmaankatu 4,05900 Hyvinkaa,Finland","phones":"+3581945881","fax":"+35819419020","email":"sveitsi.rantasipi@restel.fi","url":"http://www.rantasipi.fi/rantasipi!/hotellit/sveitsi/","countryIso2":"FI","countryName":"Finland","hotelRating":"4","latitude":"60.6326","longitude":"24.8325","state_id":null,"state_name":null,"country_id":null},{"active":false,"Giataid":"130931","cityId":38841,"cityName":"Kemi","hotelId":130931,"hotelName":"Merihovi","address":"Keskuspuistokatu 6-8,94100 Kemi,Finland","phones":"+358406853500","fax":"","email":"","url":"","countryIso2":"FI","countryName":"Finland","hotelRating":"4","latitude":"65.7373","longitude":"24.5625","state_id":1500,"state_name":"Lapland","country_id":74},{"active":false,"Giataid":"130932","cityId":38872,"cityName":"Kotka","hotelId":130932,"hotelName":"Scandic Kotka","address":"Kyminlinnantie 18,48600 Kotka,Finland","phones":"+35857899200","fax":"+35852693299","email":"kotka.cumulus@restel.fi","url":"http://www.cumulus.fi/hotellit/kotka/en_GB/kotka/","countryIso2":"FI","countryName":"Finland","hotelRating":"3","latitude":"60.5115","longitude":"26.9193","state_id":1512,"state_name":"Kymenlaakso","country_id":74},{"active":false,"Giataid":"130933","cityId":38874,"cityName":"Kouvola","hotelId":130933,"hotelName":"Scandic Kouvola","address":"Kouvolankatu 11,45100 Kouvola,Finnland,Finland","phones":"+35857899100","fax":"+35857899299","email":"kouvola.cumulus@restel.fi","url":"http://www.cumulus.fi/hotellit/kouvola/en_GB/kouvola/","countryIso2":"FI","countryName":"Finland","hotelRating":"3","latitude":"60.8677","longitude":"26.7044","state_id":1512,"state_name":"Kymenlaakso","country_id":74},{"active":false,"Giataid":"130934","cityId":38881,"cityName":"Kuopio","hotelId":130934,"hotelName":"Scandic Atlas","address":"Haapaniemenkatu 22,70110 Kuopio,Finland","phones":"+358300870423","fax":"","email":"","url":"","countryIso2":"FI","countryName":"Finland","hotelRating":"3","latitude":"62.8919","longitude":"27.6768","state_id":1506,"state_name":"Pirkanmaa","country_id":74},{"active":false,"Giataid":"130935","cityId":38892,"cityName":"Lahti","hotelId":130935,"hotelName":"Scandic Lahti City","address":"Kauppakatu 10,15140 Lahti,Finland","phones":"+358341081624","fax":"+35837818922","email":"lahti.cumulus@restel.fi","url":"http://www.cumulus.fi/hotellit/lahti/en_GB/lahti/","countryIso2":"FI","countryName":"Finland","hotelRating":"4","latitude":"60.9835","longitude":"25.664","state_id":1502,"state_name":"Päijänne Tavastia","country_id":74},{"active":false,"Giataid":"130936","cityId":38899,"cityName":"Lappeenranta","hotelId":130936,"hotelName":"Scandic Lappeenranta City","address":"Valtakatu 31,53100 Lappeenranta,Finland","phones":"+35857899400","fax":"+35856778299","email":"lappeenranta.cumulus@restel.fi","url":"http://www.cumulus.fi/hotellit/lappeenranta/en_GB/lappeenranta/","countryIso2":"FI","countryName":"Finland","hotelRating":"3","latitude":"61.0579","longitude":"28.1847","state_id":1497,"state_name":"South Karelia","country_id":74},{"active":false,"Giataid":"130939","cityId":null,"cityName":"Nokia","hotelId":130939,"hotelName":"Scandic Eden Nokia","address":"Paratiisikatu 2,37120 Nokia,Finland","phones":"+358341081627","fax":"+35833421800","email":"eden.rantasipi@restel.fi","url":"http://www.rantasipi.fi/hotellit/eden/en_GB/home/","countryIso2":"FI","countryName":"Finland","hotelRating":"4","latitude":"61.4678","longitude":"23.5299","state_id":null,"state_name":null,"country_id":null},{"active":false,"Giataid":"130940","cityId":38991,"cityName":"Pori","hotelId":130940,"hotelName":"Cumulus City Pori","address":"Yrj?nkatu 24,corner Itsenaisyydenkatu 37,28100 Pori,Finland,Finland","phones":"+35820048132","fax":"+35825509299","email":"pori.cumulus@restel.fi","url":"http://www.cumulus.fi/hotellit/pori/en_GB/pori/","countryIso2":"FI","countryName":"Finland","hotelRating":"3","latitude":"61.482","longitude":"21.7962","state_id":1501,"state_name":"Satakunta","country_id":74},{"active":false,"Giataid":"130942","cityId":39016,"cityName":"Rauma","hotelId":130942,"hotelName":"Scandic Rauma","address":"Aittakarinkatu 9,26100 Rauma,Finland","phones":"+358248081616","fax":"+358283782299","email":"rauma.cumulus@restel.fi","url":"http://www.cumulus.fi/hotellit/rauma/en_GB/rauma/","countryIso2":"FI","countryName":"Finland","hotelRating":"3","latitude":"61.1263","longitude":"21.5002","state_id":1501,"state_name":"Satakunta","country_id":74},{"active":false,"Giataid":"130943","cityId":39016,"cityName":"Rauma","hotelId":130943,"hotelName":"Kalliohovi Hotel","address":"Kalliokatu 25,26100 Rauma,Western Finland Province,Finland","phones":"+358283881","fax":"+358283882400","email":"kalliohovi@kalliohovi.fi","url":"http://www.kalliohovi.fi/en/best_western_hotel_kalliohovi/","countryIso2":"FI","countryName":"Finland","hotelRating":"3","latitude":"61.1292","longitude":"21.4941","state_id":1501,"state_name":"Satakunta","country_id":74},{"active":false,"Giataid":"130944","cityId":39027,"cityName":"Rovaniemi","hotelId":130944,"hotelName":"Santa's Hostel Rudolf","address":"Koskikatu 41-43,96200 Rovaniemi,Suomi,Finland","phones":"+35816321321","fax":"+358163213222","email":"rudolf@santashotels.fi","url":"http://www.hotelsantaclaus.fi/Suomeksi/Muut_majoitukset/santas_hostel_rudolf.iw3","countryIso2":"FI","countryName":"Finland","hotelRating":"2","latitude":"66.5053","longitude":"25.719","state_id":1500,"state_name":"Lapland","country_id":74},{"active":false,"Giataid":"130945","cityId":39037,"cityName":"Salo","hotelId":130945,"hotelName":"Scandic Salo","address":"L?nsiranta 10,24100 Salo,Finland","phones":"+358248081613","fax":"+35822114599","email":"salo.cumulus@restel.fi","url":"http://www.cumulus.fi/hotellit/salo/en_GB/salo/","countryIso2":"FI","countryName":"Finland","hotelRating":"3","latitude":"60.3862","longitude":"23.1277","state_id":1507,"state_name":"Finland Proper","country_id":74},{"active":false,"Giataid":"130946","cityId":null,"cityName":"Sein?joki","hotelId":130946,"hotelName":"Omena Hotel Seinajoki","address":"Kalevankatu 2,60100 Sein?joki,Finland","phones":"+358207716555","fax":"","email":"","url":"","countryIso2":"FI","countryName":"Finland","hotelRating":"3","latitude":"62.7906","longitude":"22.8428","state_id":null,"state_name":null,"country_id":null},{"active":false,"Giataid":"130947","cityId":null,"cityName":"Sein?joki","hotelId":130947,"hotelName":"Scandic Seinajoki","address":"Kauppakatu 10,60100 Sein?joki,Finland","phones":"+358624130019","fax":"+35864186299","email":"seinajoki.cumulus@restel.fi","url":"http://www.cumulus.fi/hotellit/seinajoki/en_GB/seinajoki/","countryIso2":"FI","countryName":"Finland","hotelRating":"3","latitude":"62.7895","longitude":"22.8422","state_id":null,"state_name":null,"country_id":null},{"active":false,"Giataid":"130948","cityId":null,"cityName":"Tampere","hotelId":130948,"hotelName":"Victoria","address":"Itsen?isyydenkatu 1,33100 Tampere,Finland","phones":"+35832425111","fax":"+35832425100","email":"sales@hotellivictoria.fi","url":"http://www.hotellivictoria.fi/english/","countryIso2":"FI","countryName":"Finland","hotelRating":"3","latitude":"61.4992","longitude":"23.7771","state_id":null,"state_name":null,"country_id":null},{"active":false,"Giataid":"130949","cityId":null,"cityName":"Tampere","hotelId":130949,"hotelName":"Kesahotelli Aurora","address":"Satakunnankatu 10,33100 Tampere,Finland","phones":"+358503562124","fax":"+35832415555","email":"pinja.cumulus@restel.fi","url":"http://www.cumulus.fi/hotellit/pinja/en_GB/pinja/","countryIso2":"FI","countryName":"Finland","hotelRating":"3","latitude":"61.5015","longitude":"23.7678","state_id":null,"state_name":null,"country_id":null},{"active":false,"Giataid":"130950","cityId":39081,"cityName":"Turku","hotelId":130950,"hotelName":"Hotel Artukaisten Paviljonki","address":"Messukent?nkatu 11,20210 Turku,Finland","phones":"","fax":"","email":"","url":"","countryIso2":"FI","countryName":"Finland","hotelRating":"3","latitude":"60.4525","longitude":"22.1866","state_id":1507,"state_name":"Finland Proper","country_id":74},{"active":false,"Giataid":"130951","cityId":39081,"cityName":"Turku","hotelId":130951,"hotelName":"Ruissalo Spa","address":"Ruissalon puistotie 640,20100 Turku,Finland","phones":"+358244540","fax":"+35824454590","email":"info@ruissalospa.fi","url":"http://www.ruissalospa.fi","countryIso2":"FI","countryName":"Finland","hotelRating":"3","latitude":"60.4255","longitude":"22.1044","state_id":1507,"state_name":"Finland Proper","country_id":74},{"active":false,"Giataid":"130952","cityId":39095,"cityName":"Vaasa","hotelId":130952,"hotelName":"Scandic Waskia","address":"Lemmenpolku 3,65170 Vaasa,Finland","phones":"+358624130018","fax":"+35862838888","email":"tropiclandia.rantasipi@restel.fi","url":"http://www.rantasipi.fi/hotellit/tropiclandia/en_GB/home/","countryIso2":"FI","countryName":"Finland","hotelRating":"4","latitude":"63.0883","longitude":"21.5896","state_id":1508,"state_name":"Ostrobothnia","country_id":74},{"active":false,"Giataid":"130954","cityId":39114,"cityName":"Vuokatti","hotelId":130954,"hotelName":"Break Sokos Hotel Vuokatti","address":"Kidekuja 2,88610 Vuokatti,Finland","phones":"+358107831000","fax":"","email":"","url":"","countryIso2":"FI","countryName":"Finland","hotelRating":"4","latitude":"64.1408","longitude":"28.2941","state_id":1496,"state_name":"Kainuu","country_id":74},{"active":false,"Giataid":"135362","cityId":null,"cityName":"Luosto","hotelId":135362,"hotelName":"Santa's Hotel Aurora","address":"Luppokeino 1,99555 Luosto,Finland","phones":"+358400102200","fax":"+358163272730","email":"sales@aurorachalet.fi","url":"http://www.aurorachalet.fi","countryIso2":"FI","countryName":"Finland","hotelRating":"4","latitude":"67.1548","longitude":"26.9123","state_id":null,"state_name":null,"country_id":null},{"active":false,"Giataid":"135365","cityId":null,"cityName":"Levi","hotelId":135365,"hotelName":"Break Sokos Hotel Levi","address":"T?htitie, 5,99130 Levi,Finland","phones":"+358163215500","fax":"+358163215505","email":"sales.levi@sokoshotels.fi","url":"http://www.sokoshotels.fi/en/hotels/levi/","countryIso2":"FI","countryName":"Finland","hotelRating":"4","latitude":"67.8059","longitude":"24.8049","state_id":null,"state_name":null,"country_id":null},{"active":false,"Giataid":"137797","cityId":38966,"cityName":"Oulu","hotelId":137797,"hotelName":"Lapland Hotel Oulu","address":"Kirkkokatu 3,90100 Oulu,Finland","phones":"+35888811110","fax":"+35888839100","email":"oulu.holidayinn@restel.fi","url":"http://www.holidayinn.com/hotels/de/de/oulu/oulfi/hoteldetail","countryIso2":"FI","countryName":"Finland","hotelRating":"4","latitude":"65.0154","longitude":"25.4761","state_id":1505,"state_name":"Northern Ostrobothnia","country_id":74},{"active":false,"Giataid":"138185","cityId":38798,"cityName":"Joensuu","hotelId":138185,"hotelName":"Original Sokos Hotel Vaakuna, Joensuu","address":"Torikatu 20,80100 Joensuu,Finnland,Finland","phones":"+358107823100","fax":"","email":"","url":"","countryIso2":"FI","countryName":"Finland","hotelRating":"3","latitude":"62.6015","longitude":"29.7642","state_id":1504,"state_name":"North Karelia","country_id":74},{"active":false,"Giataid":"142208","cityId":38770,"cityName":"Helsinki","hotelId":142208,"hotelName":"Stadion","address":"Pohjoinen Stadiontie, 4,00250 Helsinki,Finland","phones":"+35894778480","fax":"+358947784811","email":"info@stadionhostel.fi","url":"http://stadionhostel.fi","countryIso2":"FI","countryName":"Finland","hotelRating":"2","latitude":"60.1877","longitude":"24.9258","state_id":1510,"state_name":"Uusimaa","country_id":74},{"active":false,"Giataid":"151721","cityId":39095,"cityName":"Vaasa","hotelId":151721,"hotelName":"Astor Vaasa","address":"Asemakatu 4,65100 Vaasa,Finland","phones":"+35863269111","fax":"","email":"","url":"","countryIso2":"FI","countryName":"Finland","hotelRating":"4","latitude":"63.0969","longitude":"21.6211","state_id":1508,"state_name":"Ostrobothnia","country_id":74},{"active":false,"Giataid":"151725","cityId":38998,"cityName":"Punkaharju","hotelId":151725,"hotelName":"Fontana Punkaharjun Valtionhotelli","address":"Pasilanraitio 5,58450 Punkaharju,Finland","phones":"","fax":"","email":"","url":"","countryIso2":"FI","countryName":"Finland","hotelRating":"3","latitude":"61.7899","longitude":"29.3058","state_id":1495,"state_name":"Southern Savonia","country_id":74},{"active":false,"Giataid":"151726","cityId":38748,"cityName":"Espoo","hotelId":151726,"hotelName":"Hanasaari-Hanaholmen","address":"Hanasaarenranta 5,02100 Espoo,Finland","phones":"+3589435020","fax":"","email":"","url":"","countryIso2":"FI","countryName":"Finland","hotelRating":"3","latitude":"60.1638","longitude":"24.8361","state_id":1510,"state_name":"Uusimaa","country_id":74},{"active":false,"Giataid":"151727","cityId":38770,"cityName":"Helsinki","hotelId":151727,"hotelName":"Haven","address":"Unioninkatu 17,00130 Helsinki,Finland","phones":"+3589681930","fax":"","email":"sales@hotelhaven.fi","url":"http://www.hotelhaven.fi/","countryIso2":"FI","countryName":"Finland","hotelRating":"5","latitude":"60.1665","longitude":"24.9514","state_id":1510,"state_name":"Uusimaa","country_id":74},{"active":false,"Giataid":"151728","cityId":null,"cityName":"Kerim?ki","hotelId":151728,"hotelName":"Hotel & Restaurant Rehabilitation Center Herttua","address":"Veneenniementie 64,58200 Kerim?ki,Finland","phones":"+35815769900","fax":"","email":"","url":"","countryIso2":"FI","countryName":"Finland","hotelRating":"3","latitude":"61.9211","longitude":"29.3071","state_id":null,"state_name":null,"country_id":null},{"active":false,"Giataid":"151729","cityId":38849,"cityName":"Keuruu","hotelId":151729,"hotelName":"Hotel KeuruSSelka","address":"Keurusselantie 134,42700 Keuruu,Finland","phones":"+3581475100","fax":"","email":"","url":"","countryIso2":"FI","countryName":"Finland","hotelRating":"3","latitude":"62.2039","longitude":"24.6557","state_id":1511,"state_name":"Central Finland","country_id":74},{"active":false,"Giataid":"151730","cityId":38748,"cityName":"Espoo","hotelId":151730,"hotelName":"Hotel Lepolampi","address":"Kivilammentie 1,02820 Espoo,Finland","phones":"+358986791","fax":"","email":"","url":"","countryIso2":"FI","countryName":"Finland","hotelRating":"2","latitude":"60.2605","longitude":"24.5061","state_id":1510,"state_name":"Uusimaa","country_id":74},{"active":false,"Giataid":"151732","cityId":38748,"cityName":"Espoo","hotelId":151732,"hotelName":"Kartanokylpyla Kaisankoti","address":"Bodomintie 37,02740 Espoo,Finland","phones":"+3589887191","fax":"","email":"","url":"","countryIso2":"FI","countryName":"Finland","hotelRating":"3","latitude":"60.2763","longitude":"24.6664","state_id":1510,"state_name":"Uusimaa","country_id":74},{"active":false,"Giataid":"151733","cityId":38748,"cityName":"Espoo","hotelId":151733,"hotelName":"Korpilampi Hotel","address":"Korpilammentie 5,02970 Espoo,Finland","phones":"+35896138411","fax":"","email":"","url":"","countryIso2":"FI","countryName":"Finland","hotelRating":"3","latitude":"60.3248","longitude":"24.73","state_id":1510,"state_name":"Uusimaa","country_id":74},{"active":false,"Giataid":"151735","cityId":38770,"cityName":"Helsinki","hotelId":151735,"hotelName":"Conference Hotel Sofia","address":"Kallvikinniementie 35,00980 Helsinki,Finland","phones":"+35810277900","fax":"","email":"","url":"","countryIso2":"FI","countryName":"Finland","hotelRating":"2","latitude":"60.1898","longitude":"25.1357","state_id":1510,"state_name":"Uusimaa","country_id":74},{"active":false,"Giataid":"151736","cityId":38966,"cityName":"Oulu","hotelId":151736,"hotelName":"Hotel Restaurant Lasaretti","address":"Kasarmintie 13,P.O.Box 404,90101 Oulu,Finland","phones":"+358207574700","fax":"","email":"","url":"","countryIso2":"FI","countryName":"Finland","hotelRating":"4","latitude":"65.0209","longitude":"25.485","state_id":1505,"state_name":"Northern Ostrobothnia","country_id":74},{"active":false,"Giataid":"151737","cityId":null,"cityName":"Riihim?ki","hotelId":151737,"hotelName":"Scandic Riihimaki Hotel ","address":"H?meenaukio 1,11100 Riihim?ki,Finland","phones":"+358197721","fax":"","email":"","url":"","countryIso2":"FI","countryName":"Finland","hotelRating":"3","latitude":"60.7352","longitude":"24.7682","state_id":null,"state_name":null,"country_id":null},{"active":false,"Giataid":"151738","cityId":null,"cityName":"Tampere","hotelId":151738,"hotelName":"Mango Hotel","address":"Hatanp??n puistokuja 36,33900 Tampere,Finland","phones":"+358106662111","fax":"","email":"","url":"","countryIso2":"FI","countryName":"Finland","hotelRating":"3","latitude":"61.4835","longitude":"23.7676","state_id":null,"state_name":null,"country_id":null},{"active":false,"Giataid":"151739","cityId":38948,"cityName":"Naantali","hotelId":151739,"hotelName":"Naantali Spa Hotel","address":"Matkailijantie 2,21100 Naantali,Finland","phones":"+358244550","fax":"+35824455621","email":"info@naantalispa.fi","url":"http://www.naantalispa.fi","countryIso2":"FI","countryName":"Finland","hotelRating":"5","latitude":"60.4737","longitude":"22.0332","state_id":1507,"state_name":"Finland Proper","country_id":74},{"active":false,"Giataid":"151741","cityId":38817,"cityName":"Kalajoki","hotelId":151741,"hotelName":"Hotelli Rantakalla","address":"Matkailutie 150,Hiekkas?rk?t,85100 Kalajoki,Finland","phones":"+3588466642","fax":"","email":"","url":"","countryIso2":"FI","countryName":"Finland","hotelRating":"3","latitude":"64.2427","longitude":"23.8228","state_id":1505,"state_name":"Northern Ostrobothnia","country_id":74},{"active":false,"Giataid":"151742","cityId":null,"cityName":"J?rvenp??","hotelId":151742,"hotelName":"Scandic Jarvenpaa Hotel ","address":"Asema-aukio,04400 J?rvenp??,Finland","phones":"+358927141","fax":"+35892715755","email":"jarvenpaa@scandichotels.com","url":"http://www.scandichotels.com/Hotels/Countries/Finland/Jarvenpaa/Hotels/Jarvenpaa/","countryIso2":"FI","countryName":"Finland","hotelRating":"4","latitude":"60.4727","longitude":"25.0908","state_id":null,"state_name":null,"country_id":null},{"active":false,"Giataid":"151743","cityId":38993,"cityName":"Porvoo","hotelId":151743,"hotelName":"Seurahovi Hotel","address":"Rauhankatu 27,06100 Porvoo,Finland","phones":"+3581954761","fax":"","email":"","url":"","countryIso2":"FI","countryName":"Finland","hotelRating":"3","latitude":"60.3931","longitude":"25.6656","state_id":1510,"state_name":"Uusimaa","country_id":74},{"active":false,"Giataid":"151744","cityId":38770,"cityName":"Helsinki","hotelId":151744,"hotelName":"Original Sokos Hotel Albert, Helsinki","address":"Albertinkatu 30,00120 Helsinki,Finland","phones":"+358201234638","fax":"","email":"","url":"http://www.sokoshotels.fi","countryIso2":"FI","countryName":"Finland","hotelRating":"4","latitude":"60.1628","longitude":"24.9352","state_id":1510,"state_name":"Uusimaa","country_id":74},{"active":false,"Giataid":"151745","cityId":39099,"cityName":"Vantaa","hotelId":151745,"hotelName":"Break Sokos Hotel Flamingo","address":"Tasetie 8,01510 Vantaa,Finnland,Finland","phones":"+358201234605","fax":"+358201234606","email":"flamingo.vantaa@sokoshotels.fi","url":"http://www.sokoshotels.fi/en/hotels/vantaa/flamingo/","countryIso2":"FI","countryName":"Finland","hotelRating":"4","latitude":"60.2908","longitude":"24.9698","state_id":1510,"state_name":"Uusimaa","country_id":74},{"active":false,"Giataid":"151749","cityId":38869,"cityName":"Korsholm","hotelId":151749,"hotelName":"Hotel Vallonia","address":"Centrumv?gen 3,65610 Korsholm,Vaasa,Finland","phones":"+35863288200","fax":"","email":"","url":"","countryIso2":"FI","countryName":"Finland","hotelRating":"3","latitude":"63.112","longitude":"21.6789","state_id":1508,"state_name":"Ostrobothnia","country_id":74},{"active":false,"Giataid":"151786","cityId":38770,"cityName":"Helsinki","hotelId":151786,"hotelName":"Fenno","address":"Kaarlenkatu 7,00530 Helsinki,Finland","phones":"+3589774980","fax":"+35897016889","email":"reception@hotelfenno.fi","url":"http://www.hotelfenno.fi/","countryIso2":"FI","countryName":"Finland","hotelRating":"1","latitude":"60.1854","longitude":"24.9518","state_id":1510,"state_name":"Uusimaa","country_id":74},{"active":false,"Giataid":"187475","cityId":38787,"cityName":"Imatra","hotelId":187475,"hotelName":"Imatran Kylpyla Spa","address":"Purjekuja 2,55420 Imatra,Finland","phones":"+358207100500","fax":"","email":"","url":"","countryIso2":"FI","countryName":"Finland","hotelRating":"4","latitude":"61.2116","longitude":"28.7247","state_id":1497,"state_name":"South Karelia","country_id":74},{"active":false,"Giataid":"187476","cityId":38892,"cityName":"Lahti","hotelId":187476,"hotelName":"MustA-Kissa","address":"Rautatienkatu 21,15110 Lahti,Finland","phones":"","fax":"","email":"","url":"","countryIso2":"FI","countryName":"Finland","hotelRating":"3","latitude":"60.9837","longitude":"25.6596","state_id":1502,"state_name":"Päijänne Tavastia","country_id":74},{"active":false,"Giataid":"187493","cityId":38748,"cityName":"Espoo","hotelId":187493,"hotelName":"Espoo Kivenlahti Aparthotel","address":"Tyrskyvuori 4,02320 Espoo,Finland","phones":"","fax":"","email":"","url":"","countryIso2":"FI","countryName":"Finland","hotelRating":"3","latitude":"60.1484","longitude":"24.6372","state_id":1510,"state_name":"Uusimaa","country_id":74},{"active":false,"Giataid":"187949","cityId":38748,"cityName":"Espoo","hotelId":187949,"hotelName":"Hotel Kuninkaantie","address":"Lakelankatu 1,02770 Espoo,Uusimaa,Greater Helsinki,Finland","phones":"+358105408340","fax":"","email":"","url":"","countryIso2":"FI","countryName":"Finland","hotelRating":"3","latitude":"60.2083","longitude":"24.6592","state_id":1510,"state_name":"Uusimaa","country_id":74},{"active":false,"Giataid":"203746","cityId":39027,"cityName":"Rovaniemi","hotelId":203746,"hotelName":"Aakenus","address":"Koskikatu 47,96100 Rovaniemi,Finland","phones":"+358163422051","fax":"","email":"","url":"","countryIso2":"FI","countryName":"Finland","hotelRating":"3","latitude":"66.5058","longitude":"25.7173","state_id":1500,"state_name":"Lapland","country_id":74},{"active":false,"Giataid":"204108","cityId":null,"cityName":"Jyv?skyl?","hotelId":204108,"hotelName":"Hotel Alba","address":"Ahlmaninkatu 4,40100 Jyv?skyl?,Finland","phones":"+35814636311","fax":"","email":"","url":"","countryIso2":"FI","countryName":"Finland","hotelRating":"3","latitude":"62.2309","longitude":"25.736","state_id":null,"state_name":null,"country_id":null},{"active":false,"Giataid":"207183","cityId":39081,"cityName":"Turku","hotelId":207183,"hotelName":"Centro Hotel","address":"Yliopistonkatu 12a,20100 Turku,Finland","phones":"+35822118100","fax":"","email":"","url":"","countryIso2":"FI","countryName":"Finland","hotelRating":"3","latitude":"60.4535","longitude":"22.2709","state_id":1507,"state_name":"Finland Proper","country_id":74},{"active":false,"Giataid":"207921","cityId":38798,"cityName":"Joensuu","hotelId":207921,"hotelName":"Scandic Joensuu","address":"Kirkkokatu 20,80100 Joensuu,Finland","phones":"+358137131077","fax":"","email":"","url":"","countryIso2":"FI","countryName":"Finland","hotelRating":"4","latitude":"62.6023","longitude":"29.7603","state_id":1504,"state_name":"North Karelia","country_id":74},{"active":false,"Giataid":"209253","cityId":38770,"cityName":"Helsinki","hotelId":209253,"hotelName":"Hotel Finn","address":"Kalevankatu 3 B,00100 Helsinki,Finland","phones":"+35896844360","fax":"","email":"","url":"","countryIso2":"FI","countryName":"Finland","hotelRating":"2","latitude":"60.1679","longitude":"24.9395","state_id":1510,"state_name":"Uusimaa","country_id":74},{"active":false,"Giataid":"210203","cityId":39099,"cityName":"Vantaa","hotelId":210203,"hotelName":"Hameenkyla Manor","address":"Juustenintie 1,01630 Vantaa,Finland","phones":"+358105408350","fax":"","email":"","url":"","countryIso2":"FI","countryName":"Finland","hotelRating":"3","latitude":"60.2711","longitude":"24.7878","state_id":1510,"state_name":"Uusimaa","country_id":74},{"active":false,"Giataid":"210401","cityId":39081,"cityName":"Turku","hotelId":210401,"hotelName":"Hotel Helmi","address":"Tuureporinkatu 11,20100 Turku,Finland","phones":"+358207862770","fax":"","email":"","url":"","countryIso2":"FI","countryName":"Finland","hotelRating":"3","latitude":"60.4561","longitude":"22.268","state_id":1507,"state_name":"Finland Proper","country_id":74},{"active":false,"Giataid":"210627","cityId":null,"cityName":"Tampere","hotelId":210627,"hotelName":"Homeland","address":"Kullervonkatu 19,33500 Tampere,Finland","phones":"+358331260200","fax":"","email":"","url":"","countryIso2":"FI","countryName":"Finland","hotelRating":"3","latitude":"61.5032","longitude":"23.7818","state_id":null,"state_name":null,"country_id":null},{"active":false,"Giataid":"212057","cityId":null,"cityName":"Tampere","hotelId":212057,"hotelName":"Kauppi","address":"Kalevan puistotie 2,33500 Tampere,Finland","phones":"+35832535353","fax":"+35832534611","email":"kauppi@avainhotellit.fi","url":"http://www.hotelli-kauppi.fi/","countryIso2":"FI","countryName":"Finland","hotelRating":"3","latitude":"61.5057","longitude":"23.7859","state_id":null,"state_name":null,"country_id":null},{"active":false,"Giataid":"213248","cityId":null,"cityName":"Levi","hotelId":213248,"hotelName":"Hotel Levi Panorama","address":"Tunturitie 205,99130 Levi,Finland","phones":"+358163363000","fax":"+358163363010","email":"info@levipanorama.fi","url":"http://www.levipanorama.fi","countryIso2":"FI","countryName":"Finland","hotelRating":"4","latitude":"67.7989","longitude":"24.8111","state_id":null,"state_name":null,"country_id":null},{"active":false,"Giataid":"214604","cityId":38864,"cityName":"Kokkola","hotelId":214604,"hotelName":"Hotelli Nukkumatti","address":"Rautatienkatu 10,67100 Kokkola,Finland","phones":"+35868243200","fax":"","email":"","url":"","countryIso2":"FI","countryName":"Finland","hotelRating":"3","latitude":"63.8361","longitude":"23.1454","state_id":1494,"state_name":"Central Ostrobothnia","country_id":74},{"active":false,"Giataid":"214756","cityId":null,"cityName":"Yll?sj?rvi","hotelId":214756,"hotelName":"On-Piste","address":"","phones":"","fax":"","email":"","url":"","countryIso2":"FI","countryName":"Finland","hotelRating":"1","latitude":"67.5389","longitude":"24.2703","state_id":null,"state_name":null,"country_id":null},{"active":false,"Giataid":"217979","cityId":38864,"cityName":"Kokkola","hotelId":217979,"hotelName":"Hotel Seurahuone","address":"Torikatu 24,67100 Kokkola,Finland","phones":"+358207959600","fax":"+358207959609","email":"myynti@seurahuone.com","url":"http://www.seurahuone.com/home","countryIso2":"FI","countryName":"Finland","hotelRating":"3","latitude":"63.8386","longitude":"23.1319","state_id":1494,"state_name":"Central Ostrobothnia","country_id":74},{"active":false,"Giataid":"218246","cityId":38817,"cityName":"Kalajoki","hotelId":218246,"hotelName":"Spa Hotel Sani","address":"Jukupolku 3-5,85100 Kalajoki,Finland","phones":"+35884692500","fax":"","email":"","url":"","countryIso2":"FI","countryName":"Finland","hotelRating":"4","latitude":"64.2326","longitude":"23.8111","state_id":1505,"state_name":"Northern Ostrobothnia","country_id":74},{"active":false,"Giataid":"218492","cityId":null,"cityName":"Sein?joki","hotelId":218492,"hotelName":"Hotel Sorsanpesa","address":"T?rn?v?ntie 27,60200 Sein?joki,Finland","phones":"+358207418181","fax":"","email":"","url":"","countryIso2":"FI","countryName":"Finland","hotelRating":"3","latitude":"62.7583","longitude":"22.8411","state_id":null,"state_name":null,"country_id":null},{"active":false,"Giataid":"220583","cityId":38770,"cityName":"Helsinki","hotelId":220583,"hotelName":"Vuoranta","address":"Vilsandinkuja 4,00980 Helsinki,Finland","phones":"","fax":"","email":"","url":"","countryIso2":"FI","countryName":"Finland","hotelRating":"3","latitude":"60.196","longitude":"25.1199","state_id":1510,"state_name":"Uusimaa","country_id":74},{"active":false,"Giataid":"221078","cityId":null,"cityName":"M?ntt?-Vilppula","hotelId":221078,"hotelName":"Hotelli Alexander","address":"Kauppakatu 23,35800 M?ntt?,Westfinnland,Finland","phones":"+35834749232","fax":"","email":"","url":"","countryIso2":"FI","countryName":"Finland","hotelRating":"3","latitude":"62.0286","longitude":"24.6215","state_id":null,"state_name":null,"country_id":null},{"active":false,"Giataid":"221186","cityId":39093,"cityName":"Uusikaupunki","hotelId":221186,"hotelName":"Hotel Aquarius","address":"Kullervontie 11B,23500 Uusikaupunki,Finland","phones":"+35828413123","fax":"+35828413540","email":"hotelli@hotelliaquarius.fi","url":"http://www.hotelliaquarius.fi","countryIso2":"FI","countryName":"Finland","hotelRating":"3","latitude":"60.7957","longitude":"21.3981","state_id":1507,"state_name":"Finland Proper","country_id":74},{"active":false,"Giataid":"222440","cityId":null,"cityName":"Pirkkala","hotelId":222440,"hotelName":"Kiviranta Meetings & Events Centre","address":"Kivirannantie 5,33960 Pirkkala,Finland","phones":"","fax":"","email":"","url":"","countryIso2":"FI","countryName":"Finland","hotelRating":"1","latitude":"61.4706","longitude":"23.6226","state_id":null,"state_name":null,"country_id":null},{"active":false,"Giataid":"222439","cityId":null,"cityName":"Luum?ki","hotelId":222439,"hotelName":"Hotelli Salpa","address":"Lappeenrannantie 265,54530 Luum?ki,Finland","phones":"+358103113840","fax":"","email":"info@hotellisalpa.fi","url":"https://www.hotellisalpa.fi","countryIso2":"FI","countryName":"Finland","hotelRating":"3","latitude":"60.96","longitude":"27.8041","state_id":null,"state_name":null,"country_id":null},{"active":false,"Giataid":"222441","cityId":38814,"cityName":"Kaarina","hotelId":222441,"hotelName":"Kivitasku","address":"Aittakatu 1,20780 Kaarina,Finland","phones":"+35822424920","fax":"","email":"kivitasku@avainhotellit.fi","url":"http://www.avainhotellit.fi/kivitasku/","countryIso2":"FI","countryName":"Finland","hotelRating":"3","latitude":"60.4077","longitude":"22.3707","state_id":1507,"state_name":"Finland Proper","country_id":74},{"active":false,"Giataid":"222833","cityId":null,"cityName":"Patokoski","hotelId":222833,"hotelName":"Motel Virsta","address":"Kittil?ntie 4901,97310 Patokoski,Finland","phones":"","fax":"","email":"","url":"","countryIso2":"FI","countryName":"Finland","hotelRating":"1","latitude":"66.8669","longitude":"25.455","state_id":null,"state_name":null,"country_id":null},{"active":false,"Giataid":"223463","cityId":null,"cityName":"Kuusankoski","hotelId":223463,"hotelName":"Hotel Sommelo","address":"Pallokent?ntie 2,45700 Kuusankoski,Finland","phones":"+3585740701","fax":"+35857407300","email":"sommelo@avainhotellit.fi","url":"http://www.avainhotellit.fi/sommelo","countryIso2":"FI","countryName":"Finland","hotelRating":"3","latitude":"60.9058","longitude":"26.625","state_id":null,"state_name":null,"country_id":null},{"active":false,"Giataid":"223514","cityId":null,"cityName":"Nauvo","hotelId":223514,"hotelName":"Hotel Strandbo Nauvo","address":"Nauvon Ranta 3,21660 Nauvo,Finland","phones":"+358505627862","fax":"","email":"myynti@strandbo.fi","url":"http://www.strandbo.fi/english/hotel-strandbo.html","countryIso2":"FI","countryName":"Finland","hotelRating":"3","latitude":"60.1938","longitude":"21.9112","state_id":null,"state_name":null,"country_id":null},{"active":false,"Giataid":"223663","cityId":null,"cityName":"Sastamala","hotelId":223663,"hotelName":"Vammalan Seurahuone","address":"Puistokatu 4,38200 Sastamala,Finland","phones":"+358351941","fax":"","email":"","url":"","countryIso2":"FI","countryName":"Finland","hotelRating":"3","latitude":"61.3419","longitude":"22.9088","state_id":null,"state_name":null,"country_id":null},{"active":false,"Giataid":"227157","cityId":null,"cityName":"Suomutunturi","hotelId":227157,"hotelName":"Arctic Circle","address":"V?lipolku 2-4,98720 Suomutunturi,Finland","phones":"+358201620670","fax":"+358201620699","email":"","url":"http://www.arcticcircle-hotel.com","countryIso2":"FI","countryName":"Finland","hotelRating":"3","latitude":"66.5604","longitude":"28.031","state_id":null,"state_name":null,"country_id":null},{"active":false,"Giataid":"227234","cityId":38770,"cityName":"Helsinki","hotelId":227234,"hotelName":"Scandic Hakaniemi","address":"Siltasaarenkatu 14,00530 Helsinki,Finland","phones":"+358968999034","fax":"+358954660101","email":"hakaniemi.cumulus@restel.fi","url":"http://www.cumulus.fi/hotellit/hakaniemi/en_GB/hakaniemi/","countryIso2":"FI","countryName":"Finland","hotelRating":"3","latitude":"60.179","longitude":"24.9497","state_id":1510,"state_name":"Uusimaa","country_id":74},{"active":false,"Giataid":"228460","cityId":null,"cityName":"Rukatunturi","hotelId":228460,"hotelName":"RukaSuites Apartments","address":"Rukankyl?ntie 8,93825 Rukatunturi,Finland","phones":"+35888600225","fax":"+35888600201","email":"myynti@ruka.fi","url":"","countryIso2":"FI","countryName":"Finland","hotelRating":"1","latitude":"66.1675","longitude":"29.1382","state_id":null,"state_name":null,"country_id":null},{"active":false,"Giataid":"230583","cityId":38748,"cityName":"Espoo","hotelId":230583,"hotelName":"Matinlahti","address":"Rantam?ki 3,02230 Espoo,Finland","phones":"","fax":"","email":"","url":"http://www.espoo.a-finland.com/hotel-matinlahti","countryIso2":"FI","countryName":"Finland","hotelRating":"3","latitude":"60.1531","longitude":"24.7552","state_id":1510,"state_name":"Uusimaa","country_id":74},{"active":false,"Giataid":"230589","cityId":null,"cityName":"Kilpisj?rvi","hotelId":230589,"hotelName":"Lapland Hotel Kilpis","address":"99490 Kilpisj?rvi,Finland","phones":"+35816323300","fax":"+35816537767","email":"kilpis@laplandhotels.com","url":"http://www.laplandhotels.com/DE/hotels/lapland-hotel-kilpis.html","countryIso2":"FI","countryName":"Finland","hotelRating":"2","latitude":"69.0443","longitude":"20.8033","state_id":null,"state_name":null,"country_id":null},{"active":false,"Giataid":"230799","cityId":38788,"cityName":"Inari","hotelId":230799,"hotelName":"Korpikartano","address":"Meneskartanontie 71,99870 Inari,Lappland,Finland","phones":"+358407774339","fax":"","email":"menesjarvi@menesjarvi.fi","url":"http://www.menesjarvi.fi/index.htm","countryIso2":"FI","countryName":"Finland","hotelRating":"3","latitude":"68.749","longitude":"26.4142","state_id":1500,"state_name":"Lapland","country_id":74},{"active":false,"Giataid":"236880","cityId":39099,"cityName":"Vantaa","hotelId":236880,"hotelName":"GLO Hotel Airport","address":"Helsinki-Vantaa Airport,Terminal 2, Ground floor,01530 Vantaa,Finland","phones":"+358103444600","fax":"","email":"airport@hotelglo.com","url":"http://www.hotelglo.fi/en/glo-helsinki-airport","countryIso2":"FI","countryName":"Finland","hotelRating":"4","latitude":"60.3186","longitude":"24.9671","state_id":1510,"state_name":"Uusimaa","country_id":74},{"active":false,"Giataid":"236881","cityId":null,"cityName":"Lepp?virta","hotelId":236881,"hotelName":"Sport & Spa Hotel Vesileppis","address":"Vokkolantie 1,79100 Lepp?virta,Finland","phones":"+358291700170","fax":"+358171924061","email":"","url":"http://www.vesileppis.fi/index.jsp?lang=en","countryIso2":"FI","countryName":"Finland","hotelRating":"3","latitude":"62.4883","longitude":"27.7783","state_id":null,"state_name":null,"country_id":null},{"active":false,"Giataid":"238509","cityId":null,"cityName":"Levi","hotelId":238509,"hotelName":"Glasiglu","address":"NULL","phones":"","fax":"","email":"","url":"","countryIso2":"FI","countryName":"Finland","hotelRating":"3","latitude":"67.7839","longitude":"24.8602","state_id":null,"state_name":null,"country_id":null},{"active":false,"Giataid":"244058","cityId":38770,"cityName":"Helsinki","hotelId":244058,"hotelName":"Fabian","address":"Fabianinkatu 7,00130 Helsinki,Finland","phones":"+358961282000","fax":"","email":"sales@hotelfabian.fi","url":"http://www.hotelfabian.fi/","countryIso2":"FI","countryName":"Finland","hotelRating":"4","latitude":"60.1642","longitude":"24.95","state_id":1510,"state_name":"Uusimaa","country_id":74},{"active":false,"Giataid":"244059","cityId":39082,"cityName":"Tuulos","hotelId":244059,"hotelName":"Hotel Tuulonen","address":"Tuulosentie 1,14810 Tuulos,Finland","phones":"+358107657922","fax":"+358107657924","email":"abc.tuulos@sok.fi","url":"http://www.hoteltuulonen.fi/","countryIso2":"FI","countryName":"Finland","hotelRating":"3","latitude":"61.1062","longitude":"24.8614","state_id":1493,"state_name":"Tavastia Proper","country_id":74},{"active":false,"Giataid":"244061","cityId":38770,"cityName":"Helsinki","hotelId":244061,"hotelName":"Best Western Hotel Carlton","address":"Kaisaniemenkatu 3,00100 Helsinki,Finland","phones":"+35896841320","fax":"+3589660112","email":"carlton.booking@carlton.fi","url":"http://book.bestwestern.com/bestwestern/FI/Helsinki-hotels/BEST-WESTERN-Hotel-Carlton/Hotel-Overview.do?propertyCode=91099&amp;srcPage=SelectHotel&amp;isMapOpen=true&amp;selectedHotels=","countryIso2":"FI","countryName":"Finland","hotelRating":"3","latitude":"60.1712","longitude":"24.947","state_id":1510,"state_name":"Uusimaa","country_id":74},{"active":false,"Giataid":"291847","cityId":null,"cityName":"V??ksy","hotelId":291847,"hotelName":"Hotel Tallukka","address":"Tallukantie 1,17200 V??ksy,Finland","phones":"+358440321983","fax":"","email":"","url":"","countryIso2":"FI","countryName":"Finland","hotelRating":"3","latitude":"61.1653","longitude":"25.5637","state_id":null,"state_name":null,"country_id":null},{"active":false,"Giataid":"292013","cityId":null,"cityName":"Karesuvanto","hotelId":292013,"hotelName":"Davvi Arctic Lodge","address":"Vartiotie 10,99470 Kaaresuvanto,Finland","phones":"+35816522101","fax":"","email":"","url":"","countryIso2":"FI","countryName":"Finland","hotelRating":"3","latitude":"68.4514","longitude":"22.4855","state_id":null,"state_name":null,"country_id":null},{"active":false,"Giataid":"292014","cityId":null,"cityName":"Lappaj?rvi","hotelId":292014,"hotelName":"Kylpyla Kivitippu","address":"Nyk?l?ntie 137,62600 Lappaj?rvi,Finland","phones":"+358405831507","fax":"","email":"","url":"","countryIso2":"FI","countryName":"Finland","hotelRating":"3","latitude":"63.2483","longitude":"23.6425","state_id":null,"state_name":null,"country_id":null},{"active":false,"Giataid":"292015","cityId":null,"cityName":"Oravi","hotelId":292015,"hotelName":"Oravi Apartments","address":"Kiramontie,58130 Oravi,Finnland,Finland","phones":"+358442747078","fax":"","email":"","url":"","countryIso2":"FI","countryName":"Finland","hotelRating":"3","latitude":"62.1145","longitude":"28.6049","state_id":null,"state_name":null,"country_id":null},{"active":false,"Giataid":"359808","cityId":null,"cityName":"Yll?sj?rvi","hotelId":359808,"hotelName":"Lapland Hotel Saaga","address":"Iso-Yll?ksentie 42,95980 Yll?sj?rvi,Finland","phones":"+35816323600","fax":"","email":"saaga@laplandhotels.com","url":"http://www.laplandhotels.com/EN/hotels-and-restaurants/yllas/lapland-hotel-saaga.html","countryIso2":"FI","countryName":"Finland","hotelRating":"4","latitude":"67.5513","longitude":"24.2505","state_id":null,"state_name":null,"country_id":null},{"active":false,"Giataid":"359809","cityId":null,"cityName":"Yll?sj?rvi","hotelId":359809,"hotelName":"Lapland Hotel Saaga Apartments","address":"Iso-Yll?ksentie 42,95980 Yll?sj?rvi,Finland","phones":"+35816323600","fax":"","email":"saaga@laplandhotels.com","url":"http://www.laplandhotels.com/EN/hotels-and-restaurants/yllas/lapland-hotel-saaga.html","countryIso2":"FI","countryName":"Finland","hotelRating":"4","latitude":"67.5513","longitude":"24.2505","state_id":null,"state_name":null,"country_id":null},{"active":false,"Giataid":"366667","cityId":38991,"cityName":"Pori","hotelId":366667,"hotelName":"Omena Hotel Pori","address":"It?puisto 1,28100 Pori,Finland","phones":"+358207716555","fax":"","email":"info@omenahotels.com","url":"http://www.omenahotels.com/our-hotels/finland/pori/","countryIso2":"FI","countryName":"Finland","hotelRating":"2","latitude":"61.4853","longitude":"21.799","state_id":1501,"state_name":"Satakunta","country_id":74},{"active":false,"Giataid":"366668","cityId":null,"cityName":"Tampere","hotelId":366668,"hotelName":"Forenom Aparthotel Tampere City","address":"H?meenkatu 28,33200 Tampere,Suomi,Finland","phones":"+358201983420","fax":"","email":"info@omenahotels.com","url":"http://www.omenahotels.com/our-hotels/finland/tampere/?utm_source=google&amp;utm_medium=cpc&amp;utm_term=omenahotelli%20tampere&amp;utm_campaign=Brand%20FI%20-%20Omena%20Tampere%20I","countryIso2":"FI","countryName":"Finland","hotelRating":"2","latitude":"61.4974","longitude":"23.7541","state_id":null,"state_name":null,"country_id":null},{"active":false,"Giataid":"368104","cityId":38770,"cityName":"Helsinki","hotelId":368104,"hotelName":"CheapSleep Hostel Helsinki","address":"Sturenkatu 27 B,2nd floor,00510 Helsinki,Finland","phones":"+358458456188","fax":"","email":"","url":"","countryIso2":"FI","countryName":"Finland","hotelRating":"2","latitude":"60.1937","longitude":"24.956","state_id":1510,"state_name":"Uusimaa","country_id":74},{"active":false,"Giataid":"368105","cityId":38770,"cityName":"Helsinki","hotelId":368105,"hotelName":"Forenom Aparthotel Helsinki City","address":"Eerikinkatu 24,00180 Helsinki,Finland","phones":"+358201983420","fax":"","email":"","url":"","countryIso2":"FI","countryName":"Finland","hotelRating":"2","latitude":"60.1661","longitude":"24.9325","state_id":1510,"state_name":"Uusimaa","country_id":74},{"active":false,"Giataid":"368106","cityId":38770,"cityName":"Helsinki","hotelId":368106,"hotelName":"Omena Hotel Lonnrotinkatu","address":"L?nnrotinkatu 13,00120 Helsinki,Finland","phones":"+358600555222","fax":"","email":"","url":"","countryIso2":"FI","countryName":"Finland","hotelRating":"2","latitude":"60.1657","longitude":"24.9363","state_id":1510,"state_name":"Uusimaa","country_id":74},{"active":false,"Giataid":"368107","cityId":38770,"cityName":"Helsinki","hotelId":368107,"hotelName":"Omena Hotel Yrjonkatu","address":"Yrj?nkatu 30,00100 Helsinki,Finland","phones":"+358600555222","fax":"","email":"","url":"","countryIso2":"FI","countryName":"Finland","hotelRating":"2","latitude":"60.1678","longitude":"24.9377","state_id":1510,"state_name":"Uusimaa","country_id":74},{"active":false,"Giataid":"368108","cityId":38770,"cityName":"Helsinki","hotelId":368108,"hotelName":"Red Hill Apartments","address":"","phones":"","fax":"","email":"","url":"","countryIso2":"FI","countryName":"Finland","hotelRating":"1","latitude":"60.177","longitude":"24.9453","state_id":1510,"state_name":"Uusimaa","country_id":74},{"active":false,"Giataid":"368214","cityId":39027,"cityName":"Rovaniemi","hotelId":368214,"hotelName":"Santasport ","address":"Hiihtomajantie 2,96400 Rovaniemi,Finland","phones":"+358207984202","fax":"","email":"","url":"","countryIso2":"FI","countryName":"Finland","hotelRating":"3","latitude":"66.4974","longitude":"25.7676","state_id":1500,"state_name":"Lapland","country_id":74},{"active":false,"Giataid":"369120","cityId":39081,"cityName":"Turku","hotelId":369120,"hotelName":"Omena Hotel Turku","address":"Humalistonkatu 7,20100 Turku,Finland","phones":"+358600555222","fax":"","email":"","url":"","countryIso2":"FI","countryName":"Finland","hotelRating":"3","latitude":"60.4512","longitude":"22.2587","state_id":1507,"state_name":"Finland Proper","country_id":74},{"active":false,"Giataid":"369121","cityId":39041,"cityName":"Savonlinna","hotelId":369121,"hotelName":"Original Sokos Hotel Seurahuone, Savonlinna","address":"Kauppatori 4-6,57130 Savonlinna,Finland","phones":"+3581520202","fax":"","email":"","url":"","countryIso2":"FI","countryName":"Finland","hotelRating":"4","latitude":"61.8678","longitude":"28.8858","state_id":1495,"state_name":"Southern Savonia","country_id":74},{"active":false,"Giataid":"369193","cityId":38991,"cityName":"Pori","hotelId":369193,"hotelName":"Yyterin Kypylahotelli Oy","address":"Sipintie 1","phones":"","fax":"","email":"","url":"","countryIso2":"FI","countryName":"Finland","hotelRating":"3","latitude":"61.5703","longitude":"21.5182","state_id":1501,"state_name":"Satakunta","country_id":74},{"active":false,"Giataid":"369196","cityId":null,"cityName":"Tampere","hotelId":369196,"hotelName":"Omena Hotel Tampere","address":"H?meenkatu 7,33100 Tampere,Finland","phones":"+358600555222","fax":"","email":"","url":"","countryIso2":"FI","countryName":"Finland","hotelRating":"2","latitude":"61.498","longitude":"23.7689","state_id":null,"state_name":null,"country_id":null},{"active":false,"Giataid":"369197","cityId":null,"cityName":"Jyv?skyl?","hotelId":369197,"hotelName":"Forenom Apartments Jyvaskyla","address":"","phones":"","fax":"","email":"","url":"","countryIso2":"FI","countryName":"Finland","hotelRating":"1","latitude":"62.2412","longitude":"25.7537","state_id":null,"state_name":null,"country_id":null},{"active":false,"Giataid":"369198","cityId":null,"cityName":"Jyv?skyl?","hotelId":369198,"hotelName":"Omena Hotel Jyvaskyla","address":"Vapaudenkatu 57,40100 Jyv?skyl?,Finland","phones":"+358600555222","fax":"","email":"","url":"","countryIso2":"FI","countryName":"Finland","hotelRating":"2","latitude":"62.2428","longitude":"25.7499","state_id":null,"state_name":null,"country_id":null},{"active":false,"Giataid":"369199","cityId":38892,"cityName":"Lahti","hotelId":369199,"hotelName":"Forenom Aparthotel Lahti City","address":"Rauhankatu 14,15110 Lahti,Finland","phones":"+358201983420","fax":"","email":"","url":"","countryIso2":"FI","countryName":"Finland","hotelRating":"3","latitude":"60.9839","longitude":"25.6537","state_id":1502,"state_name":"Päijänne Tavastia","country_id":74},{"active":false,"Giataid":"369200","cityId":39095,"cityName":"Vaasa","hotelId":369200,"hotelName":"Omena Hotel Vaasa","address":"Hovioikeudenpuistikko 23,65100 Vaasa,Finland","phones":"+358600555222","fax":"","email":"","url":"","countryIso2":"FI","countryName":"Finland","hotelRating":"2","latitude":"63.0974","longitude":"21.6203","state_id":1508,"state_name":"Ostrobothnia","country_id":74},{"active":false,"Giataid":"369300","cityId":38966,"cityName":"Oulu","hotelId":369300,"hotelName":"Forenom Aparthotel Oulu Uusikatu","address":"Uusikatu 26,90100 Oulu,Finland","phones":"+358201983420","fax":"","email":"","url":"","countryIso2":"FI","countryName":"Finland","hotelRating":"2","latitude":"65.0115","longitude":"25.4747","state_id":1505,"state_name":"Northern Ostrobothnia","country_id":74},{"active":false,"Giataid":"381468","cityId":38892,"cityName":"Lahti","hotelId":381468,"hotelName":"Forenom House Lahti","address":"","phones":"","fax":"","email":"","url":"","countryIso2":"FI","countryName":"Finland","hotelRating":"2","latitude":"60.9838","longitude":"25.6529","state_id":1502,"state_name":"Päijänne Tavastia","country_id":74},{"active":false,"Giataid":"392056","cityId":38770,"cityName":"Helsinki","hotelId":392056,"hotelName":"Vuokrahuone","address":"Sturenkatu 27,00510 Helsinki,Finland","phones":"+358409314869","fax":"","email":"info@enterhousing.com","url":"http://vuokrahuone.com","countryIso2":"FI","countryName":"Finland","hotelRating":"2","latitude":"60.1938","longitude":"24.9557","state_id":1510,"state_name":"Uusimaa","country_id":74},{"active":false,"Giataid":"404911","cityId":38872,"cityName":"Kotka","hotelId":404911,"hotelName":"Hotelli Kesti-Karhu","address":"Etel?inen Karjalantie 7,48600 Kotka,Finland","phones":"+35852103100","fax":"","email":"","url":"http://www.kestikarhu.fi/","countryIso2":"FI","countryName":"Finland","hotelRating":"3","latitude":"60.5158","longitude":"26.9334","state_id":1512,"state_name":"Kymenlaakso","country_id":74},{"active":false,"Giataid":"404917","cityId":null,"cityName":"Kiljava","hotelId":404917,"hotelName":"Lomakoti Kotoranta","address":"Kotorannantie 74,05250 Kiljava,Finland","phones":"+358103875800","fax":"","email":"lomakoti@kotoranta.fi","url":"http://www.kotoranta.fi/","countryIso2":"FI","countryName":"Finland","hotelRating":"2","latitude":"60.5071","longitude":"24.689","state_id":null,"state_name":null,"country_id":null},{"active":false,"Giataid":"404984","cityId":38783,"cityName":"Iisalmi","hotelId":404984,"hotelName":"Hotel Golden Dome","address":"Kirkkopuistonkatu 28?,74100 Iisalmi,Finland","phones":"+35817812244","fax":"+35817814941","email":"info@hotelartos.fi","url":"http://www.hotelartos.fi/","countryIso2":"FI","countryName":"Finland","hotelRating":"4","latitude":"63.5599","longitude":"27.1941","state_id":1506,"state_name":"Pirkanmaa","country_id":74},{"active":false,"Giataid":"405005","cityId":null,"cityName":"Inkeroinen","hotelId":405005,"hotelName":"Hotel Kantri Inkeroinen","address":"P??tie 21,46900 Inkeroinen,Finland","phones":"+35853171901","fax":"","email":"kantri.inkeroinen@kantri.fi","url":"http://www.kantri.fi/inkeroistenkantri.htm","countryIso2":"FI","countryName":"Finland","hotelRating":"1","latitude":"60.6932","longitude":"26.8411","state_id":null,"state_name":null,"country_id":null},{"active":false,"Giataid":"405998","cityId":38885,"cityName":"Kuusamo","hotelId":405998,"hotelName":"Holiday Club Kuusamon Tropiikki Apartments","address":"Kylpyl?ntie 5,93600 Kuusamo,Finland","phones":"+358306864400","fax":"+35888521909","email":"hotelsales.kuusamo@holidayclub.fi","url":"http://www.holidayclubresorts.com/en/resorts/kuusamon-tropiikki/accommodation/","countryIso2":"FI","countryName":"Finland","hotelRating":"4","latitude":"66.0013","longitude":"29.1626","state_id":1505,"state_name":"Northern Ostrobothnia","country_id":74},{"active":false,"Giataid":"412180","cityId":38941,"cityName":"Muonio","hotelId":412180,"hotelName":"Lapland Hotel Olos","address":"Oloshotellintie 25,99300 Muonio,Lapland,Finland","phones":"+35816536111","fax":"","email":"olos@laplandhotels.com","url":"https://www.laplandhotels.com/DE/hotels-und-restaurants/olos/lapland-hotel-olos.html","countryIso2":"FI","countryName":"Finland","hotelRating":"4","latitude":"67.931","longitude":"23.8129","state_id":1500,"state_name":"Lapland","country_id":74},{"active":false,"Giataid":"417683","cityId":38770,"cityName":"Helsinki","hotelId":417683,"hotelName":"Next Hotel Rivoli Apartments","address":"Kasarmikatu 40,00130 Helsinki,Finland","phones":"+3589681500","fax":"+3589656988","email":"merja.koski@rivoli.fi","url":"http://www.rivoli.fi/asp/empty.asp?P=1&amp;VID=default&amp;SID=683819781833410&amp;S=1&amp;C=22740","countryIso2":"FI","countryName":"Finland","hotelRating":"3","latitude":"60.1658","longitude":"24.9476","state_id":1510,"state_name":"Uusimaa","country_id":74},{"active":false,"Giataid":"417686","cityId":38773,"cityName":"Hirvensalmi","hotelId":417686,"hotelName":"NEXT Hotel Satulinna","address":"","phones":"","fax":"","email":"","url":"","countryIso2":"FI","countryName":"Finland","hotelRating":"3","latitude":"61.6684","longitude":"26.7795","state_id":1495,"state_name":"Southern Savonia","country_id":74},{"active":false,"Giataid":"418352","cityId":null,"cityName":"?k?slompolo","hotelId":418352,"hotelName":"Haus Kaarnikkatupa","address":"95970 ?k?slompolo,Finland","phones":"","fax":"","email":"","url":"","countryIso2":"FI","countryName":"Finland","hotelRating":"3","latitude":"67.6039","longitude":"24.1567","state_id":null,"state_name":null,"country_id":null},{"active":false,"Giataid":"422637","cityId":null,"cityName":"Eken?s","hotelId":422637,"hotelName":"Hotel Sea Front","address":"Vitsippsgatan 2,10600 Ekenas,Finland","phones":"+358192461500","fax":"+358192164505","email":"","url":"http://hotelseafront.fi/en","countryIso2":"FI","countryName":"Finland","hotelRating":"2","latitude":"59.9827","longitude":"23.4414","state_id":null,"state_name":null,"country_id":null},{"active":false,"Giataid":"422649","cityId":38768,"cityName":"Heinola","hotelId":422649,"hotelName":"Hotelli Valo","address":"18120 Heinola,Pikij?rventie 1,Finland","phones":"+358447008820","fax":"","email":"info@carelogi.fi","url":"http://www.valolinna.fi/palvelut/palvelut-yrittajille/hotelli-valo","countryIso2":"FI","countryName":"Finland","hotelRating":"3","latitude":"61.2068","longitude":"26.0698","state_id":1502,"state_name":"Päijänne Tavastia","country_id":74},{"active":false,"Giataid":"422682","cityId":38917,"cityName":"Lohja","hotelId":422682,"hotelName":"Hotel Lohja","address":"Laurinkatu 34,08100 Lohja,Finland","phones":"+3581933221","fax":"+35819312294","email":"","url":"http://www.hotellilohja.fi/en_index.html","countryIso2":"FI","countryName":"Finland","hotelRating":"3","latitude":"60.2489","longitude":"24.0622","state_id":1510,"state_name":"Uusimaa","country_id":74},{"active":false,"Giataid":"424315","cityId":38994,"cityName":"Posio","hotelId":424315,"hotelName":"Lapin Satu","address":"Kattavaniementie 1,Posio 97900,Finland","phones":"+358458864588","fax":"","email":"lapinsatu@mail.ru","url":"http://lapinsatu.com","countryIso2":"FI","countryName":"Finland","hotelRating":"3","latitude":"66.0959","longitude":"28.1353","state_id":1500,"state_name":"Lapland","country_id":74},{"active":false,"Giataid":"429704","cityId":38770,"cityName":"Helsinki","hotelId":429704,"hotelName":"Matkamajoitus Traveller's Home","address":"Lonnrotinkatu 16D,00120 Helsinki,Finland","phones":"+358442119526","fax":"","email":"","url":"http://www.matkamajoitus.fi/en","countryIso2":"FI","countryName":"Finland","hotelRating":"1","latitude":"60.1652","longitude":"24.9362","state_id":1510,"state_name":"Uusimaa","country_id":74},{"active":false,"Giataid":"431919","cityId":39027,"cityName":"Rovaniemi","hotelId":431919,"hotelName":"Ounasvaaran Lakituvat","address":"Hiihtomajantie 8,96400 Rovaniemi,Finland","phones":"+35816311485","fax":"","email":"safartica@safartica.com","url":"http://www.ounasvaaranlakituvat.fi","countryIso2":"FI","countryName":"Finland","hotelRating":"4","latitude":"66.5006","longitude":"25.7865","state_id":1500,"state_name":"Lapland","country_id":74},{"active":false,"Giataid":"434094","cityId":null,"cityName":"?k?slompolo","hotelId":434094,"hotelName":"Haus Hilladay","address":"","phones":"","fax":"","email":"","url":"","countryIso2":"FI","countryName":"Finland","hotelRating":"4","latitude":"67.6116","longitude":"24.151","state_id":null,"state_name":null,"country_id":null},{"active":false,"Giataid":"437687","cityId":38948,"cityName":"Naantali","hotelId":437687,"hotelName":"Hotel Bridget Inn","address":"","phones":"","fax":"","email":"","url":"","countryIso2":"FI","countryName":"Finland","hotelRating":"3","latitude":"60.4701","longitude":"22.024","state_id":1507,"state_name":"Finland Proper","country_id":74},{"active":false,"Giataid":"437713","cityId":38912,"cityName":"Lieksa","hotelId":437713,"hotelName":"Hotel Pielinen","address":"L?pik?yt?v?ntie, 54,81590 Lieksa/Vuonislahti,Finland","phones":"+358452640303","fax":"","email":"myynti@hotellipielinen.com","url":"http://www.hotellipielinen.com/","countryIso2":"FI","countryName":"Finland","hotelRating":"3","latitude":"63.0839","longitude":"30.0019","state_id":1504,"state_name":"North Karelia","country_id":74},{"active":false,"Giataid":"438147","cityId":39043,"cityName":"Savukoski","hotelId":438147,"hotelName":"Hotel Samperin Savotta","address":"Samperintie 34,98800 Savukoski,Finland","phones":"+35816841351","fax":"+35816841386","email":"info@samperi.com","url":"http://www.samperi.com/","countryIso2":"FI","countryName":"Finland","hotelRating":"3","latitude":"67.2964","longitude":"28.1475","state_id":1500,"state_name":"Lapland","country_id":74},{"active":false,"Giataid":"438310","cityId":38817,"cityName":"Kalajoki","hotelId":438310,"hotelName":"Hotel Lokkilinna","address":"Matkailutie 199,85100 Kalajoki,Finland","phones":"+35884696700","fax":"","email":"","url":"http://lokkilinna.fi/en","countryIso2":"FI","countryName":"Finland","hotelRating":"3","latitude":"64.239","longitude":"23.8199","state_id":1505,"state_name":"Northern Ostrobothnia","country_id":74},{"active":false,"Giataid":"438337","cityId":null,"cityName":"Iso-Sy?te","hotelId":438337,"hotelName":"Iso-Syote Hotel","address":"Isosy?tteentie 246,93280 Sy?te,Finland","phones":"+358201476400","fax":"+358207818135","email":"reception@isosyote.fi","url":"http://www.hotelli-isosyote.fi/eccommodation/hotel/","countryIso2":"FI","countryName":"Finland","hotelRating":"3","latitude":"65.6239","longitude":"27.6086","state_id":null,"state_name":null,"country_id":null},{"active":false,"Giataid":"438338","cityId":null,"cityName":"Iso-Sy?te","hotelId":438338,"hotelName":"Iso-Syote Ferienhauser","address":"Isosy?tteentie 246,93280 Sy?te,Finland","phones":"+358201476400","fax":"+358207818135","email":"reception@isosyote.fi","url":"http://www.hotelli-isosyote.fi/eccommodation/","countryIso2":"FI","countryName":"Finland","hotelRating":"3","latitude":"65.6241","longitude":"27.6089","state_id":null,"state_name":null,"country_id":null},{"active":false,"Giataid":"438389","cityId":38800,"cityName":"Joroinen","hotelId":438389,"hotelName":"Joronjalki","address":"Motellikuja 1,79600 Joroinen,Finland","phones":"+35817571111","fax":"","email":"","url":"http://www.joronjalki.fi/","countryIso2":"FI","countryName":"Finland","hotelRating":"1","latitude":"62.1783","longitude":"27.8376","state_id":1495,"state_name":"Southern Savonia","country_id":74},{"active":false,"Giataid":"438728","cityId":38768,"cityName":"Heinola","hotelId":438728,"hotelName":"Kumpeli","address":"Muonamiehenkatu 3,18100 Heinola,Finland","phones":"+35838127100","fax":"","email":"","url":"http://www.kumpeli.fi/","countryIso2":"FI","countryName":"Finland","hotelRating":"4","latitude":"61.2058","longitude":"26.0163","state_id":1502,"state_name":"Päijänne Tavastia","country_id":74},{"active":false,"Giataid":"439141","cityId":38865,"cityName":"Kolari","hotelId":439141,"hotelName":"Hotel Kolari","address":"Muoniontie 1,95900 Kolari,Finland","phones":"+35816313711","fax":"","email":"","url":"http://www.hotellikolari.fi/en","countryIso2":"FI","countryName":"Finland","hotelRating":"3","latitude":"67.3497","longitude":"23.8278","state_id":1500,"state_name":"Lapland","country_id":74},{"active":false,"Giataid":"439157","cityId":39125,"cityName":"Ylitornio","hotelId":439157,"hotelName":"Hotelli Helenan Kievari","address":"Alkkulanraitti 67,95600 Ylitornio,Finland","phones":"+35816571201","fax":"","email":"info@helenankievari.com","url":"http://www.helenankievari.com/","countryIso2":"FI","countryName":"Finland","hotelRating":"3","latitude":"66.325","longitude":"23.6756","state_id":1500,"state_name":"Lapland","country_id":74},{"active":false,"Giataid":"439162","cityId":39012,"cityName":"Raisio","hotelId":439162,"hotelName":"Hotelli & Ravintola Martinhovi","address":"Martinkatu 6,21200 Raisio,Finland","phones":"+35824382333","fax":"","email":"martinhovi@martinhovi.fi","url":"http://martinhovi.fi/","countryIso2":"FI","countryName":"Finland","hotelRating":"3","latitude":"60.4845","longitude":"22.1692","state_id":1507,"state_name":"Finland Proper","country_id":74},{"active":false,"Giataid":"439165","cityId":38976,"cityName":"Pello","hotelId":439165,"hotelName":"Hotelli Pellonhovi","address":"Kunnantie 2,95700 Pello,Finland","phones":"+35816513911","fax":"","email":"info@pellonhovi.fi","url":"http://www.pellonhovi.fi/index.php/en/","countryIso2":"FI","countryName":"Finland","hotelRating":"2","latitude":"66.7739","longitude":"23.9656","state_id":1500,"state_name":"Lapland","country_id":74},{"active":false,"Giataid":"439203","cityId":38994,"cityName":"Posio","hotelId":439203,"hotelName":"Hotel Posio","address":"Posiontie 28,97900 Posio,Finland","phones":"+358163721021","fax":"","email":"info@hotelliposio.f","url":"http://www.hotelliposio.fi","countryIso2":"FI","countryName":"Finland","hotelRating":"2","latitude":"66.1102","longitude":"28.1705","state_id":1500,"state_name":"Lapland","country_id":74},{"active":false,"Giataid":"439263","cityId":39110,"cityName":"Viitasaari","hotelId":439263,"hotelName":"Muikunlahti Manor","address":"Muikunlahdentie 165,44500 Viitasaari,Finland","phones":"+358504111403","fax":"","email":"asiakaspalvelu@muikunlahdenkartano.fi","url":"http://www.muikunlahdenkartano.fi/index_en.html","countryIso2":"FI","countryName":"Finland","hotelRating":"1","latitude":"63.0731","longitude":"25.8591","state_id":1511,"state_name":"Central Finland","country_id":74},{"active":false,"Giataid":"439269","cityId":39110,"cityName":"Viitasaari","hotelId":439269,"hotelName":"Hotelli Pihkuri","address":"Kappelintie 5,44500 Viitasaari,Finland","phones":"+358207981440","fax":"","email":"hotelli@pihkuri.fi","url":"http://www.pihkuri.fi/","countryIso2":"FI","countryName":"Finland","hotelRating":"3","latitude":"63.0808","longitude":"25.8474","state_id":1511,"state_name":"Central Finland","country_id":74},{"active":false,"Giataid":"439346","cityId":null,"cityName":"Nauvo","hotelId":439346,"hotelName":"Hotel Stallbacken Nagu","address":"Gr?nn?sv?gen 14,21660 Pargas (Former Nauvvo),Varsinais-Suomi,Finland","phones":"+358404866822","fax":"","email":"info@hotelstallbacken.fi","url":"http://www.hotelstallbacken.fi","countryIso2":"FI","countryName":"Finland","hotelRating":"3","latitude":"60.1765","longitude":"21.8671","state_id":null,"state_name":null,"country_id":null},{"active":false,"Giataid":"439351","cityId":null,"cityName":"Svart? Mustio","hotelId":439351,"hotelName":"Svarta Manor","address":"H?llsn?sv?gen 89,10360 Svart? Mustio,Finland","phones":"+3581936231","fax":"+358193623250","email":"info@mustionlinna.fi","url":"http://www.mustionlinna.fi/en/","countryIso2":"FI","countryName":"Finland","hotelRating":"4","latitude":"60.1578","longitude":"23.8374","state_id":null,"state_name":null,"country_id":null},{"active":false,"Giataid":"439428","cityId":null,"cityName":"Geta","hotelId":439428,"hotelName":"Havsvidden Resort","address":"Havsviddsv?gen 90,22340 Geta,?land Island,Finland","phones":"+3581849408","fax":"+3581849460","email":"info@havsvidden.com","url":"http://www.havsvidden.com","countryIso2":"FI","countryName":"Finland","hotelRating":"4","latitude":"60.4217","longitude":"19.9141","state_id":null,"state_name":null,"country_id":null},{"active":false,"Giataid":"439432","cityId":null,"cityName":"M?ntt?","hotelId":439432,"hotelName":"Mantta Club","address":"Tehtaankatu 33,35800 M?ntt?,Finland","phones":"+35834745900","fax":"","email":"info@klubin.fi","url":"http://www.klubin.fi/eccommodation","countryIso2":"FI","countryName":"Finland","hotelRating":"3","latitude":"62.0273","longitude":"24.6445","state_id":null,"state_name":null,"country_id":null},{"active":false,"Giataid":"439459","cityId":38912,"cityName":"Lieksa","hotelId":439459,"hotelName":"Kaatrahovi","address":"Pielisentie 45,81700 Lieksa,Finland","phones":"+358401350455","fax":"","email":"kaatrahovi@gmail.com","url":"http://www.kaatrahovi.fi/","countryIso2":"FI","countryName":"Finland","hotelRating":"3","latitude":"63.3208","longitude":"30.019","state_id":1504,"state_name":"North Karelia","country_id":74},