[{"active":false,"Giataid":"38043","cityId":null,"cityName":"Nevis","hotelId":38043,"hotelName":"Four Seasons Resort Nevis","address":"Pinneyï¿½s Beach,Charlestown,Nevis,St. Kitts and Nevis","phones":"+18694691111","fax":"+18694691112","email":"","url":"http://www.fourseasons.com/nevis/","countryIso2":"KN","countryName":"St. Kitts and Nevis","hotelRating":"5","latitude":"17.1579","longitude":"-62.6288","state_id":null,"state_name":null,"country_id":null},{"active":false,"Giataid":"41724","cityId":null,"cityName":"Basseterre","hotelId":41724,"hotelName":"Ocean Terrace Inn","address":"Wigley Avenue,Fortlands,Basseterre,St. Kitts and Nevis","phones":"+18694652754","fax":"","email":"","url":"","countryIso2":"KN","countryName":"St. Kitts and Nevis","hotelRating":"3","latitude":"17.2909","longitude":"-62.7336","state_id":null,"state_name":null,"country_id":null},{"active":false,"Giataid":"279248","cityId":null,"cityName":"St. Kitts","hotelId":135990,"hotelName":"Ottley's Plantation Inn","address":"Ottley's Village,PO Box 345,Saint Kitts,St. Kitts and Nevis","phones":"","fax":"","email":"","url":"","countryIso2":"KN","countryName":"St. Kitts and Nevis","hotelRating":"4","latitude":"17.3584","longitude":"-62.7351","state_id":null,"state_name":null,"country_id":null},{"active":false,"Giataid":"187536","cityId":null,"cityName":"Frigate Bay","hotelId":187536,"hotelName":"Timothy Beach Resort","address":"1 South Frigate Bay Beach,Frigate Bay,Sankt Kitts & Nevis,West Indies,St. Kitts and Nevis","phones":"+18694658597","fax":"","email":"","url":"","countryIso2":"KN","countryName":"St. Kitts and Nevis","hotelRating":"3","latitude":"17.2808","longitude":"-62.686","state_id":null,"state_name":null,"country_id":null},{"active":false,"Giataid":"187644","cityId":null,"cityName":"Basseterre","hotelId":187644,"hotelName":"Bird Rock Beach Hotel","address":"Pelican Mall,P.O. Box 227,Basseterre,St. Kitts,St. Kitts and Nevis","phones":"+1869918694658914","fax":"","email":"","url":"","countryIso2":"KN","countryName":"St. Kitts and Nevis","hotelRating":"3","latitude":"17.2941","longitude":"-62.7249","state_id":null,"state_name":null,"country_id":null},{"active":false,"Giataid":"187746","cityId":4665,"cityName":"Charlestown","hotelId":187746,"hotelName":"Montpelier Plantation & Beach","address":"PO Box 474,St Johns Parish Montpelier Es,Charlestown,Nevis,Saint Kitts And Nevis,St. Kitts and Nevis","phones":"+18694693462","fax":"","email":"","url":"","countryIso2":"KN","countryName":"St. Kitts and Nevis","hotelRating":"4","latitude":"17.1231","longitude":"-62.5902","state_id":3909,"state_name":"New South Wales","country_id":14},{"active":false,"Giataid":"370154","cityId":null,"cityName":"St. Kitts","hotelId":370154,"hotelName":"Royal St Kitts Hotel And Casino","address":"P.O. Box 406,Zenway Boulevard,Frigate Bay,St. Kitts,West Indies,St. Kitts and Nevis","phones":"","fax":"","email":"","url":"","countryIso2":"KN","countryName":"St. Kitts and Nevis","hotelRating":"4","latitude":"17.2909","longitude":"-62.6862","state_id":null,"state_name":null,"country_id":null},{"active":false,"Giataid":"374238","cityId":null,"cityName":"St. Kitts","hotelId":374238,"hotelName":"The Angelus","address":"","phones":"","fax":"","email":"","url":"","countryIso2":"KN","countryName":"St. Kitts and Nevis","hotelRating":"1","latitude":"17.3288","longitude":"-62.7347","state_id":null,"state_name":null,"country_id":null},{"active":false,"Giataid":"426728","cityId":null,"cityName":"Frigate Bay","hotelId":426728,"hotelName":"Marriott's St. Kitts Beach Club","address":"858 Frigate Bay Road,Frigate Bay,Saint Kitts & Nevis,St. Kitts and Nevis","phones":"+18694661500","fax":"+18694667649","email":"","url":"http://www.marriott.com/hotels/travel/skbkt-marriotts-st-kitts-beach-club/","countryIso2":"KN","countryName":"St. Kitts and Nevis","hotelRating":"4","latitude":"17.2922","longitude":"-62.6854","state_id":null,"state_name":null,"country_id":null},{"active":false,"Giataid":"514962","cityId":null,"cityName":"Frigate Bay","hotelId":514962,"hotelName":"Seaview Inn","address":"Bay Road,PO Box 1586,Frigate Bay,St. Kitts and Nevis","phones":"","fax":"","email":"","url":"","countryIso2":"KN","countryName":"St. Kitts and Nevis","hotelRating":"1","latitude":"17.3048","longitude":"-62.7124","state_id":null,"state_name":null,"country_id":null},{"active":false,"Giataid":"514962","cityId":null,"cityName":"Frigate Bay","hotelId":514962,"hotelName":"Seaview Inn","address":"Bay Road,PO Box 1586,Frigate Bay,St. Kitts and Nevis","phones":"","fax":"","email":"","url":"","countryIso2":"KN","countryName":"St. Kitts and Nevis","hotelRating":"1","latitude":"17.3048","longitude":"-62.7124","state_id":null,"state_name":null,"country_id":null},{"active":false,"Giataid":"518978","cityId":null,"cityName":"Saint Thomas Middle Island Parish","hotelId":518978,"hotelName":"Yellow Bird Villa","address":"","phones":"","fax":"","email":"","url":"","countryIso2":"KN","countryName":"St. Kitts and Nevis","hotelRating":"1","latitude":"17.1643","longitude":"-62.614","state_id":null,"state_name":null,"country_id":null},{"active":false,"Giataid":"528924","cityId":null,"cityName":"Frigate Bay","hotelId":528924,"hotelName":"Vista Villa","address":"","phones":"","fax":"","email":"","url":"","countryIso2":"KN","countryName":"St. Kitts and Nevis","hotelRating":"1","latitude":"17.2856","longitude":"-62.6872","state_id":null,"state_name":null,"country_id":null},{"active":false,"Giataid":"529046","cityId":null,"cityName":"Frigate Bay","hotelId":529046,"hotelName":"St. Christopher Club","address":"Frigate Bay,St. Kitts and Nevis","phones":"+18694654854","fax":"+18694656466","email":"","url":"http://www.stchristopherclubgroup.com/real-estate-st-kitts/st-christopher-club.php","countryIso2":"KN","countryName":"St. Kitts and Nevis","hotelRating":"1","latitude":"17.2847","longitude":"-62.6837","state_id":null,"state_name":null,"country_id":null},{"active":false,"Giataid":"370154","cityId":null,"cityName":"St. Kitts","hotelId":720316,"hotelName":"Royal St. Kitts Hotel","address":"P.O. Box 406,Zenway Boulevard,Frigate Bay,St. Kitts,West Indies,St. Kitts and Nevis","phones":"+18694658651","fax":"","email":"reservations@royalstkittshotel.com","url":"http://www.royalstkittshotel.com/","countryIso2":"KN","countryName":"St. Kitts and Nevis","hotelRating":"1","latitude":"17.2856","longitude":"-62.6872","state_id":null,"state_name":null,"country_id":null},{"active":false,"Giataid":"550327","cityId":null,"cityName":"Frigate Bay","hotelId":10058793,"hotelName":"Rock Haven Bed & Breakfast","address":"Scenic Drive,Saint Kitts,PO Box 821,Frigate Bay,Saint Kitts and Nevis,St. Kitts and Nevis","phones":"","fax":"","email":"","url":"","countryIso2":"KN","countryName":"St. Kitts and Nevis","hotelRating":"3","latitude":"17.2797","longitude":"-62.6862","state_id":null,"state_name":null,"country_id":null},{"active":false,"Giataid":"531912","cityId":null,"cityName":"Saint Thomas Middle Island Parish","hotelId":10071343,"hotelName":"The Hamilton Beach Villas & Spa","address":"Main Road,St Thomas Parish,St. Kitts and Nevis","phones":"+18694695320","fax":"","email":"","url":"","countryIso2":"KN","countryName":"St. Kitts and Nevis","hotelRating":"4","latitude":"17.1636","longitude":"-62.6216","state_id":null,"state_name":null,"country_id":null},{"active":false,"Giataid":"544661","cityId":null,"cityName":"Nevis","hotelId":10072998,"hotelName":"Paradise Beach Nevis","address":"Paradise Estates,St Thomas' Parish,Nevis,St. Kitts and Nevis","phones":"+18694697900","fax":"","email":"","url":"","countryIso2":"KN","countryName":"St. Kitts and Nevis","hotelRating":"5","latitude":"17.1692","longitude":"-62.6276","state_id":null,"state_name":null,"country_id":null},{"active":false,"Giataid":"554014","cityId":null,"cityName":"St. Kitts","hotelId":20002515,"hotelName":"Park Hyatt St. Kitts","address":"Banana Bay,South East Peninsula,St. Kitts,Parish of St. George,St. Kitts and Nevis","phones":"+18694681234","fax":"+18694651235","email":"","url":"http://stkitts.park.hyatt.com/en/hotel/home.html","countryIso2":"KN","countryName":"St. Kitts and Nevis","hotelRating":"6","latitude":"17.2281","longitude":"-62.6384","state_id":null,"state_name":null,"country_id":null},{"active":false,"Giataid":"422507","cityId":4665,"cityName":"Charlestown","hotelId":20002699,"hotelName":"Golden Rock Inn","address":"PO Box 493,Charlestown,Nevis,St. Kitts and Nevis","phones":"+18694693346","fax":"+18694692113","email":"info@goldenrocknevis.com","url":"http://goldenrocknevis.com","countryIso2":"KN","countryName":"St. Kitts and Nevis","hotelRating":"3","latitude":"17.1434","longitude":"-62.5662","state_id":3909,"state_name":"New South Wales","country_id":14},{"active":false,"Giataid":"529303","cityId":null,"cityName":"Basseterre","hotelId":20003174,"hotelName":"Culture House","address":"Conaree Bay  Upper Conaree,Basseterre,St. Kitts and Nevis","phones":"","fax":"","email":"","url":"","countryIso2":"KN","countryName":"St. Kitts and Nevis","hotelRating":"2","latitude":"17.3155","longitude":"-62.6999","state_id":null,"state_name":null,"country_id":null},{"active":false,"Giataid":"518929","cityId":null,"cityName":"Nevis","hotelId":20003403,"hotelName":"Dolphin House Villa","address":"Jones Estate,Cades Bay,near Cliftones,Nevis,St. Kitts and Nevis","phones":"","fax":"","email":"","url":"","countryIso2":"KN","countryName":"St. Kitts and Nevis","hotelRating":"0","latitude":"17.184","longitude":"-62.6169","state_id":null,"state_name":null,"country_id":null},{"active":false,"Giataid":"426874","cityId":null,"cityName":"Basseterre","hotelId":20003587,"hotelName":"Belle Mont Farm","address":"Kittitian Hill,St. Kitts,Basseterre,St. Kitts and Nevis","phones":"+18694657388","fax":"","email":"reservations@kittitianhill.com","url":"http://www.bellemontfarm.com/","countryIso2":"KN","countryName":"St. Kitts and Nevis","hotelRating":"5","latitude":"17.3879","longitude":"-62.8293","state_id":null,"state_name":null,"country_id":null},{"active":false,"Giataid":"520566","cityId":null,"cityName":"Nevis","hotelId":20003759,"hotelName":"Fire Fly Cottage","address":"Spring Hill Road,Cades Bay,St. Kitts and Nevis","phones":"","fax":"","email":"","url":"","countryIso2":"KN","countryName":"St. Kitts and Nevis","hotelRating":"3","latitude":"17.1861","longitude":"-62.6099","state_id":null,"state_name":null,"country_id":null},{"active":false,"Giataid":"41723","cityId":null,"cityName":"St. Kitts","hotelId":20004146,"hotelName":"Rawlins Plantation Inn","address":"PO Box 340,St. Pauls,St. Kitts and Nevis,West Indies,St. Kitts and Nevis","phones":"+18694656221","fax":"","email":"","url":"","countryIso2":"KN","countryName":"St. Kitts and Nevis","hotelRating":"4","latitude":"17.4008","longitude":"-62.8275","state_id":null,"state_name":null,"country_id":null},{"active":false,"Giataid":"851996","cityId":null,"cityName":"Frigate Bay","hotelId":20345257,"hotelName":"Fern Tree Bed and Breakfast","address":"Paradise Road Conaree,Saint Kitts and Nevis,0000 Frigate Bay,St. Kitts and Nevis","phones":"","fax":"","email":"","url":"","countryIso2":"KN","countryName":"St. Kitts and Nevis","hotelRating":"0","latitude":"17.3159","longitude":"-62.6998","state_id":null,"state_name":null,"country_id":null},{"active":false,"Giataid":"881402","cityId":4665,"cityName":"Charlestown","hotelId":20345258,"hotelName":"Pinneys Beach Hotel Nevis","address":"Pinneys Road,Charlestown,St. Kitts and Nevis","phones":"","fax":"","email":"","url":"","countryIso2":"KN","countryName":"St. Kitts and Nevis","hotelRating":"0","latitude":"17.138","longitude":"-62.6008","state_id":3909,"state_name":"New South Wales","country_id":14},{"active":false,"Giataid":"735213","cityId":6563,"cityName":"Newcastle","hotelId":20345259,"hotelName":"Sandpiper","address":"Qualie Bay,Newcastle,St. Kitts and Nevis","phones":"","fax":"","email":"","url":"","countryIso2":"KN","countryName":"St. Kitts and Nevis","hotelRating":"0","latitude":"17.1981","longitude":"-62.6014","state_id":3909,"state_name":"New South Wales","country_id":14},{"active":false,"Giataid":"956708","cityId":null,"cityName":"Basseterre","hotelId":20410720,"hotelName":"Imperial Bay Beach And Golf Residence","address":"Half Moon Bay,Basseterre,St. Kitts and Nevis","phones":"+18696697184","fax":"","email":"","url":"http://imperialbaybeachandgolfresidence.business.site/","countryIso2":"KN","countryName":"St. Kitts and Nevis","hotelRating":"1","latitude":"17.3048","longitude":"-62.7124","state_id":null,"state_name":null,"country_id":null}]