[{"active":false,"Giataid":"8514","cityId":1446,"cityName":"San Pedro","hotelId":8514,"hotelName":"Banana Beach Resort","address":"Ambergris Caye,San Pedro,Belize","phones":"+5012263890","fax":"","email":"info@bananabeach.com","url":"http://bananabeach.com/","countryIso2":"BZ","countryName":"Belize","hotelRating":"4","latitude":"17.9042","longitude":"-87.9755","state_id":3644,"state_name":"Misiones","country_id":11},{"active":false,"Giataid":"8534","cityId":1446,"cityName":"San Pedro","hotelId":8534,"hotelName":"Banyan Bay Beach Resort & The Mansions","address":"PO Box 266,San Pedro,Ambergris Caye,Belize","phones":"+5012263739","fax":"+5012262766","email":"info@banyanbay.com","url":"http://www.banyanbay.com","countryIso2":"BZ","countryName":"Belize","hotelRating":"3","latitude":"17.9066","longitude":"-87.9748","state_id":3644,"state_name":"Misiones","country_id":11},{"active":false,"Giataid":"8704","cityId":16133,"cityName":"Belize City","hotelId":8704,"hotelName":"Ramada Belize City Princess ","address":"Newtown Barracks Kings Park,Belize,Belize","phones":"+5012232670","fax":"","email":"","url":"","countryIso2":"BZ","countryName":"Belize","hotelRating":"3","latitude":"17.5051","longitude":"-88.1884","state_id":264,"state_name":"Belize District","country_id":23},{"active":false,"Giataid":"14998","cityId":118652,"cityName":"Hopkins","hotelId":14998,"hotelName":"Jaguar Reef Lodge","address":"Sittee River Road,Hopkins Village,Hopkins 501,Dangriga (Stann Creek),Belize","phones":"+501115015337040","fax":"+5015207091","email":"inquiries@almondjaguar.com","url":"http://www.jaguarreef.com/index.html","countryIso2":"BZ","countryName":"Belize","hotelRating":"3","latitude":"16.8402","longitude":"-88.2714","state_id":1420,"state_name":"Minnesota","country_id":233},{"active":false,"Giataid":"19747","cityId":16133,"cityName":"Belize City","hotelId":19747,"hotelName":"Radisson Fort George","address":"2 Marine Parade,Belize City,Belize","phones":"+5012233333","fax":"+5012273820","email":"amin.dredge@radisson.com","url":"http://www.radisson.com/belize-city-hotel-bz/belize","countryIso2":"BZ","countryName":"Belize","hotelRating":"4","latitude":"17.4932","longitude":"-88.1816","state_id":264,"state_name":"Belize District","country_id":23},{"active":false,"Giataid":"20705","cityId":1446,"cityName":"San Pedro","hotelId":20705,"hotelName":"Royal Palm Villas","address":"South Coconut Drive,San Pedro,Ambergris Caye,Belize,Belize","phones":"+50135064500","fax":"","email":"","url":"","countryIso2":"BZ","countryName":"Belize","hotelRating":"1","latitude":"17.9036","longitude":"-87.9758","state_id":3644,"state_name":"Misiones","country_id":11},{"active":false,"Giataid":"22785","cityId":16133,"cityName":"Belize City","hotelId":22785,"hotelName":"The Great House","address":"13 Cork Street,P.O. Box. 85,Belize City,Belize","phones":"+5012233400","fax":"+5012233444","email":"greathouse@btl.net","url":"http://www.greathousebelize.com","countryIso2":"BZ","countryName":"Belize","hotelRating":"3","latitude":"17.4924","longitude":"-88.1816","state_id":264,"state_name":"Belize District","country_id":23},{"active":false,"Giataid":"26869","cityId":16142,"cityName":"San Ignacio","hotelId":26869,"hotelName":"The Lodge At Chaa Creek","address":"77 Burns Avenue,Cayo,PO Box 53,San Ignacio,Belize","phones":"+5018242037","fax":"","email":"","url":"","countryIso2":"BZ","countryName":"Belize","hotelRating":"3","latitude":"17.1006","longitude":"-89.1043","state_id":269,"state_name":"Cayo District","country_id":23},{"active":false,"Giataid":"27068","cityId":1446,"cityName":"San Pedro","hotelId":27068,"hotelName":"Portofino Beach Resort","address":"6 Miles North Ambergris Caye,San Pedro,Belize","phones":"+5012265096","fax":"","email":"","url":"","countryIso2":"BZ","countryName":"Belize","hotelRating":"3","latitude":"17.9954","longitude":"-87.9182","state_id":3644,"state_name":"Misiones","country_id":11},{"active":false,"Giataid":"27070","cityId":null,"cityName":"Ambergris Caye","hotelId":27070,"hotelName":"Victoria House Resort","address":"22 Coconut Drive,San Pedro,Ambergris Caye,Belize","phones":"+5012262067","fax":"+5012262429","email":"info@victoriahouse.com","url":"http://www.victoria-house.com/","countryIso2":"BZ","countryName":"Belize","hotelRating":"4","latitude":"17.8995","longitude":"-87.9761","state_id":null,"state_name":null,"country_id":null},{"active":false,"Giataid":"27071","cityId":null,"cityName":"Ambergris Caye","hotelId":27071,"hotelName":"Sunbreeze Hotel","address":"P.O. Box: 14,San Pedro,Ambergris Caye,Belize,Belize","phones":"+5012262191","fax":"+5012262346","email":"sunbreezehotel@sunbreeze.net","url":"http://www.sunbreeze.net/","countryIso2":"BZ","countryName":"Belize","hotelRating":"3","latitude":"17.9173","longitude":"-87.9643","state_id":null,"state_name":null,"country_id":null},{"active":false,"Giataid":"27075","cityId":16140,"cityName":"Placencia","hotelId":27075,"hotelName":"Rum Point Inn","address":"","phones":"","fax":"","email":"","url":"","countryIso2":"BZ","countryName":"Belize","hotelRating":"3","latitude":"16.5561","longitude":"-88.3618","state_id":265,"state_name":"Stann Creek District","country_id":23},{"active":false,"Giataid":"27076","cityId":16142,"cityName":"San Ignacio","hotelId":27076,"hotelName":"Windy Hill Resort","address":"Graceland Ranch,Western Highway,San Ignacio,Belize,Belize","phones":"+5018242017","fax":"","email":"","url":"","countryIso2":"BZ","countryName":"Belize","hotelRating":"3","latitude":"17.1417","longitude":"-89.0874","state_id":269,"state_name":"Cayo District","country_id":23},{"active":false,"Giataid":"134475","cityId":1446,"cityName":"San Pedro","hotelId":134475,"hotelName":"Brahma Blue","address":"1 mile West,Costa del Sol,Ambergris Caye,San Pedro,Belize","phones":"","fax":"","email":"","url":"","countryIso2":"BZ","countryName":"Belize","hotelRating":"4","latitude":"17.9212","longitude":"-87.9626","state_id":3644,"state_name":"Misiones","country_id":11},{"active":false,"Giataid":"138630","cityId":null,"cityName":"Caye Caulker","hotelId":138630,"hotelName":"Anchorage Resort","address":"Beachfront Street Playa Asuncion,Caye Caulker,Belize","phones":"+5012060304","fax":"+5012260391","email":"","url":"","countryIso2":"BZ","countryName":"Belize","hotelRating":"3","latitude":"17.7382","longitude":"-88.0272","state_id":null,"state_name":null,"country_id":null},{"active":false,"Giataid":"138692","cityId":118652,"cityName":"Hopkins","hotelId":138692,"hotelName":"Belizean Dreams Resort","address":"Sittee River Road,Hopkins 501,Stann Creek District,Belize","phones":"+5015237272","fax":"","email":"","url":"","countryIso2":"BZ","countryName":"Belize","hotelRating":"4","latitude":"16.841","longitude":"-88.2724","state_id":1420,"state_name":"Minnesota","country_id":233},{"active":false,"Giataid":"138721","cityId":null,"cityName":"Burrell Boom","hotelId":138721,"hotelName":"Black Orchid Resort","address":"2, Dawson Lane,Burrell Boom Village,Belize City,Belize","phones":"+5012259158","fax":"+5012259028","email":"info@blackorchidresort.com","url":"http://blackorchidresort.com","countryIso2":"BZ","countryName":"Belize","hotelRating":"3","latitude":"17.5711","longitude":"-88.3947","state_id":null,"state_name":null,"country_id":null},{"active":false,"Giataid":"138760","cityId":16142,"cityName":"San Ignacio","hotelId":138760,"hotelName":"Casa del Caballo Blanco","address":"3 Bullet Tree Road,San Ignacio,Belize","phones":"","fax":"","email":"","url":"","countryIso2":"BZ","countryName":"Belize","hotelRating":"1","latitude":"17.1586","longitude":"-89.0907","state_id":269,"state_name":"Cayo District","country_id":23},{"active":false,"Giataid":"138827","cityId":16139,"cityName":"Orange Walk","hotelId":138827,"hotelName":"D' Victoria","address":"","phones":"","fax":"","email":"","url":"","countryIso2":"BZ","countryName":"Belize","hotelRating":"1","latitude":"18.0293","longitude":"-88.5586","state_id":268,"state_name":"Orange Walk District","country_id":23},{"active":false,"Giataid":"139098","cityId":null,"cityName":"Maskall","hotelId":139098,"hotelName":"Maruba Resort Jungle Spa","address":"40.5 Miles Old Northern Highway,Maskall Village,Belize,Belize","phones":"+5017137992031","fax":"","email":"","url":"","countryIso2":"BZ","countryName":"Belize","hotelRating":"3","latitude":"17.8995","longitude":"-88.3291","state_id":null,"state_name":null,"country_id":null},{"active":false,"Giataid":"139149","cityId":16133,"cityName":"Belize City","hotelId":139149,"hotelName":"Orchid Garden EcO-Village","address":"","phones":"","fax":"","email":"","url":"","countryIso2":"BZ","countryName":"Belize","hotelRating":"4","latitude":"17.4653","longitude":"-88.3845","state_id":264,"state_name":"Belize District","country_id":23},{"active":false,"Giataid":"144024","cityId":1446,"cityName":"San Pedro","hotelId":144024,"hotelName":"Royal Caribbean Resort","address":"1 Seagrape Street,Ambergris Caye,Belize","phones":"+5012264220","fax":"","email":"","url":"","countryIso2":"BZ","countryName":"Belize","hotelRating":"3","latitude":"17.8985","longitude":"-87.976","state_id":3644,"state_name":"Misiones","country_id":11},{"active":false,"Giataid":"144026","cityId":16133,"cityName":"Belize City","hotelId":144026,"hotelName":"Bachelor Inn","address":"5931 Bachelor Ave.,West Landivar,Belize City,Belize","phones":"+5012237310","fax":"+5012237310","email":"bachelorinnhotel@yahoo.com","url":"http://www.bachelor-inn-hotel.com","countryIso2":"BZ","countryName":"Belize","hotelRating":"2","latitude":"17.5159","longitude":"-88.2014","state_id":264,"state_name":"Belize District","country_id":23},{"active":false,"Giataid":"144028","cityId":1446,"cityName":"San Pedro","hotelId":144028,"hotelName":"Cayo Espanto","address":"Cayo Espanto Island,San Pedro,Belize District,Belize,Belize","phones":"+5019103238355","fax":"","email":"","url":"","countryIso2":"BZ","countryName":"Belize","hotelRating":"5","latitude":"17.9154","longitude":"-88","state_id":3644,"state_name":"Misiones","country_id":11},{"active":false,"Giataid":"144029","cityId":1446,"cityName":"San Pedro","hotelId":144029,"hotelName":"Journeys End Resort","address":"San Pedro,Ambergris Caye,Belize","phones":"+5012262173","fax":"","email":"","url":"","countryIso2":"BZ","countryName":"Belize","hotelRating":"3","latitude":"17.9675","longitude":"-87.9305","state_id":3644,"state_name":"Misiones","country_id":11},{"active":false,"Giataid":"144030","cityId":null,"cityName":"Caye Caulker","hotelId":144030,"hotelName":"Auxillou Beach Suites","address":"Beachfront,Caye Caulker,Belize,Belize","phones":"+50115012260370","fax":"","email":"","url":"","countryIso2":"BZ","countryName":"Belize","hotelRating":"1","latitude":"17.7427","longitude":"-88.0236","state_id":null,"state_name":null,"country_id":null},{"active":false,"Giataid":"144031","cityId":null,"cityName":"Ambergris Caye","hotelId":144031,"hotelName":"Blue Reef Island Resort","address":"","phones":"","fax":"","email":"","url":"","countryIso2":"BZ","countryName":"Belize","hotelRating":"4","latitude":"17.9521","longitude":"-87.9433","state_id":null,"state_name":null,"country_id":null},{"active":false,"Giataid":"144032","cityId":16134,"cityName":"Belmopan","hotelId":144032,"hotelName":"Super Palm Resort","address":"46.5 Western Highway,Belmopan,Cayo District,Belize","phones":"+5018223258","fax":"","email":"","url":"","countryIso2":"BZ","countryName":"Belize","hotelRating":"3","latitude":"17.2741","longitude":"-88.7846","state_id":269,"state_name":"Cayo District","country_id":23},{"active":false,"Giataid":"144033","cityId":16142,"cityName":"San Ignacio","hotelId":144033,"hotelName":"Ka'ana Resort","address":"Mile 69 1/4,Benque Viejo Road,San Ignacio,Belize","phones":"+50115018243350","fax":"","email":"","url":"","countryIso2":"BZ","countryName":"Belize","hotelRating":"4","latitude":"17.1419","longitude":"-89.0827","state_id":269,"state_name":"Cayo District","country_id":23},{"active":false,"Giataid":"144034","cityId":16142,"cityName":"San Ignacio","hotelId":144034,"hotelName":"Maya Mountain Lodge","address":"P.O. Box 174,San Ignacio,Cayo District,Belize","phones":"","fax":"","email":"adventure@mayamountain.com","url":"http://www.mayamountain.com","countryIso2":"BZ","countryName":"Belize","hotelRating":"3","latitude":"17.1571","longitude":"-89.0628","state_id":269,"state_name":"Cayo District","country_id":23},{"active":false,"Giataid":"144035","cityId":16134,"cityName":"Belmopan","hotelId":144035,"hotelName":"Hidden Valley Inn","address":"4 Cooma Cain Road,Mountain Pine Ridge,Cayo District,Belmopan,Belize","phones":"+5018223320","fax":"+5018223334","email":"","url":"http://www.hiddenvalleyinn.com","countryIso2":"BZ","countryName":"Belize","hotelRating":"3","latitude":"17.2514","longitude":"-88.7669","state_id":269,"state_name":"Cayo District","country_id":23},{"active":false,"Giataid":"144036","cityId":16142,"cityName":"San Ignacio","hotelId":144036,"hotelName":"duPlooys Jungle Lodge","address":"Chial Road,San Ignacio,Cayo,Belize","phones":"","fax":"","email":"","url":"","countryIso2":"BZ","countryName":"Belize","hotelRating":"2","latitude":"17.0942","longitude":"-89.0709","state_id":269,"state_name":"Cayo District","country_id":23},{"active":false,"Giataid":"144037","cityId":118652,"cityName":"Hopkins","hotelId":144037,"hotelName":"Hopkins Bay Resort","address":"North End,Stann Creek,Hopkins,Belize,Belize","phones":"+501115015337804","fax":"","email":"","url":"","countryIso2":"BZ","countryName":"Belize","hotelRating":"4","latitude":"16.8407","longitude":"-88.2725","state_id":1420,"state_name":"Minnesota","country_id":233},{"active":false,"Giataid":"144038","cityId":16141,"cityName":"Punta Gorda","hotelId":144038,"hotelName":"The Lodge At Big Falls","address":"PO Box 103,Southern Toledo District,Big Falls,Punta Gorda,Belize","phones":"+5017324444","fax":"","email":"","url":"","countryIso2":"BZ","countryName":"Belize","hotelRating":"3","latitude":"16.2605","longitude":"-88.8905","state_id":267,"state_name":"Toledo District","country_id":23},{"active":false,"Giataid":"183319","cityId":null,"cityName":"Corozal Town","hotelId":183319,"hotelName":"Las Palmas Hotel","address":"123 5th Avenue,Corozal Town,Belize","phones":"","fax":"","email":"","url":"","countryIso2":"BZ","countryName":"Belize","hotelRating":"2","latitude":"18.3896","longitude":"-88.3891","state_id":null,"state_name":null,"country_id":null},{"active":false,"Giataid":"183323","cityId":null,"cityName":"Ambergris Caye","hotelId":183323,"hotelName":"Costa Blu Dive & Beach Resort","address":"","phones":"","fax":"","email":"","url":"","countryIso2":"BZ","countryName":"Belize","hotelRating":"3","latitude":"17.9521","longitude":"-87.9433","state_id":null,"state_name":null,"country_id":null},{"active":false,"Giataid":"183320","cityId":16141,"cityName":"Punta Gorda","hotelId":183320,"hotelName":"Tranquility Lodge","address":"P.O. Box 99,Punta Gorda,Toledo,Belize","phones":"+5016779921","fax":"","email":"","url":"","countryIso2":"BZ","countryName":"Belize","hotelRating":"3","latitude":"16.0999","longitude":"-88.8102","state_id":267,"state_name":"Toledo District","country_id":23},{"active":false,"Giataid":"183322","cityId":16140,"cityName":"Placencia","hotelId":183322,"hotelName":"Michelo Suites","address":"21 Harbour Place,Placencia,Belize","phones":"+5015233519","fax":"","email":"","url":"","countryIso2":"BZ","countryName":"Belize","hotelRating":"3","latitude":"16.5217","longitude":"-88.3703","state_id":265,"state_name":"Stann Creek District","country_id":23},{"active":false,"Giataid":"187390","cityId":16140,"cityName":"Placencia","hotelId":187390,"hotelName":"Bellamaya Resort","address":"","phones":"","fax":"","email":"","url":"","countryIso2":"BZ","countryName":"Belize","hotelRating":"3","latitude":"16.6262","longitude":"-88.3511","state_id":265,"state_name":"Stann Creek District","country_id":23},{"active":false,"Giataid":"187426","cityId":1446,"cityName":"San Pedro","hotelId":187426,"hotelName":"Xaman Ek Retreat And Spa","address":"8 km North of San Pedro,San Pedro,Belize","phones":"","fax":"","email":"","url":"","countryIso2":"BZ","countryName":"Belize","hotelRating":"1","latitude":"17.9252","longitude":"-87.9599","state_id":3644,"state_name":"Misiones","country_id":11},{"active":false,"Giataid":"187437","cityId":16142,"cityName":"San Ignacio","hotelId":187437,"hotelName":"Cahal Pech Village Resort","address":"Cahal Pech Hill,P.O. Box 1,San Ignacio Town,Cayo,Belize","phones":"+5018243740","fax":"","email":"","url":"","countryIso2":"BZ","countryName":"Belize","hotelRating":"3","latitude":"17.148","longitude":"-89.0755","state_id":269,"state_name":"Cayo District","country_id":23},{"active":false,"Giataid":"187652","cityId":null,"cityName":"Corozal Town","hotelId":187652,"hotelName":"Casa Blanca By The Sea","address":"","phones":"","fax":"","email":"","url":"","countryIso2":"BZ","countryName":"Belize","hotelRating":"2","latitude":"18.4061","longitude":"-88.3825","state_id":null,"state_name":null,"country_id":null},{"active":false,"Giataid":"228891","cityId":1446,"cityName":"San Pedro","hotelId":228891,"hotelName":"Exotic Caye Beach Resort","address":"Coconut Drive,P.O. Box 11,San Pedro Town,Ambergris Caye,Belize,Belize","phones":"+5012262870","fax":"+5012262871","email":"","url":"http://www.belizeisfun.com","countryIso2":"BZ","countryName":"Belize","hotelRating":"3","latitude":"17.9114","longitude":"-87.9698","state_id":3644,"state_name":"Misiones","country_id":11},{"active":false,"Giataid":"234090","cityId":1446,"cityName":"San Pedro","hotelId":234090,"hotelName":"Coco Beach Resort","address":"Ambergris Caye 3.5 Miles North,PO Box 1,San Pedro,Belize","phones":"+50118443601553","fax":"","email":"","url":"","countryIso2":"BZ","countryName":"Belize","hotelRating":"4","latitude":"17.9595","longitude":"-87.9364","state_id":3644,"state_name":"Misiones","country_id":11},{"active":false,"Giataid":"239577","cityId":1446,"cityName":"San Pedro","hotelId":239577,"hotelName":"Belizean Cove Estates","address":"San Pedro,Ambergris Caye,Belize","phones":"+5012264840","fax":"+5012264845","email":"gm@belizeancove.com","url":"http://www.belizeancove.com","countryIso2":"BZ","countryName":"Belize","hotelRating":"4","latitude":"17.9565","longitude":"-87.9389","state_id":3644,"state_name":"Misiones","country_id":11},{"active":false,"Giataid":"239578","cityId":1446,"cityName":"San Pedro","hotelId":239578,"hotelName":"Corona Del Mar","address":"Coconut Drive,San Pedro,Ambergris Caye,Belize","phones":"+5012262055","fax":"+5012262461","email":"corona@btl.net","url":"http://ambergriscaye.com/coronadelmar/","countryIso2":"BZ","countryName":"Belize","hotelRating":"2","latitude":"17.9107","longitude":"-87.9703","state_id":3644,"state_name":"Misiones","country_id":11},{"active":false,"Giataid":"239579","cityId":1446,"cityName":"San Pedro","hotelId":239579,"hotelName":"Grand Colony Island Villas","address":"P.O Box 96,San Pedro Town,Belize,Belize","phones":"+5012264270","fax":"+5012264271","email":"reservations@grandcolonyvillas.com","url":"http://www.grandcolonyvillas.com/","countryIso2":"BZ","countryName":"Belize","hotelRating":"4","latitude":"17.9046","longitude":"-87.9754","state_id":3644,"state_name":"Misiones","country_id":11},{"active":false,"Giataid":"239580","cityId":16142,"cityName":"San Ignacio","hotelId":239580,"hotelName":"GumboLimbo Jungle Resort","address":"Mount Pine Ridge Road,Mile 2,P.O. Box 245,San Ignacio,Maya Mountains,Cayo District,Belize,Belize","phones":"+5016503112","fax":"","email":"","url":"http://www.gumbolimboresort.com","countryIso2":"BZ","countryName":"Belize","hotelRating":"3","latitude":"17.1611","longitude":"-88.993","state_id":269,"state_name":"Cayo District","country_id":23},{"active":false,"Giataid":"239581","cityId":16140,"cityName":"Placencia","hotelId":239581,"hotelName":"The Placencia Resort","address":"Placencia,Stann Creek District,Belize","phones":"+5015204110","fax":"+5015204112","email":"discover@theplacenciagroup.com","url":"http://www.theplacencia.com/","countryIso2":"BZ","countryName":"Belize","hotelRating":"4","latitude":"16.6379","longitude":"-88.3312","state_id":265,"state_name":"Stann Creek District","country_id":23},{"active":false,"Giataid":"243764","cityId":16142,"cityName":"San Ignacio","hotelId":243764,"hotelName":"Midas Belize","address":"Branch Mouth Road,Cayo District,San Ignacio,Belize","phones":"+5018243172","fax":"","email":"","url":"http://midasresortbelize.com","countryIso2":"BZ","countryName":"Belize","hotelRating":"3","latitude":"17.1523","longitude":"-89.08","state_id":269,"state_name":"Cayo District","country_id":23},{"active":false,"Giataid":"246865","cityId":16133,"cityName":"Belize City","hotelId":246865,"hotelName":"The Bakadeer Inn","address":"74 Cleghorn Street,Belize City,Belize","phones":"+5012230659","fax":"+5012230659","email":"info@bakadeerinn.com","url":"http://bakadeerinn.com.iis2003.shared-servers.com/Home.aspx","countryIso2":"BZ","countryName":"Belize","hotelRating":"3","latitude":"17.5021","longitude":"-88.1934","state_id":264,"state_name":"Belize District","country_id":23},{"active":false,"Giataid":"249418","cityId":null,"cityName":"Cayo District","hotelId":249418,"hotelName":"Mystic River Resort","address":"Mile 6 Cristo Rey Road,Cayo,Belize","phones":"+5018344100","fax":"","email":"info@MysticRiverBelize.com","url":"http://www.mysticriverbelize.com/contact-us.html","countryIso2":"BZ","countryName":"Belize","hotelRating":"4","latitude":"17.0945","longitude":"-89.0671","state_id":null,"state_name":null,"country_id":null},{"active":false,"Giataid":"249420","cityId":null,"cityName":"Caye Caulker","hotelId":249420,"hotelName":"Caye Caulker Plaza Hotel","address":"Avenida Langosta,Calle Al Sol,Caye Caulker,Belize","phones":"+5012260780","fax":"+5012260781","email":"joanna@cayecaulkerplazahotel.com","url":"https://cayecaulkerplazahotel.com/index.php","countryIso2":"BZ","countryName":"Belize","hotelRating":"2","latitude":"17.7432","longitude":"-88.0251","state_id":null,"state_name":null,"country_id":null},{"active":false,"Giataid":"249422","cityId":16137,"cityName":"Dangriga","hotelId":249422,"hotelName":"Jungle Huts Resort","address":"4 Ecumenical Drive,Dangriga Town,Stann Creek,Belize,Belize","phones":"+5015220185","fax":"","email":"junglehutsresort@gmail.com","url":"http://www.facebook.com/pages/Jungle-Huts-Resort/123917507646995?sk=info","countryIso2":"BZ","countryName":"Belize","hotelRating":"2","latitude":"16.9676","longitude":"-88.2249","state_id":265,"state_name":"Stann Creek District","country_id":23},{"active":false,"Giataid":"249425","cityId":1446,"cityName":"San Pedro","hotelId":249425,"hotelName":"Pedroï¿½s Hotel","address":"Seagrape Drive,San Pedro,Ambergris Caye,Belize,Belize","phones":"+5012263825","fax":"","email":"cindy@pedroshotel.com","url":"http://pedroshotel.com/","countryIso2":"BZ","countryName":"Belize","hotelRating":"2","latitude":"17.9142","longitude":"-87.9688","state_id":3644,"state_name":"Misiones","country_id":11},{"active":false,"Giataid":"249724","cityId":1446,"cityName":"San Pedro","hotelId":249724,"hotelName":"Caribbean Villas Hotel","address":"San Pedro,Ambergris Caye,Belize","phones":"+5012262715","fax":"","email":"","url":"http://caribbeanvillashotel.com/","countryIso2":"BZ","countryName":"Belize","hotelRating":"2","latitude":"17.9091","longitude":"-87.9723","state_id":3644,"state_name":"Misiones","country_id":11},{"active":false,"Giataid":"322085","cityId":118652,"cityName":"Hopkins","hotelId":322085,"hotelName":"Whistling Seas Vacation Inn","address":"","phones":"","fax":"","email":"","url":"","countryIso2":"BZ","countryName":"Belize","hotelRating":"1","latitude":"16.8542","longitude":"-88.2798","state_id":1420,"state_name":"Minnesota","country_id":233},{"active":false,"Giataid":"322087","cityId":1446,"cityName":"San Pedro","hotelId":322087,"hotelName":"Milo's Hotel","address":"","phones":"","fax":"","email":"","url":"","countryIso2":"BZ","countryName":"Belize","hotelRating":"1","latitude":"17.9252","longitude":"-87.9599","state_id":3644,"state_name":"Misiones","country_id":11},{"active":false,"Giataid":"322089","cityId":1446,"cityName":"San Pedro","hotelId":322089,"hotelName":"Playa Blanca Villa","address":"","phones":"","fax":"","email":"","url":"","countryIso2":"BZ","countryName":"Belize","hotelRating":"1","latitude":"17.9252","longitude":"-87.9599","state_id":3644,"state_name":"Misiones","country_id":11},{"active":false,"Giataid":"322090","cityId":1446,"cityName":"San Pedro","hotelId":322090,"hotelName":"Salamander Hideaway","address":"","phones":"","fax":"","email":"","url":"","countryIso2":"BZ","countryName":"Belize","hotelRating":"1","latitude":"17.9252","longitude":"-87.9599","state_id":3644,"state_name":"Misiones","country_id":11},{"active":false,"Giataid":"322091","cityId":1446,"cityName":"San Pedro","hotelId":322091,"hotelName":"San Pedro Holiday Hotel","address":"61 Barrier Reef Drive","phones":"","fax":"","email":"","url":"","countryIso2":"BZ","countryName":"Belize","hotelRating":"3","latitude":"17.9216","longitude":"-87.961","state_id":3644,"state_name":"Misiones","country_id":11},{"active":false,"Giataid":"322092","cityId":1446,"cityName":"San Pedro","hotelId":322092,"hotelName":"Lily's Hotel","address":"","phones":"","fax":"","email":"","url":"","countryIso2":"BZ","countryName":"Belize","hotelRating":"1","latitude":"17.9252","longitude":"-87.9599","state_id":3644,"state_name":"Misiones","country_id":11},{"active":false,"Giataid":"322093","cityId":1446,"cityName":"San Pedro","hotelId":322093,"hotelName":"The Landings at Tres Cocos","address":"","phones":"","fax":"","email":"","url":"","countryIso2":"BZ","countryName":"Belize","hotelRating":"1","latitude":"17.9252","longitude":"-87.9599","state_id":3644,"state_name":"Misiones","country_id":11},{"active":false,"Giataid":"322584","cityId":16142,"cityName":"San Ignacio","hotelId":322584,"hotelName":"Casa Maya Eco Resort","address":"","phones":"","fax":"","email":"","url":"","countryIso2":"BZ","countryName":"Belize","hotelRating":"1","latitude":"17.1353","longitude":"-89.072","state_id":269,"state_name":"Cayo District","country_id":23},{"active":false,"Giataid":"322585","cityId":16142,"cityName":"San Ignacio","hotelId":322585,"hotelName":"Tropicool Hotel","address":"","phones":"","fax":"","email":"","url":"","countryIso2":"BZ","countryName":"Belize","hotelRating":"1","latitude":"17.1353","longitude":"-89.072","state_id":269,"state_name":"Cayo District","country_id":23},{"active":false,"Giataid":"322586","cityId":16142,"cityName":"San Ignacio","hotelId":322586,"hotelName":"Moonracer Farm Lodging & Tours","address":"","phones":"","fax":"","email":"","url":"","countryIso2":"BZ","countryName":"Belize","hotelRating":"1","latitude":"17.1353","longitude":"-89.072","state_id":269,"state_name":"Cayo District","country_id":23},{"active":false,"Giataid":"363706","cityId":1446,"cityName":"San Pedro","hotelId":363706,"hotelName":"Sapphire Beach Resort","address":"10 Miles North San Pedro,Ambergris Caye,00501 San Pedro,Belize,Belize","phones":"+501115016702480","fax":"","email":"reservations@sapphirebeachbz.com","url":"http://www.sapphirebeachbz.com/","countryIso2":"BZ","countryName":"Belize","hotelRating":"4","latitude":"18.0356","longitude":"-87.8963","state_id":3644,"state_name":"Misiones","country_id":11},{"active":false,"Giataid":"363707","cityId":16140,"cityName":"Placencia","hotelId":363707,"hotelName":"South Waters Resort","address":"Stann Creek,Placencia,Belize,Belize","phones":"+5015233308","fax":"","email":"southwatersresort@yahoo.com","url":"http://www.southwatersresort.com/index.htm","countryIso2":"BZ","countryName":"Belize","hotelRating":"4","latitude":"16.5123","longitude":"-88.3673","state_id":265,"state_name":"Stann Creek District","country_id":23},{"active":false,"Giataid":"368080","cityId":16133,"cityName":"Belize City","hotelId":368080,"hotelName":"Fiesta Inn Belize Resort N Marina","address":"","phones":"","fax":"","email":"","url":"","countryIso2":"BZ","countryName":"Belize","hotelRating":"1","latitude":"17.5069","longitude":"-88.227","state_id":264,"state_name":"Belize District","country_id":23},{"active":false,"Giataid":"368081","cityId":16140,"cityName":"Placencia","hotelId":368081,"hotelName":"Belize Ocean Club","address":"Placencia Road,Maya Beach,Placencia,Stann Creek District,Belize,Belize","phones":"+50117862338587","fax":"","email":"","url":"","countryIso2":"BZ","countryName":"Belize","hotelRating":"5","latitude":"16.6263","longitude":"-88.351","state_id":265,"state_name":"Stann Creek District","country_id":23},{"active":false,"Giataid":"368745","cityId":1446,"cityName":"San Pedro","hotelId":368745,"hotelName":"Belize Hutz","address":"2141 Pearl Street,San Pedro,Ambergris Caye 90210,Belize","phones":"","fax":"","email":"","url":"","countryIso2":"BZ","countryName":"Belize","hotelRating":"3","latitude":"17.9066","longitude":"-87.9789","state_id":3644,"state_name":"Misiones","country_id":11},{"active":false,"Giataid":"368746","cityId":null,"cityName":"Ambergris Caye","hotelId":368746,"hotelName":"X'tan Ha - The Waterfront Resort","address":"P.O. Box 1,7.2 Mls. North,Ambergris Caye,San Pedro,Belize","phones":"+501115012264398","fax":"","email":"","url":"","countryIso2":"BZ","countryName":"Belize","hotelRating":"3","latitude":"18.011","longitude":"-87.9102","state_id":null,"state_name":null,"country_id":null},{"active":false,"Giataid":"370166","cityId":16134,"cityName":"Belmopan","hotelId":370166,"hotelName":"Sky Flower Hotel","address":"","phones":"","fax":"","email":"","url":"","countryIso2":"BZ","countryName":"Belize","hotelRating":"3","latitude":"17.2389","longitude":"-88.7504","state_id":269,"state_name":"Cayo District","country_id":23},{"active":false,"Giataid":"370196","cityId":null,"cityName":"Cayo District","hotelId":370196,"hotelName":"Caves Branch Adventure Co And Jungle Lod","address":"","phones":"","fax":"","email":"","url":"","countryIso2":"BZ","countryName":"Belize","hotelRating":"3","latitude":"17.176","longitude":"-88.844","state_id":null,"state_name":null,"country_id":null},{"active":false,"Giataid":"405173","cityId":null,"cityName":"Long Caye","hotelId":405173,"hotelName":"Itza Lodge","address":"Long Caye,Lighthouse Reef Atoll,PO Box 2050,Belize,Belize","phones":"+5013056002585","fax":"","email":"info@itzalodge.com","url":"http://www.itzalodge.com","countryIso2":"BZ","countryName":"Belize","hotelRating":"1","latitude":"17.2185","longitude":"-87.5909","state_id":null,"state_name":null,"country_id":null},{"active":false,"Giataid":"431237","cityId":16142,"cityName":"San Ignacio","hotelId":431237,"hotelName":"Gaia Riverlodge","address":"PO Box 173,San Ignacio,Mountain Pine Ridge Reserve,Belize","phones":"+5018344024","fax":"+5012230002","email":"info@gaiariverlodge.com","url":"http://www.gaiariverlodge.com","countryIso2":"BZ","countryName":"Belize","hotelRating":"3","latitude":"17.0386","longitude":"-88.9844","state_id":269,"state_name":"Cayo District","country_id":23},{"active":false,"Giataid":"444968","cityId":null,"cityName":"Caye Caulker","hotelId":444968,"hotelName":"Axios of the Sun","address":"","phones":"","fax":"","email":"","url":"","countryIso2":"BZ","countryName":"Belize","hotelRating":"1","latitude":"17.7314","longitude":"-88.03","state_id":null,"state_name":null,"country_id":null},{"active":false,"Giataid":"445054","cityId":1446,"cityName":"San Pedro","hotelId":445054,"hotelName":"Spindrift Hotel","address":"Barrier Reef Drive 33,Ambergris Caye,San Pedro,Belize","phones":"","fax":"+50119727611580","email":"reservations@spindriftbelize.com","url":"http://www.spindriftbelize.com","countryIso2":"BZ","countryName":"Belize","hotelRating":"3","latitude":"17.9187","longitude":"-87.9623","state_id":3644,"state_name":"Misiones","country_id":11},{"active":false,"Giataid":"445837","cityId":16140,"cityName":"Placencia","hotelId":445837,"hotelName":"Belizean Nirvana","address":"","phones":"","fax":"","email":"","url":"","countryIso2":"BZ","countryName":"Belize","hotelRating":"1","latitude":"16.5172","longitude":"-88.367","state_id":265,"state_name":"Stann Creek District","country_id":23},{"active":false,"Giataid":"446204","cityId":16142,"cityName":"San Ignacio","hotelId":446204,"hotelName":"Rolson Hotel","address":"","phones":"","fax":"","email":"","url":"","countryIso2":"BZ","countryName":"Belize","hotelRating":"3","latitude":"17.1481","longitude":"-89.0806","state_id":269,"state_name":"Cayo District","country_id":23},{"active":false,"Giataid":"446792","cityId":16137,"cityName":"Dangriga","hotelId":446792,"hotelName":"Bonefish Hotel","address":"","phones":"","fax":"","email":"","url":"","countryIso2":"BZ","countryName":"Belize","hotelRating":"1","latitude":"16.9656","longitude":"-88.2186","state_id":265,"state_name":"Stann Creek District","country_id":23},{"active":false,"Giataid":"446860","cityId":null,"cityName":"Corozal Town","hotelId":446860,"hotelName":"HokolKin Guesthouse Hotel","address":"","phones":"","fax":"","email":"","url":"","countryIso2":"BZ","countryName":"Belize","hotelRating":"1","latitude":"18.3915","longitude":"-88.3857","state_id":null,"state_name":null,"country_id":null},{"active":false,"Giataid":"446864","cityId":16134,"cityName":"Belmopan","hotelId":446864,"hotelName":"Yim Saan Hotel","address":"4253 Hummingbird Highway,Belmopan,Belize","phones":"","fax":"","email":"","url":"","countryIso2":"BZ","countryName":"Belize","hotelRating":"1","latitude":"17.2389","longitude":"-88.7504","state_id":269,"state_name":"Cayo District","country_id":23},{"active":false,"Giataid":"446887","cityId":16141,"cityName":"Punta Gorda","hotelId":446887,"hotelName":"St Charles Inn","address":"","phones":"","fax":"","email":"","url":"","countryIso2":"BZ","countryName":"Belize","hotelRating":"1","latitude":"16.1021","longitude":"-88.803","state_id":267,"state_name":"Toledo District","country_id":23},{"active":false,"Giataid":"446893","cityId":null,"cityName":"Caye Caulker","hotelId":446893,"hotelName":"Iguana Reef Inn","address":"","phones":"","fax":"","email":"","url":"","countryIso2":"BZ","countryName":"Belize","hotelRating":"3","latitude":"17.7461","longitude":"-88.025","state_id":null,"state_name":null,"country_id":null},{"active":false,"Giataid":"446911","cityId":null,"cityName":"Caye Caulker","hotelId":446911,"hotelName":"Weezie's Ocean Front Hotel and Garden Cottages","address":"","phones":"","fax":"","email":"","url":"","countryIso2":"BZ","countryName":"Belize","hotelRating":"1","latitude":"17.7357","longitude":"-88.0269","state_id":null,"state_name":null,"country_id":null},{"active":false,"Giataid":"470143","cityId":1446,"cityName":"San Pedro","hotelId":470143,"hotelName":"Cocotal Inn and Cabanas","address":"","phones":"","fax":"","email":"","url":"","countryIso2":"BZ","countryName":"Belize","hotelRating":"1","latitude":"17.9524","longitude":"-87.9408","state_id":3644,"state_name":"Misiones","country_id":11},{"active":false,"Giataid":"470145","cityId":16140,"cityName":"Placencia","hotelId":470145,"hotelName":"Paradise Resort","address":"","phones":"","fax":"","email":"","url":"","countryIso2":"BZ","countryName":"Belize","hotelRating":"1","latitude":"16.511","longitude":"-88.3698","state_id":265,"state_name":"Stann Creek District","country_id":23},{"active":false,"Giataid":"485720","cityId":63056,"cityName":"Tower Hill","hotelId":485720,"hotelName":"Lamanai Hotel & Marina","address":"Phillip Goldson Highway,Tower Hill Village,Orange Walk,Belize","phones":"+5016707846","fax":"","email":"info@lamanailandings.com","url":"http://www.lamanailandingsbelize.com/","countryIso2":"BZ","countryName":"Belize","hotelRating":"3","latitude":"18.0556","longitude":"-88.5641","state_id":3751,"state_name":"Saint Andrew","country_id":108},{"active":false,"Giataid":"485723","cityId":null,"cityName":"Monkey River Town","hotelId":485723,"hotelName":"Sabal Beach","address":"","phones":"","fax":"","email":"","url":"","countryIso2":"BZ","countryName":"Belize","hotelRating":"1","latitude":"0","longitude":"0","state_id":null,"state_name":null,"country_id":null},{"active":false,"Giataid":"501677","cityId":118652,"cityName":"Hopkins","hotelId":501677,"hotelName":"Coconut Row Guest House","address":"Front Street,Hopkins,Belize","phones":"","fax":"","email":"","url":"","countryIso2":"BZ","countryName":"Belize","hotelRating":"3","latitude":"16.8627","longitude":"-88.2837","state_id":1420,"state_name":"Minnesota","country_id":233},{"active":false,"Giataid":"502024","cityId":118652,"cityName":"Hopkins","hotelId":502024,"hotelName":"Palm Cove Cabins","address":"","phones":"","fax":"","email":"","url":"","countryIso2":"BZ","countryName":"Belize","hotelRating":"2","latitude":"16.8625","longitude":"-88.2841","state_id":1420,"state_name":"Minnesota","country_id":233},{"active":false,"Giataid":"510112","cityId":118652,"cityName":"Hopkins","hotelId":510112,"hotelName":"Buttonwood Guest House","address":"Front Street,Hopkins,Belize","phones":"","fax":"","email":"","url":"","countryIso2":"BZ","countryName":"Belize","hotelRating":"1","latitude":"16.8542","longitude":"-88.2798","state_id":1420,"state_name":"Minnesota","country_id":233},{"active":false,"Giataid":"580261","cityId":1446,"cityName":"San Pedro","hotelId":580261,"hotelName":"Grand Baymen","address":"Ambergis Caye,Belize","phones":"+5012264771","fax":"","email":"","url":"http://www.grandbaymen.com/","countryIso2":"BZ","countryName":"Belize","hotelRating":"3","latitude":"17.9129","longitude":"-87.9719","state_id":3644,"state_name":"Misiones","country_id":11},{"active":false,"Giataid":"583909","cityId":16142,"cityName":"San Ignacio","hotelId":583909,"hotelName":"The Green House","address":"6 Bishop Martin Drive,San Ignacio,Belize","phones":"","fax":"","email":"","url":"","countryIso2":"BZ","countryName":"Belize","hotelRating":"1","latitude":"17.1582","longitude":"-89.0841","state_id":269,"state_name":"Cayo District","country_id":23},{"active":false,"Giataid":"583962","cityId":null,"cityName":"Caye Caulker","hotelId":583962,"hotelName":"Sea n Sun Guest House","address":"Lind's Cocal Street,Caye Caulker,Belize","phones":"","fax":"","email":"","url":"http://www.seaandsunguesthouse.com/","countryIso2":"BZ","countryName":"Belize","hotelRating":"1","latitude":"17.7928","longitude":"-88.0187","state_id":null,"state_name":null,"country_id":null},{"active":false,"Giataid":"583969","cityId":null,"cityName":"Lucky Strike","hotelId":583969,"hotelName":"Highway Trails Belize Resort and Country Club","address":"27,5 Miles Old Northern Highway,Lucky Strike,Belize District,Belize","phones":"+5012255540","fax":"","email":"","url":"http://www.highwaytrails.bz/","countryIso2":"BZ","countryName":"Belize","hotelRating":"1","latitude":"0","longitude":"0","state_id":null,"state_name":null,"country_id":null},{"active":false,"Giataid":"583970","cityId":null,"cityName":"Teakettle Village","hotelId":583970,"hotelName":"Chaya Maya Jungle Lodge","address":"Young Gal Road,Teakettle,Belize","phones":"","fax":"","email":"chayamayajunglelodge@yahoo.com","url":"http://www.chayamayajunglelodge.com/","countryIso2":"BZ","countryName":"Belize","hotelRating":"1","latitude":"17.2414","longitude":"-88.8506","state_id":null,"state_name":null,"country_id":null},{"active":false,"Giataid":"583972","cityId":1446,"cityName":"San Pedro","hotelId":583972,"hotelName":"Villa Incommunicada","address":"NULL","phones":"+50113039578051","fax":"","email":"","url":"http://www.vacationthecaribbean.com/","countryIso2":"BZ","countryName":"Belize","hotelRating":"1","latitude":"17.8795","longitude":"-87.9941","state_id":3644,"state_name":"Misiones","country_id":11},{"active":false,"Giataid":"583973","cityId":1446,"cityName":"San Pedro","hotelId":583973,"hotelName":"Athens Gate Belize","address":"Coconut Drive,San Pedro,Ambergis Caye,Belize","phones":"+5012264151","fax":"","email":"info@athensgate.net","url":"http://athensgatebelize.com/","countryIso2":"BZ","countryName":"Belize","hotelRating":"1","latitude":"17.8889","longitude":"-87.9817","state_id":3644,"state_name":"Misiones","country_id":11},{"active":false,"Giataid":"583997","cityId":null,"cityName":"Caye Caulker","hotelId":583997,"hotelName":"Popeye's Beach Resort","address":"PO Box 19,Caye Caulker,Belize","phones":"+5012260032","fax":"+5012260045","email":"popeyes@btl.net","url":"http://www.popeyesbeachresort.com/","countryIso2":"BZ","countryName":"Belize","hotelRating":"1","latitude":"17.74","longitude":"-88.0253","state_id":null,"state_name":null,"country_id":null},{"active":false,"Giataid":"583999","cityId":null,"cityName":"Hattieville","hotelId":583999,"hotelName":"Hattieville-Belize Vacation Property","address":"Mile 17 George Price Highway,Hattieville Village,Belize","phones":"","fax":"","email":"","url":"","countryIso2":"BZ","countryName":"Belize","hotelRating":"1","latitude":"17.4371","longitude":"-88.4051","state_id":null,"state_name":null,"country_id":null},{"active":false,"Giataid":"584000","cityId":null,"cityName":"Caye Caulker","hotelId":584000,"hotelName":"Pancho's Villas","address":"Pasero Street,PO Box 80,Caye Caulker,Belize","phones":"+5012260304","fax":"","email":"panchosvillas@btl.net","url":"http://www.panchosvillasbelize.com/","countryIso2":"BZ","countryName":"Belize","hotelRating":"2","latitude":"17.7441","longitude":"-88.0243","state_id":null,"state_name":null,"country_id":null},{"active":false,"Giataid":"601101","cityId":1446,"cityName":"San Pedro","hotelId":601101,"hotelName":"Tropicana Condominiums","address":"Coconut Drive,San Pedro,Ambergris Caye,Belize","phones":"+5016275454","fax":"","email":"bookings@tropicanabelize.com","url":"http://www.tropicanabelize.com/the-condominiums/","countryIso2":"BZ","countryName":"Belize","hotelRating":"3","latitude":"17.9139","longitude":"-87.9677","state_id":3644,"state_name":"Misiones","country_id":11},{"active":false,"Giataid":"614507","cityId":null,"cityName":"Unitedville","hotelId":614507,"hotelName":"Amber Sunset Jungle Resort","address":"Mile 59 Western Highway,Unitedville,Belize","phones":"+5018243141","fax":"","email":"info@AmberSunsetBelize.com","url":"http://www.ambersunsetbelize.com","countryIso2":"BZ","countryName":"Belize","hotelRating":"1","latitude":"17.2065","longitude":"-88.9401","state_id":null,"state_name":null,"country_id":null},{"active":false,"Giataid":"614527","cityId":1446,"cityName":"San Pedro","hotelId":614527,"hotelName":"Hotel Central Park","address":"52 Black Corral Street,Barrier Reef,San Pedro,Belize","phones":"","fax":"","email":"","url":"","countryIso2":"BZ","countryName":"Belize","hotelRating":"2","latitude":"17.9197","longitude":"-87.9618","state_id":3644,"state_name":"Misiones","country_id":11},{"active":false,"Giataid":"614528","cityId":null,"cityName":"Caye Caulker","hotelId":614528,"hotelName":"Blue Wave Guest House","address":"Avenida Hicaco","phones":"+5012060114","fax":"","email":"","url":"","countryIso2":"BZ","countryName":"Belize","hotelRating":"2","latitude":"17.7476","longitude":"-88.0239","state_id":null,"state_name":null,"country_id":null},{"active":false,"Giataid":"665737","cityId":1446,"cityName":"San Pedro","hotelId":665737,"hotelName":"Solaria Villas","address":"4 Miles North,San Pedro,Ambergris Caye,Belize","phones":"+5012262727","fax":"","email":"reservations@sunrisepropertymanagement.com","url":"http://solariavillasbelize.com","countryIso2":"BZ","countryName":"Belize","hotelRating":"4","latitude":"17.9252","longitude":"-87.9599","state_id":3644,"state_name":"Misiones","country_id":11},{"active":false,"Giataid":"691731","cityId":1446,"cityName":"San Pedro","hotelId":691731,"hotelName":"Casitas Tres Cocos","address":"4253 Tres Cocos,1.5 miles North Of San Pedro,San Pedro,Belize","phones":"+5012262333","fax":"","email":"info@casitastrescocos.com","url":"http://casitastrescocos.com/","countryIso2":"BZ","countryName":"Belize","hotelRating":"3","latitude":"17.94","longitude":"-87.9496","state_id":3644,"state_name":"Misiones","country_id":11},{"active":false,"Giataid":"702063","cityId":16134,"cityName":"Belmopan","hotelId":702063,"hotelName":"Hacienda Tropical Guest House","address":"1 St. Paul Street,Corner San Martin Avenue,P.O. Box 259,San Martin Area,Belmopan,Cayo District,Belize","phones":"","fax":"+5018220674","email":"info@haciendatropicalguesthouse.com","url":"http://www.haciendatropicalguesthouse.com","countryIso2":"BZ","countryName":"Belize","hotelRating":"2","latitude":"17.2499","longitude":"-88.7614","state_id":269,"state_name":"Cayo District","country_id":23},{"active":false,"Giataid":"702353","cityId":1446,"cityName":"San Pedro","hotelId":702353,"hotelName":"Bella Vista Resort","address":"2.5 Miles North of San Pedro,San Pedro,Ambergris Caye Island,Belize","phones":"+5012264047","fax":"","email":"booking@bvrbelize.com","url":"https://bvrbelize.com","countryIso2":"BZ","countryName":"Belize","hotelRating":"3","latitude":"17.9483","longitude":"-87.942","state_id":3644,"state_name":"Misiones","country_id":11},{"active":false,"Giataid":"702427","cityId":null,"cityName":"Unitedville","hotelId":702427,"hotelName":"The Green Valley Inn","address":"George Price Highway Mile 58,PO 598,Belmopan,Unitedville,Cayo District,Belize","phones":"+5016054640","fax":"","email":"info@greenvalleybelize.com","url":"http://the-green-valley-inn.business.site","countryIso2":"BZ","countryName":"Belize","hotelRating":"1","latitude":"17.2116","longitude":"-88.9355","state_id":null,"state_name":null,"country_id":null},{"active":false,"Giataid":"702518","cityId":null,"cityName":"Teakettle Village","hotelId":702518,"hotelName":"Juntos Cottages","address":"Young Gial Road,Teakettle Village,Belmopan,Cayo District,Belize","phones":"","fax":"","email":"juntos.cc2016@gmail.com","url":"https://www.juntosbelize.com","countryIso2":"BZ","countryName":"Belize","hotelRating":"2","latitude":"17.2414","longitude":"-88.8506","state_id":null,"state_name":null,"country_id":null},{"active":false,"Giataid":"702742","cityId":1446,"cityName":"San Pedro","hotelId":702742,"hotelName":"Hotel Del Rio","address":"Boco Del Rio,Beachfront,P.O. Box 198,San Pedro Town,Ambergris Caye Island,Belize","phones":"+5012262286","fax":"","email":"hodelrio@btl.net","url":"http://hoteldelriobelize.com","countryIso2":"BZ","countryName":"Belize","hotelRating":"2","latitude":"17.928","longitude":"-87.9578","state_id":3644,"state_name":"Misiones","country_id":11},{"active":false,"Giataid":"728631","cityId":1446,"cityName":"San Pedro","hotelId":728631,"hotelName":"Casa del Rai","address":"1657 Laguna Drive,San Pedro,Belize","phones":"","fax":"","email":"casadelrai@hotmail.com","url":"http://www.casadelrai.com","countryIso2":"BZ","countryName":"Belize","hotelRating":"3","latitude":"17.9252","longitude":"-87.9599","state_id":3644,"state_name":"Misiones","country_id":11},{"active":false,"Giataid":"728983","cityId":1446,"cityName":"San Pedro","hotelId":728983,"hotelName":"Mara Laguna Suites","address":"Pescador Drive 1,San Juan de UlloaTres Cocos Area,San Pedro,Belize","phones":"","fax":"","email":"","url":"","countryIso2":"BZ","countryName":"Belize","hotelRating":"1","latitude":"17.9252","longitude":"-87.9599","state_id":3644,"state_name":"Misiones","country_id":11},{"active":false,"Giataid":"729182","cityId":16142,"cityName":"San Ignacio","hotelId":729182,"hotelName":"Lucina's","address":"7 Collins Bouelevard,San Ignacio,Belize","phones":"","fax":"","email":"","url":"","countryIso2":"BZ","countryName":"Belize","hotelRating":"1","latitude":"17.1353","longitude":"-89.072","state_id":269,"state_name":"Cayo District","country_id":23},{"active":false,"Giataid":"729580","cityId":null,"cityName":"Caye Caulker","hotelId":729580,"hotelName":"La Cubana Sleep Boxes","address":"Avenida Icaco,Caye Caulker,Ambergris Caye,Belize","phones":"","fax":"","email":"","url":"","countryIso2":"BZ","countryName":"Belize","hotelRating":"1","latitude":"17.7427","longitude":"-88.0239","state_id":null,"state_name":null,"country_id":null},{"active":false,"Giataid":"729860","cityId":16140,"cityName":"Placencia","hotelId":729860,"hotelName":"Maya Beach Hotel","address":"Maya Beach,Stann Creek District,Placencia,Belize","phones":"+5016274718","fax":"","email":"info@mayabeachhotel.com","url":"http://www.mayabeachhotel.com","countryIso2":"BZ","countryName":"Belize","hotelRating":"3","latitude":"16.5561","longitude":"-88.3618","state_id":265,"state_name":"Stann Creek District","country_id":23},{"active":false,"Giataid":"730170","cityId":16140,"cityName":"Placencia","hotelId":730170,"hotelName":"Placencia Villas","address":"Placencia Downtown,Placencia,Belize,Belize","phones":"","fax":"","email":"","url":"","countryIso2":"BZ","countryName":"Belize","hotelRating":"1","latitude":"16.5561","longitude":"-88.3618","state_id":265,"state_name":"Stann Creek District","country_id":23},{"active":false,"Giataid":"731153","cityId":1446,"cityName":"San Pedro","hotelId":731153,"hotelName":"Diamond Lodge Belize","address":"2 Seagrape Drive,San Pedro,Ambergris Caye,Belize","phones":"+5012264377","fax":"","email":"hello@diamondlodgebelize.com","url":"http://diamondlodgebelize.com/","countryIso2":"BZ","countryName":"Belize","hotelRating":"3","latitude":"17.9252","longitude":"-87.9599","state_id":3644,"state_name":"Misiones","country_id":11},{"active":false,"Giataid":"731301","cityId":118652,"cityName":"Hopkins","hotelId":731301,"hotelName":"Blue Parrot Beach House","address":"1 Sittee River Road,Hopkins,Belize","phones":"+5018664609612","fax":"","email":"info@blueparrotbeachhouse.com","url":"http://www.blueparrotbeachhouse.com/","countryIso2":"BZ","countryName":"Belize","hotelRating":"3","latitude":"16.8542","longitude":"-88.2798","state_id":1420,"state_name":"Minnesota","country_id":233},{"active":false,"Giataid":"734508","cityId":1446,"cityName":"San Pedro","hotelId":734508,"hotelName":"Downtown Nest","address":"Barrier Reef Drive,San Pedro,Ambergris Cay,Belize","phones":"","fax":"","email":"","url":"","countryIso2":"BZ","countryName":"Belize","hotelRating":"1","latitude":"17.9252","longitude":"-87.9599","state_id":3644,"state_name":"Misiones","country_id":11},{"active":false,"Giataid":"734516","cityId":16140,"cityName":"Placencia","hotelId":734516,"hotelName":"Casa Marina","address":"Mile 19.6 Placencia Road,Placencia,Stann Creek,Belize","phones":"","fax":"","email":"","url":"","countryIso2":"BZ","countryName":"Belize","hotelRating":"1","latitude":"16.5561","longitude":"-88.3618","state_id":265,"state_name":"Stann Creek District","country_id":23},{"active":false,"Giataid":"734527","cityId":16140,"cityName":"Placencia","hotelId":734527,"hotelName":"Salty Hawg","address":"NULL","phones":"","fax":"","email":"","url":"","countryIso2":"BZ","countryName":"Belize","hotelRating":"1","latitude":"16.5561","longitude":"-88.3618","state_id":265,"state_name":"Stann Creek District","country_id":23},{"active":false,"Giataid":"734580","cityId":null,"cityName":"Caye Caulker","hotelId":734580,"hotelName":"Lous Cabana","address":"Almina Drive,Caye Caulker,Belize","phones":"","fax":"","email":"","url":"","countryIso2":"BZ","countryName":"Belize","hotelRating":"1","latitude":"17.7427","longitude":"-88.0239","state_id":null,"state_name":null,"country_id":null},{"active":false,"Giataid":"734591","cityId":118652,"cityName":"Hopkins","hotelId":734591,"hotelName":"Kismet Inn","address":"On The Beach,North Hopkins,Hopkins,Stann Creek District,Belize","phones":"","fax":"","email":"kismetinnb@hotmail.com","url":"http://www.kismetinn.net","countryIso2":"BZ","countryName":"Belize","hotelRating":"1","latitude":"16.8737","longitude":"-88.2877","state_id":1420,"state_name":"Minnesota","country_id":233},{"active":false,"Giataid":"734594","cityId":16142,"cityName":"San Ignacio","hotelId":734594,"hotelName":"Villa Maya","address":"San Ignacio,Belize","phones":"","fax":"","email":"","url":"","countryIso2":"BZ","countryName":"Belize","hotelRating":"1","latitude":"17.1353","longitude":"-89.072","state_id":269,"state_name":"Cayo District","country_id":23},{"active":false,"Giataid":"734619","cityId":16140,"cityName":"Placencia","hotelId":734619,"hotelName":"Carol's Cabanas","address":"Main Street & Kubali Alley,Just Before Dawn's Grill & Go,Placencia Village,Belize,Belize","phones":"","fax":"","email":"","url":"","countryIso2":"BZ","countryName":"Belize","hotelRating":"1","latitude":"16.5561","longitude":"-88.3618","state_id":265,"state_name":"Stann Creek District","country_id":23},{"active":false,"Giataid":"734639","cityId":1446,"cityName":"San Pedro","hotelId":734639,"hotelName":"View The Blue","address":"NULL","phones":"","fax":"","email":"","url":"","countryIso2":"BZ","countryName":"Belize","hotelRating":"1","latitude":"17.9252","longitude":"-87.9599","state_id":3644,"state_name":"Misiones","country_id":11},{"active":false,"Giataid":"735100","cityId":null,"cityName":"Caye Caulker","hotelId":735100,"hotelName":"Mayan Falls","address":"5 Avenue Xioco,Caye Caulker,Belize","phones":"","fax":"","email":"","url":"","countryIso2":"BZ","countryName":"Belize","hotelRating":"1","latitude":"17.7427","longitude":"-88.0239","state_id":null,"state_name":null,"country_id":null},{"active":false,"Giataid":"735106","cityId":null,"cityName":"Caye Caulker","hotelId":735106,"hotelName":"Casa Chicle Belize","address":"Corner Avenida Mangle & Luciano Reyes Street,Caye Caulker,Belize","phones":"","fax":"","email":"","url":"","countryIso2":"BZ","countryName":"Belize","hotelRating":"1","latitude":"17.7427","longitude":"-88.0239","state_id":null,"state_name":null,"country_id":null},{"active":false,"Giataid":"735110","cityId":16142,"cityName":"San Ignacio","hotelId":735110,"hotelName":"Martz Farm Treehouses & Cabanas","address":"8.5 miles Mollejon Road,P.O. Box 161,Benque Viejo Del Carmen,San Ignacio,Belize","phones":"+5018344646","fax":"","email":"martzfarmtreehouses@gmail.com","url":"http://www.martzfarm.com/","countryIso2":"BZ","countryName":"Belize","hotelRating":"2","latitude":"17.1353","longitude":"-89.072","state_id":269,"state_name":"Cayo District","country_id":23},{"active":false,"Giataid":"735114","cityId":null,"cityName":"Caye Caulker","hotelId":735114,"hotelName":"Caye Caulker Cabanas","address":"Avenida Mangle,Caye Caulker,Belize","phones":"","fax":"","email":"","url":"","countryIso2":"BZ","countryName":"Belize","hotelRating":"1","latitude":"17.7427","longitude":"-88.0239","state_id":null,"state_name":null,"country_id":null},{"active":false,"Giataid":"735117","cityId":1446,"cityName":"San Pedro","hotelId":735117,"hotelName":"Sea Side","address":"Coconut Drive,San Pedro,Belize","phones":"","fax":"","email":"","url":"","countryIso2":"BZ","countryName":"Belize","hotelRating":"1","latitude":"17.9252","longitude":"-87.9599","state_id":3644,"state_name":"Misiones","country_id":11},{"active":false,"Giataid":"735121","cityId":16134,"cityName":"Belmopan","hotelId":735121,"hotelName":"The Bungalow at Pineapple Hill","address":"Mile 26 Hummingbird Highway,Belmopan,Belize","phones":"","fax":"","email":"","url":"","countryIso2":"BZ","countryName":"Belize","hotelRating":"1","latitude":"17.2389","longitude":"-88.7504","state_id":269,"state_name":"Cayo District","country_id":23},{"active":false,"Giataid":"735224","cityId":null,"cityName":"Caye Caulker","hotelId":735224,"hotelName":"Amanda's Place","address":"101 Avenida Hicaco,AKA Front Street,Caye Caulker,Belize","phones":"","fax":"","email":"","url":"","countryIso2":"BZ","countryName":"Belize","hotelRating":"1","latitude":"17.7427","longitude":"-88.0239","state_id":null,"state_name":null,"country_id":null},{"active":false,"Giataid":"736187","cityId":16142,"cityName":"San Ignacio","hotelId":736187,"hotelName":"Casa De Cahal Pech","address":"San Ignacio,Belize","phones":"","fax":"","email":"","url":"","countryIso2":"BZ","countryName":"Belize","hotelRating":"1","latitude":"17.1353","longitude":"-89.072","state_id":269,"state_name":"Cayo District","country_id":23},{"active":false,"Giataid":"736283","cityId":16133,"cityName":"Belize City","hotelId":736283,"hotelName":"Harbour View","address":"NULL","phones":"","fax":"","email":"","url":"","countryIso2":"BZ","countryName":"Belize","hotelRating":"1","latitude":"17.5069","longitude":"-88.227","state_id":264,"state_name":"Belize District","country_id":23},{"active":false,"Giataid":"738046","cityId":null,"cityName":"Caye Caulker","hotelId":738046,"hotelName":"Jungle Cocoon","address":"Avenida Mulche,Caye Caulker,Belize","phones":"","fax":"","email":"","url":"","countryIso2":"BZ","countryName":"Belize","hotelRating":"1","latitude":"17.7427","longitude":"-88.0239","state_id":null,"state_name":null,"country_id":null},{"active":false,"Giataid":"738754","cityId":1446,"cityName":"San Pedro","hotelId":738754,"hotelName":"La Casa Pura Vida","address":"NULL","phones":"","fax":"","email":"","url":"","countryIso2":"BZ","countryName":"Belize","hotelRating":"1","latitude":"17.9252","longitude":"-87.9599","state_id":3644,"state_name":"Misiones","country_id":11},{"active":false,"Giataid":"739398","cityId":1446,"cityName":"San Pedro","hotelId":739398,"hotelName":"Sunny Nanra House","address":"Hurricane Street,San Pedro,Ambergris Caye,Belize","phones":"","fax":"","email":"","url":"","countryIso2":"BZ","countryName":"Belize","hotelRating":"1","latitude":"17.9252","longitude":"-87.9599","state_id":3644,"state_name":"Misiones","country_id":11},{"active":false,"Giataid":"739415","cityId":16140,"cityName":"Placencia","hotelId":739415,"hotelName":"Mirasol Villa","address":"Placencia Sidewalk,Placencia Village,Belize","phones":"+5012230992","fax":"","email":"info@mirasolbelize.com","url":"http://www.mirasolbelize.com","countryIso2":"BZ","countryName":"Belize","hotelRating":"1","latitude":"16.5561","longitude":"-88.3618","state_id":265,"state_name":"Stann Creek District","country_id":23},{"active":false,"Giataid":"739429","cityId":16133,"cityName":"Belize City","hotelId":739429,"hotelName":"Comodidades Delta","address":"Intersection Amara Avenue And Max Avenue,Belize City,Belize","phones":"","fax":"","email":"","url":"","countryIso2":"BZ","countryName":"Belize","hotelRating":"1","latitude":"17.5069","longitude":"-88.227","state_id":264,"state_name":"Belize District","country_id":23},{"active":false,"Giataid":"740289","cityId":16140,"cityName":"Placencia","hotelId":740289,"hotelName":"Miramar Suite","address":"Placencia Side Walk,Placencia Village,Stann Creek District,Belize","phones":"+5015233658","fax":"+5015033095","email":"info@miramarbelize.com","url":"http://www.miramarbelize.com","countryIso2":"BZ","countryName":"Belize","hotelRating":"1","latitude":"16.5561","longitude":"-88.3618","state_id":265,"state_name":"Stann Creek District","country_id":23},{"active":false,"Giataid":"740700","cityId":null,"cityName":"Caye Caulker","hotelId":740700,"hotelName":"Barefoot Caribe Hotel","address":"55 Langusta Avenue,Front Street,Caye Caulker,Belize","phones":"+5016617355","fax":"","email":"barefootcaribe@hotmail.com","url":"http://www.barefootcaribehotel.com","countryIso2":"BZ","countryName":"Belize","hotelRating":"2","latitude":"17.7427","longitude":"-88.0239","state_id":null,"state_name":null,"country_id":null},{"active":false,"Giataid":"742389","cityId":16142,"cityName":"San Ignacio","hotelId":742389,"hotelName":"Cassia Hill Resort","address":"Western Highway,Mile 68 George Price,San Ignacio,Cayo,Belize","phones":"","fax":"","email":"info@cassiahillbelize.com","url":"http://cassiahillbelize.com/","countryIso2":"BZ","countryName":"Belize","hotelRating":"3","latitude":"17.1353","longitude":"-89.072","state_id":269,"state_name":"Cayo District","country_id":23},{"active":false,"Giataid":"742940","cityId":16140,"cityName":"Placencia","hotelId":742940,"hotelName":"Sandy Feet","address":"Placencia Side Walk,Placencia,Belize","phones":"","fax":"","email":"","url":"","countryIso2":"BZ","countryName":"Belize","hotelRating":"1","latitude":"16.5561","longitude":"-88.3618","state_id":265,"state_name":"Stann Creek District","country_id":23},{"active":false,"Giataid":"745300","cityId":16142,"cityName":"San Ignacio","hotelId":745300,"hotelName":"Lower Dover","address":"Lower Dover Field Station LTD,Cayo District,POBox 364,San Ignacio,Belize","phones":"+5018344200","fax":"","email":"","url":"http://www.lowerdoverbelize.com/","countryIso2":"BZ","countryName":"Belize","hotelRating":"2","latitude":"17.1353","longitude":"-89.072","state_id":269,"state_name":"Cayo District","country_id":23},{"active":false,"Giataid":"745355","cityId":16133,"cityName":"Belize City","hotelId":745355,"hotelName":"Howler Monkey Resort","address":"Riverside,Bermudian Landing Village,Belize,Belize","phones":"","fax":"","email":"mel@howlermonkeyresort.bz","url":"http://howlermonkeyresort.bz/","countryIso2":"BZ","countryName":"Belize","hotelRating":"1","latitude":"17.5069","longitude":"-88.227","state_id":264,"state_name":"Belize District","country_id":23},{"active":false,"Giataid":"745371","cityId":1446,"cityName":"San Pedro","hotelId":745371,"hotelName":"Chai's Beach House","address":"55 Boca del Rio Drive,San Pedro,Belize","phones":"","fax":"","email":"","url":"","countryIso2":"BZ","countryName":"Belize","hotelRating":"3","latitude":"17.9252","longitude":"-87.9599","state_id":3644,"state_name":"Misiones","country_id":11},{"active":false,"Giataid":"745558","cityId":16142,"cityName":"San Ignacio","hotelId":745558,"hotelName":"Western Guest House","address":"54 Burns Avenue,San Ignacio,Belize","phones":"","fax":"","email":"","url":"","countryIso2":"BZ","countryName":"Belize","hotelRating":"1","latitude":"17.157","longitude":"-89.0719","state_id":269,"state_name":"Cayo District","country_id":23},{"active":false,"Giataid":"745646","cityId":1446,"cityName":"San Pedro","hotelId":745646,"hotelName":"Aqua Vista Beachfront Suites","address":"35 Boca Del Rio Drive,San Pedro,Ambergris Caye,Belize","phones":"+5016014836","fax":"","email":"dee@aquavistabelize.com","url":"http://aquavistabelize.com","countryIso2":"BZ","countryName":"Belize","hotelRating":"3","latitude":"17.9252","longitude":"-87.9599","state_id":3644,"state_name":"Misiones","country_id":11},{"active":false,"Giataid":"745644","cityId":16142,"cityName":"San Ignacio","hotelId":745644,"hotelName":"Kane Villas","address":"Mountain Pine Ridge,San Ignacio,Cayo,Belize","phones":"","fax":"","email":"","url":"","countryIso2":"BZ","countryName":"Belize","hotelRating":"1","latitude":"17.1353","longitude":"-89.072","state_id":269,"state_name":"Cayo District","country_id":23},{"active":false,"Giataid":"745656","cityId":1446,"cityName":"San Pedro","hotelId":745656,"hotelName":"Villa Ragazza Belize","address":"3.5 Miles South,San Pedro,Ambergris Caye,Belize","phones":"","fax":"","email":"admin@ragazzabelize.com","url":"http://www.ragazzabelize.com","countryIso2":"BZ","countryName":"Belize","hotelRating":"3","latitude":"17.9252","longitude":"-87.9599","state_id":3644,"state_name":"Misiones","country_id":11},{"active":false,"Giataid":"745667","cityId":1446,"cityName":"San Pedro","hotelId":745667,"hotelName":"Casas De La Caye Villas","address":"Costa Del Sol,San Pedro,Belize","phones":"","fax":"","email":"","url":"","countryIso2":"BZ","countryName":"Belize","hotelRating":"1","latitude":"17.9252","longitude":"-87.9599","state_id":3644,"state_name":"Misiones","country_id":11},{"active":false,"Giataid":"745692","cityId":null,"cityName":"Caye Caulker","hotelId":745692,"hotelName":"The Club At Caye Caulker","address":"Calle Del Sol,Caye Caulker,Belize","phones":"","fax":"","email":"","url":"","countryIso2":"BZ","countryName":"Belize","hotelRating":"3","latitude":"17.7427","longitude":"-88.0239","state_id":null,"state_name":null,"country_id":null},{"active":false,"Giataid":"745706","cityId":null,"cityName":"Caye Caulker","hotelId":745706,"hotelName":"Miss Ellas Waterfront","address":"Luciano Reyes Street,Caye Caulker,Belize","phones":"","fax":"","email":"","url":"","countryIso2":"BZ","countryName":"Belize","hotelRating":"1","latitude":"17.7427","longitude":"-88.0239","state_id":null,"state_name":null,"country_id":null},{"active":false,"Giataid":"745714","cityId":null,"cityName":"Mountain Pine Ridge","hotelId":745714,"hotelName":"Calico Jacks Village","address":"El Progresso,7 Mile,Mountain Pine Ridge,Cayo District,Belize","phones":"+50111501832478","fax":"","email":"","url":"http://www.calicojacksvillage.com","countryIso2":"BZ","countryName":"Belize","hotelRating":"3","latitude":"17.0892","longitude":"-88.9536","state_id":null,"state_name":null,"country_id":null},{"active":false,"Giataid":"745723","cityId":16137,"cityName":"Dangriga","hotelId":745723,"hotelName":"Oceanus Cabanas","address":"Jetty Road,1.2km From Roundabout,Yellow Butterflyfish Cabana,Dangriga,Stann Creek,Belize","phones":"","fax":"","email":"","url":"","countryIso2":"BZ","countryName":"Belize","hotelRating":"1","latitude":"16.9313","longitude":"-88.1991","state_id":265,"state_name":"Stann Creek District","country_id":23},{"active":false,"Giataid":"754829","cityId":16142,"cityName":"San Ignacio","hotelId":754829,"hotelName":"Belize Toucan Nest Hotel","address":"120 Benque Viejo Road,San Ignacio,Belize","phones":"","fax":"","email":"","url":"","countryIso2":"BZ","countryName":"Belize","hotelRating":"1","latitude":"17.1353","longitude":"-89.072","state_id":269,"state_name":"Cayo District","country_id":23},{"active":false,"Giataid":"758767","cityId":1446,"cityName":"San Pedro","hotelId":758767,"hotelName":"Tropical Dream Villas","address":"1889 Hurricane Street,San Pedro,Ambergris 11111,Belize","phones":"","fax":"","email":"stay@belizetropicaldream.com","url":"http://www.belizetropicaldream.com","countryIso2":"BZ","countryName":"Belize","hotelRating":"3","latitude":"17.9252","longitude":"-87.9599","state_id":3644,"state_name":"Misiones","country_id":11},{"active":false,"Giataid":"767070","cityId":118652,"cityName":"Hopkins","hotelId":767070,"hotelName":"The Funky Dodo Backpackers Hostel","address":"Main street Hopkins,Hopkins,Belize","phones":"+5016763636","fax":"","email":"info@funkydodo.bz","url":"http://www.funkydodo.bz","countryIso2":"BZ","countryName":"Belize","hotelRating":"1","latitude":"16.8626","longitude":"-88.2841","state_id":1420,"state_name":"Minnesota","country_id":233},{"active":false,"Giataid":"767458","cityId":16141,"cityName":"Punta Gorda","hotelId":767458,"hotelName":"The Sea Front Inn","address":"4 Front Street,Punta Gorda,Belize","phones":"+5017222300","fax":"","email":"reservations@seafrontinn.com","url":"http://www.seafrontinn.com","countryIso2":"BZ","countryName":"Belize","hotelRating":"1","latitude":"16.1216","longitude":"-88.8397","state_id":267,"state_name":"Toledo District","country_id":23},{"active":false,"Giataid":"767562","cityId":16141,"cityName":"Punta Gorda","hotelId":767562,"hotelName":"A Piece of Ground","address":"1050 Pelican Street,Punta Gorda,Belize","phones":"","fax":"","email":"apieceofground@gmail.com","url":"http://www.apieceofground.com/","countryIso2":"BZ","countryName":"Belize","hotelRating":"1","latitude":"16.1216","longitude":"-88.8397","state_id":267,"state_name":"Toledo District","country_id":23},{"active":false,"Giataid":"767579","cityId":16142,"cityName":"San Ignacio","hotelId":767579,"hotelName":"The New Belmoral Hotel","address":"Burns Avenue,San Ignacio,Belize","phones":"","fax":"","email":"","url":"","countryIso2":"BZ","countryName":"Belize","hotelRating":"1","latitude":"17.1353","longitude":"-89.072","state_id":269,"state_name":"Cayo District","country_id":23},{"active":false,"Giataid":"767580","cityId":16142,"cityName":"San Ignacio","hotelId":767580,"hotelName":"Rosa's Hotel","address":"65 Hudson Street,San Ignacio 50101,Belize","phones":"","fax":"","email":"","url":"","countryIso2":"BZ","countryName":"Belize","hotelRating":"1","latitude":"17.1353","longitude":"-89.072","state_id":269,"state_name":"Cayo District","country_id":23},{"active":false,"Giataid":"767617","cityId":null,"cityName":"Corozal Town","hotelId":767617,"hotelName":"Hotel Maya","address":"7th Avenue Southend,PO Box 112,Corozal,Belize","phones":"+5014222082","fax":"+5014222827","email":"stay@hotelmaya.net","url":"http://www.hotelmaya.net","countryIso2":"BZ","countryName":"Belize","hotelRating":"1","latitude":"18.4061","longitude":"-88.3825","state_id":null,"state_name":null,"country_id":null},{"active":false,"Giataid":"767958","cityId":16137,"cityName":"Dangriga","hotelId":767958,"hotelName":"Coco Plum Island Resort","address":"Coco Plum Caye,Dandriga,Belize","phones":"","fax":"","email":"contact@cocoplumcay.com","url":"https://www.cocoplumcay.com","countryIso2":"BZ","countryName":"Belize","hotelRating":"1","latitude":"16.9313","longitude":"-88.1991","state_id":265,"state_name":"Stann Creek District","country_id":23},{"active":false,"Giataid":"767989","cityId":null,"cityName":"Corozal Town","hotelId":767989,"hotelName":"The Sea Breeze Hotel","address":"23 1st Avenue,Corozal Town,Belize","phones":"","fax":"","email":"","url":"","countryIso2":"BZ","countryName":"Belize","hotelRating":"1","latitude":"18.4061","longitude":"-88.3825","state_id":null,"state_name":null,"country_id":null},{"active":false,"Giataid":"768097","cityId":16141,"cityName":"Punta Gorda","hotelId":768097,"hotelName":"Grace's Hotel and Restaurant","address":"19 Main Street,Punta Gorda,Belize","phones":"","fax":"","email":"","url":"","countryIso2":"BZ","countryName":"Belize","hotelRating":"1","latitude":"16.1216","longitude":"-88.8397","state_id":267,"state_name":"Toledo District","country_id":23},{"active":false,"Giataid":"768135","cityId":16133,"cityName":"Belize City","hotelId":768135,"hotelName":"Golden Tree Hotel","address":"1740 Coney Drive,Belize City,Belize","phones":"+5012235053","fax":"","email":"donematrix@gmail.com","url":"http://www.gthbz.com","countryIso2":"BZ","countryName":"Belize","hotelRating":"1","latitude":"17.5069","longitude":"-88.227","state_id":264,"state_name":"Belize District","country_id":23},{"active":false,"Giataid":"768312","cityId":1446,"cityName":"San Pedro","hotelId":768312,"hotelName":"Luna Suites","address":"300 Yards North Beach San Pedro Ambergris Caye,San Pedro,Belize","phones":"","fax":"","email":"","url":"","countryIso2":"BZ","countryName":"Belize","hotelRating":"1","latitude":"17.9252","longitude":"-87.9599","state_id":3644,"state_name":"Misiones","country_id":11},{"active":false,"Giataid":"768331","cityId":16139,"cityName":"Orange Walk","hotelId":768331,"hotelName":"Rickys","address":"39 Fonseca Street,Orange Walk,Belize","phones":"","fax":"","email":"","url":"","countryIso2":"BZ","countryName":"Belize","hotelRating":"1","latitude":"18.0293","longitude":"-88.5586","state_id":268,"state_name":"Orange Walk District","country_id":23},{"active":false,"Giataid":"768545","cityId":16142,"cityName":"San Ignacio","hotelId":768545,"hotelName":"Clarissa Falls Resort","address":"Cayo District,PO Box 44,San Ignacio,Belize","phones":"+5018333116","fax":"","email":"chena@clarissafallsresort.com","url":"http://www.clarissafallsresort.com/","countryIso2":"BZ","countryName":"Belize","hotelRating":"1","latitude":"17.1353","longitude":"-89.072","state_id":269,"state_name":"Cayo District","country_id":23},{"active":false,"Giataid":"768711","cityId":null,"cityName":"Unitedville","hotelId":768711,"hotelName":"Hidden Haven","address":"Mile 58 Western Highway,Unitedville,Cayo District,Belize","phones":"","fax":"","email":"","url":"","countryIso2":"BZ","countryName":"Belize","hotelRating":"1","latitude":"17.2116","longitude":"-88.9355","state_id":null,"state_name":null,"country_id":null},{"active":false,"Giataid":"768847","cityId":16140,"cityName":"Placencia","hotelId":768847,"hotelName":"Southern Shores Resort","address":"Sunset Road,Stann Creek District,Placencia,Belize","phones":"+5016154182","fax":"","email":"reservations@southernshoresresort.com","url":"http://southernshoresresort.com","countryIso2":"BZ","countryName":"Belize","hotelRating":"1","latitude":"16.5561","longitude":"-88.3618","state_id":265,"state_name":"Stann Creek District","country_id":23},{"active":false,"Giataid":"768897","cityId":16142,"cityName":"San Ignacio","hotelId":768897,"hotelName":"Maya Vista Resort","address":"71 1/2 Western Highway,San Ignacio,Belize","phones":"","fax":"","email":"","url":"","countryIso2":"BZ","countryName":"Belize","hotelRating":"1","latitude":"17.1353","longitude":"-89.072","state_id":269,"state_name":"Cayo District","country_id":23},{"active":false,"Giataid":"769542","cityId":16140,"cityName":"Placencia","hotelId":769542,"hotelName":"King Leweys Island Resort","address":"12 Miles East Of Placencia,Placencia,Belize","phones":"+5015434010","fax":"","email":"kingleweysislandresort@yahoo.com","url":"https://www.kingleweysislandresort.com","countryIso2":"BZ","countryName":"Belize","hotelRating":"1","latitude":"16.5561","longitude":"-88.3618","state_id":265,"state_name":"Stann Creek District","country_id":23},{"active":false,"Giataid":"769575","cityId":null,"cityName":"Caye Caulker","hotelId":769575,"hotelName":"Drifted Coconut Hostel and Lounge","address":"Crocodile Street,Caye Caulker,Belize","phones":"+5016354265","fax":"","email":"driftedcoconut@yahoo.com","url":"http://www.driftedcoconut.com","countryIso2":"BZ","countryName":"Belize","hotelRating":"1","latitude":"17.7427","longitude":"-88.0239","state_id":null,"state_name":null,"country_id":null},{"active":false,"Giataid":"770323","cityId":16142,"cityName":"San Ignacio","hotelId":770323,"hotelName":"Bella's Backpackers Cayo","address":"4 Galvez Street,San Ignacio,Cayo,Belize","phones":"+5018242248","fax":"","email":"bellasbackpackers.hostel@gmail.com","url":"http://www.bellasinbelize.com/bella-s-san-ignacio.html","countryIso2":"BZ","countryName":"Belize","hotelRating":"1","latitude":"17.1584","longitude":"-89.0713","state_id":269,"state_name":"Cayo District","country_id":23},{"active":false,"Giataid":"770353","cityId":16134,"cityName":"Belmopan","hotelId":770353,"hotelName":"Cabo's Hotel","address":"mile 49 western hwy,camalote village,Belmopan,Belize","phones":"","fax":"","email":"","url":"","countryIso2":"BZ","countryName":"Belize","hotelRating":"1","latitude":"17.2389","longitude":"-88.7504","state_id":269,"state_name":"Cayo District","country_id":23},{"active":false,"Giataid":"770441","cityId":16137,"cityName":"Dangriga","hotelId":770441,"hotelName":"Nuuk Cheil Cottages","address":"14 Miles Southern Highway,Maya Center Village,PO Box 126,Dangriga Town,Belize","phones":"","fax":"","email":"nuukcheilcottages@gmail.com","url":"http://www.nuukcheilcottages.com.bz","countryIso2":"BZ","countryName":"Belize","hotelRating":"1","latitude":"16.9313","longitude":"-88.1991","state_id":265,"state_name":"Stann Creek District","country_id":23},{"active":false,"Giataid":"770452","cityId":null,"cityName":"Caye Caulker","hotelId":770452,"hotelName":"Popeyes Beach Hostel Caye Caulker","address":"113 Asuncion Street Beach,Caye Caulker,Belize","phones":"","fax":"","email":"","url":"","countryIso2":"BZ","countryName":"Belize","hotelRating":"1","latitude":"17.7427","longitude":"-88.0239","state_id":null,"state_name":null,"country_id":null},{"active":false,"Giataid":"770857","cityId":16137,"cityName":"Dangriga","hotelId":770857,"hotelName":"D's Hostel","address":"Corner Mahogany Street & Sharp Street,Dangriga,Belize","phones":"","fax":"","email":"","url":"","countryIso2":"BZ","countryName":"Belize","hotelRating":"1","latitude":"16.9313","longitude":"-88.1991","state_id":265,"state_name":"Stann Creek District","country_id":23},{"active":false,"Giataid":"771187","cityId":16137,"cityName":"Dangriga","hotelId":771187,"hotelName":"IZE South Water Caye","address":"South Water Caye,Dangriga,Belize","phones":"","fax":"","email":"","url":"","countryIso2":"BZ","countryName":"Belize","hotelRating":"1","latitude":"16.9313","longitude":"-88.1991","state_id":265,"state_name":"Stann Creek District","country_id":23},{"active":false,"Giataid":"771363","cityId":null,"cityName":"Caye Caulker","hotelId":771363,"hotelName":"Caye Caulker Beach Hotel","address":"Avenida Hicaco,Caye Caulker,Belize","phones":"","fax":"","email":"","url":"","countryIso2":"BZ","countryName":"Belize","hotelRating":"1","latitude":"17.7427","longitude":"-88.0239","state_id":null,"state_name":null,"country_id":null},{"active":false,"Giataid":"771369","cityId":null,"cityName":"Corozal Town","hotelId":771369,"hotelName":"Tilt Ta Dock Resort Belize","address":"George Price Lane,Corozal,Belize","phones":"","fax":"","email":"tiltadockresort@gmail.com","url":"http://www.tilttadockresortbelize.com/","countryIso2":"BZ","countryName":"Belize","hotelRating":"1","latitude":"18.4061","longitude":"-88.3825","state_id":null,"state_name":null,"country_id":null},{"active":false,"Giataid":"771398","cityId":16142,"cityName":"San Ignacio","hotelId":771398,"hotelName":"Max Headquarters","address":"6B George Price Highway,Santa Elena,Cayo,San Ignacio,Belize","phones":"","fax":"","email":"","url":"","countryIso2":"BZ","countryName":"Belize","hotelRating":"1","latitude":"17.1353","longitude":"-89.072","state_id":269,"state_name":"Cayo District","country_id":23},{"active":false,"Giataid":"772131","cityId":16139,"cityName":"Orange Walk","hotelId":772131,"hotelName":"Lamanai Riverside Retreat","address":"Lamanai Alley,Orange Walk,Belize","phones":"","fax":"","email":"","url":"","countryIso2":"BZ","countryName":"Belize","hotelRating":"1","latitude":"18.0293","longitude":"-88.5586","state_id":268,"state_name":"Orange Walk District","country_id":23},{"active":false,"Giataid":"772410","cityId":null,"cityName":"Caye Caulker","hotelId":772410,"hotelName":"Juan's Guest Rooms at Juan in a Million","address":"115 Playa Asuncion Front Street,Caye Caulker,Belize","phones":"","fax":"","email":"","url":"","countryIso2":"BZ","countryName":"Belize","hotelRating":"1","latitude":"17.7386","longitude":"-88.0264","state_id":null,"state_name":null,"country_id":null},{"active":false,"Giataid":"772850","cityId":16140,"cityName":"Placencia","hotelId":772850,"hotelName":"Placencia Hostel","address":"Placencia Village,Stann Creek District,Belize","phones":"","fax":"","email":"","url":"","countryIso2":"BZ","countryName":"Belize","hotelRating":"1","latitude":"16.5561","longitude":"-88.3618","state_id":265,"state_name":"Stann Creek District","country_id":23},{"active":false,"Giataid":"773027","cityId":16134,"cityName":"Belmopan","hotelId":773027,"hotelName":"Roaring River Golf & Accommodations","address":"Roaring River Drive,Belmopan,Cayo,Belize","phones":"+5016645441","fax":"","email":"paulmartin1958@gmail.com","url":"https://www.belizegolfcourses.com","countryIso2":"BZ","countryName":"Belize","hotelRating":"1","latitude":"17.2389","longitude":"-88.7504","state_id":269,"state_name":"Cayo District","country_id":23},{"active":false,"Giataid":"776232","cityId":118652,"cityName":"Hopkins","hotelId":776232,"hotelName":"Villa Verano","address":"1100 South Sittee River Road,Hopkins,Belize","phones":"+5015337016","fax":"","email":"reservations@villaveranobelize.com","url":"http://www.villaveranobelize.com","countryIso2":"BZ","countryName":"Belize","hotelRating":"1","latitude":"16.8542","longitude":"-88.2798","state_id":1420,"state_name":"Minnesota","country_id":233},{"active":false,"Giataid":"837544","cityId":16141,"cityName":"Punta Gorda","hotelId":837544,"hotelName":"B&B SunCreek Lodge","address":"P.O. Box 189,Punta Gorda,Toledo-District,Belize","phones":"+5016076363","fax":"","email":"suncreeklodge@gmail.com","url":"http://suncreeklodge.de/","countryIso2":"BZ","countryName":"Belize","hotelRating":"1","latitude":"16.2078","longitude":"-88.9183","state_id":267,"state_name":"Toledo District","country_id":23},{"active":false,"Giataid":"837657","cityId":null,"cityName":"Corozal Town","hotelId":837657,"hotelName":"Serenity Sands Bed and Breakfast","address":"50 Serenity Lane,Box 88,Corozal Town,Belize","phones":"+5016692394","fax":"","email":"info@serenitysands.com","url":"http://www.serenitysands.com/en/","countryIso2":"BZ","countryName":"Belize","hotelRating":"1","latitude":"18.4061","longitude":"-88.3825","state_id":null,"state_name":null,"country_id":null},{"active":false,"Giataid":"840518","cityId":16133,"cityName":"Belize City","hotelId":840518,"hotelName":"River Bend Resort B&B","address":"1 Keller Road Across the River,Belize City,Belize","phones":"","fax":"","email":"","url":"","countryIso2":"BZ","countryName":"Belize","hotelRating":"1","latitude":"17.5069","longitude":"-88.227","state_id":264,"state_name":"Belize District","country_id":23},{"active":false,"Giataid":"840567","cityId":null,"cityName":"Caye Caulker","hotelId":840567,"hotelName":"Yocamatsu","address":"Chapoose Street,Caye Caulker,Belize","phones":"+5016152653","fax":"","email":"yo.belize@yahoo.com","url":"https://www.yobelize.com/","countryIso2":"BZ","countryName":"Belize","hotelRating":"1","latitude":"17.7427","longitude":"-88.0239","state_id":null,"state_name":null,"country_id":null},{"active":false,"Giataid":"840590","cityId":16141,"cityName":"Punta Gorda","hotelId":840590,"hotelName":"Coral House","address":"151 Main Street,PO Box 43,Punta Gorda Town,Toledo,Belize","phones":"+5017222878","fax":"","email":"coralhousebelize@gmail.com","url":"http://www.coralhouseinn.com/","countryIso2":"BZ","countryName":"Belize","hotelRating":"1","latitude":"16.1216","longitude":"-88.8397","state_id":267,"state_name":"Toledo District","country_id":23},{"active":false,"Giataid":"840632","cityId":16133,"cityName":"Belize City","hotelId":840632,"hotelName":"Tutzil Nah Cottages","address":"P.O. Box 246,Stann Creek District,Belize,Belize","phones":"+5016364750","fax":"","email":"tutzilnah.tours@gmail.com","url":"http://www.mayacenter.com/","countryIso2":"BZ","countryName":"Belize","hotelRating":"1","latitude":"17.5069","longitude":"-88.227","state_id":264,"state_name":"Belize District","country_id":23},{"active":false,"Giataid":"840679","cityId":16141,"cityName":"Punta Gorda","hotelId":840679,"hotelName":"Hickatee Cottages","address":"Ex-Servicemen Road,Mile 1.5,Toledo District,Punta Gorda,Belize","phones":"+5016624475","fax":"","email":"hickatee@gmail.com","url":"https://www.hickatee.com/","countryIso2":"BZ","countryName":"Belize","hotelRating":"1","latitude":"16.1216","longitude":"-88.8397","state_id":267,"state_name":"Toledo District","country_id":23},{"active":false,"Giataid":"583947","cityId":null,"cityName":"South Water Caye","hotelId":10047001,"hotelName":"Blue Marlin Beach Resort","address":"14 Miles Offshore from Dangriga,South Water Caye,Belize","phones":"+501115015222243","fax":"","email":"","url":"","countryIso2":"BZ","countryName":"Belize","hotelRating":"3","latitude":"16.8172","longitude":"-88.082","state_id":null,"state_name":null,"country_id":null},{"active":false,"Giataid":"401422","cityId":1446,"cityName":"San Pedro","hotelId":10047918,"hotelName":"El Secreto","address":"11 miles North Of San Pedro Town,San Pedro,Belize","phones":"+5012365111","fax":"","email":"","url":"","countryIso2":"BZ","countryName":"Belize","hotelRating":"4","latitude":"18.0559","longitude":"-87.8902","state_id":3644,"state_name":"Misiones","country_id":11},{"active":false,"Giataid":"469169","cityId":null,"cityName":"Ambergris Caye","hotelId":10048031,"hotelName":"Grand Caribe Belize","address":"2 miles North of San Pedro,PO Box 242,Ambergris Caye,Belize","phones":"+5012264726","fax":"","email":"","url":"","countryIso2":"BZ","countryName":"Belize","hotelRating":"3","latitude":"17.9541","longitude":"-87.9418","state_id":null,"state_name":null,"country_id":null},{"active":false,"Giataid":"427520","cityId":118652,"cityName":"Hopkins","hotelId":10048234,"hotelName":"Parrot Cove Lodge","address":"False Sittee Point,Stann Creek District,Hopkins,PO Box 212,Dangriga,Belize","phones":"+5015237225","fax":"","email":"","url":"","countryIso2":"BZ","countryName":"Belize","hotelRating":"3","latitude":"16.8385","longitude":"-88.2701","state_id":1420,"state_name":"Minnesota","country_id":233},{"active":false,"Giataid":"577157","cityId":16137,"cityName":"Dangriga","hotelId":10051708,"hotelName":"Bocawina Rainforest Resort & Adventures","address":"Four miles from the Southern Highway,Mayflower Bocawina National Park,Silk Grass,P.O. Box 116,Dangriga,Stann Creek District,Belize","phones":"+5016708019","fax":"","email":"","url":"","countryIso2":"BZ","countryName":"Belize","hotelRating":"3","latitude":"16.9266","longitude":"-88.3965","state_id":265,"state_name":"Stann Creek District","country_id":23},{"active":false,"Giataid":"445346","cityId":1446,"cityName":"San Pedro","hotelId":10055021,"hotelName":"Ocean Tide Beach Resort","address":"57 Boca del Rio Drive,San Pedro,Amebergris Caye,Belize","phones":"+5016316863","fax":"","email":"","url":"","countryIso2":"BZ","countryName":"Belize","hotelRating":"2","latitude":"17.9263","longitude":"-87.9584","state_id":3644,"state_name":"Misiones","country_id":11},{"active":false,"Giataid":"545908","cityId":118652,"cityName":"Hopkins","hotelId":10055214,"hotelName":"River House Lodge","address":"Sittee River Road,Belize","phones":"+5015337799","fax":"","email":"","url":"","countryIso2":"BZ","countryName":"Belize","hotelRating":"3","latitude":"16.8222","longitude":"-88.268","state_id":1420,"state_name":"Minnesota","country_id":233},{"active":false,"Giataid":"419416","cityId":16142,"cityName":"San Ignacio","hotelId":10056608,"hotelName":"Crystal Paradise Resort","address":"PO Box 126,Cristo Rey Village,San Ignacio,Belize","phones":"+5016159361","fax":"","email":"","url":"","countryIso2":"BZ","countryName":"Belize","hotelRating":"3","latitude":"17.125","longitude":"-89.0593","state_id":269,"state_name":"Cayo District","country_id":23},{"active":false,"Giataid":"445232","cityId":null,"cityName":"Corozal Town","hotelId":10056630,"hotelName":"Las Vegas Hotel & Casino","address":"91 1/2 Mile Northern Highway,PO Box 369,Corozal Town,Belize","phones":"+5014237000","fax":"","email":"","url":"","countryIso2":"BZ","countryName":"Belize","hotelRating":"3","latitude":"18.4843","longitude":"-88.3966","state_id":null,"state_name":null,"country_id":null},{"active":false,"Giataid":"481070","cityId":null,"cityName":"Caye Caulker","hotelId":10056932,"hotelName":"Tropical Paradise Hotel","address":"PO Box 4,Caye Caulker,Belize","phones":"+5012260124","fax":"","email":"","url":"","countryIso2":"BZ","countryName":"Belize","hotelRating":"3","latitude":"17.7403","longitude":"-88.025","state_id":null,"state_name":null,"country_id":null},{"active":false,"Giataid":"444116","cityId":16142,"cityName":"San Ignacio","hotelId":10057657,"hotelName":"Rumors Resort Hotel","address":"2 1/2 Miles Benque Viejo Road,San Ignacio,Cayo,Belize","phones":"+5018242795","fax":"","email":"","url":"","countryIso2":"BZ","countryName":"Belize","hotelRating":"3","latitude":"17.1296","longitude":"-89.0938","state_id":269,"state_name":"Cayo District","country_id":23},{"active":false,"Giataid":"508541","cityId":16142,"cityName":"San Ignacio","hotelId":10059702,"hotelName":"Mahogany Hall Boutique Resort","address":"San Ignacio,Cayo,Belize,Belize","phones":"+5016647747","fax":"","email":"","url":"","countryIso2":"BZ","countryName":"Belize","hotelRating":"3","latitude":"17.1675","longitude":"-89.1194","state_id":269,"state_name":"Cayo District","country_id":23},{"active":false,"Giataid":"539254","cityId":1446,"cityName":"San Pedro","hotelId":10059794,"hotelName":"Indigo Beach Homes","address":"Mata Grande Beach,4.5 Miles North of San Pedro Town,San Pedro,Ambergris Caye,Belize","phones":"","fax":"","email":"","url":"","countryIso2":"BZ","countryName":"Belize","hotelRating":"3","latitude":"17.9563","longitude":"-87.9408","state_id":3644,"state_name":"Misiones","country_id":11},{"active":false,"Giataid":"480735","cityId":1446,"cityName":"San Pedro","hotelId":10063852,"hotelName":"La Beliza Belize Island Resort","address":"San Pedro,Amebergris Caye,Belize","phones":"+50117864729664","fax":"","email":"","url":"","countryIso2":"BZ","countryName":"Belize","hotelRating":"3","latitude":"18.0239","longitude":"-87.9052","state_id":3644,"state_name":"Misiones","country_id":11},{"active":false,"Giataid":"472336","cityId":16134,"cityName":"Belmopan","hotelId":10069737,"hotelName":"Sleeping Giant Rainforest Lodge","address":"Mile 36 1/2 Hummingbird Highway,PO Box 72,Belmopan,Belize","phones":"+50117864729664","fax":"","email":"","url":"","countryIso2":"BZ","countryName":"Belize","hotelRating":"3","latitude":"17.1083","longitude":"-88.6655","state_id":269,"state_name":"Cayo District","country_id":23},{"active":false,"Giataid":"516972","cityId":null,"cityName":"Teakettle Village","hotelId":10071146,"hotelName":"Dream Valley","address":"Young Gal Road,Teakettle,Cayo District,Belize","phones":"+5016651000","fax":"","email":"","url":"","countryIso2":"BZ","countryName":"Belize","hotelRating":"3","latitude":"17.2384","longitude":"-88.8539","state_id":null,"state_name":null,"country_id":null},{"active":false,"Giataid":"139094","cityId":16142,"cityName":"San Ignacio","hotelId":10092799,"hotelName":"Mariposa Jungle Lodge","address":"San Ignacio San Antonio Road,San Ignacio,Belize","phones":"+5013042242136","fax":"NULL","email":"NULL","url":"NULL","countryIso2":"BZ","countryName":"Belize","hotelRating":"3","latitude":"17.0879","longitude":"-88.9842","state_id":269,"state_name":"Cayo District","country_id":23},{"active":false,"Giataid":"541985","cityId":118652,"cityName":"Hopkins","hotelId":10102394,"hotelName":"Villa Margarita","address":"Sitee River Road,Stann Creek,Hopkins,Belize","phones":"+5018888222448","fax":"NULL","email":"NULL","url":"NULL","countryIso2":"BZ","countryName":"Belize","hotelRating":"4","latitude":"16.8532","longitude":"-88.2814","state_id":1420,"state_name":"Minnesota","country_id":233},{"active":false,"Giataid":"322088","cityId":1446,"cityName":"San Pedro","hotelId":10104129,"hotelName":"Xanadu Island Resort Belize","address":"Sea Grape Drive,San Pedro,Ambergis Caye,Belize","phones":"NULL","fax":"NULL","email":"NULL","url":"NULL","countryIso2":"BZ","countryName":"Belize","hotelRating":"3","latitude":"17.9083","longitude":"-87.9726","state_id":3644,"state_name":"Misiones","country_id":11},{"active":false,"Giataid":"492319","cityId":1446,"cityName":"San Pedro","hotelId":10106806,"hotelName":"Sands Villas","address":"Coconut Drive,San Pedro,Belize","phones":"NULL","fax":"NULL","email":"NULL","url":"NULL","countryIso2":"BZ","countryName":"Belize","hotelRating":"3","latitude":"17.9124","longitude":"-87.9692","state_id":3644,"state_name":"Misiones","country_id":11},{"active":false,"Giataid":"518744","cityId":null,"cityName":"Ambergris Caye","hotelId":10108473,"hotelName":"Ambergris Beach House","address":"100 Coconut Drive,San Pedro,Belize,Belize","phones":"NULL","fax":"NULL","email":"NULL","url":"NULL","countryIso2":"BZ","countryName":"Belize","hotelRating":"3","latitude":"17.9129","longitude":"-87.9687","state_id":null,"state_name":null,"country_id":null},{"active":false,"Giataid":"482674","cityId":null,"cityName":"Caye Caulker","hotelId":10114968,"hotelName":"China Town Hotel","address":"Estrella Street,Caye Caulker,Belize","phones":"+5012260228","fax":"NULL","email":"NULL","url":"NULL","countryIso2":"BZ","countryName":"Belize","hotelRating":"2","latitude":"17.7359","longitude":"-88.0317","state_id":null,"state_name":null,"country_id":null},{"active":false,"Giataid":"485735","cityId":1446,"cityName":"San Pedro","hotelId":10124667,"hotelName":"Hotel Ocean Paradise","address":"25 barrier reef drive,00011 San Pedro,Belize","phones":"NULL","fax":"NULL","email":"NULL","url":"NULL","countryIso2":"BZ","countryName":"Belize","hotelRating":"2","latitude":"17.9195","longitude":"-87.962","state_id":3644,"state_name":"Misiones","country_id":11},{"active":false,"Giataid":"517512","cityId":1446,"cityName":"San Pedro","hotelId":10126953,"hotelName":"Isla Bonita Yacht Club","address":"100 Coconut Drive,San Pedro,Ambergris Caye,Belize","phones":"+50118772137929","fax":"NULL","email":"NULL","url":"NULL","countryIso2":"BZ","countryName":"Belize","hotelRating":"3","latitude":"17.9128","longitude":"-87.968","state_id":3644,"state_name":"Misiones","country_id":11},{"active":false,"Giataid":"144025","cityId":null,"cityName":"Corozal Town","hotelId":10139980,"hotelName":"Princess Hotel & Casino","address":"#1 Freedom Ave, Commercial free zone","phones":"NULL","fax":"NULL","email":"NULL","url":"NULL","countryIso2":"BZ","countryName":"Belize","hotelRating":"3","latitude":"18.3903","longitude":"-88.386","state_id":null,"state_name":null,"country_id":null},{"active":false,"Giataid":"583975","cityId":16139,"cityName":"Orange Walk","hotelId":20000717,"hotelName":"Lamanai Landings Hotel & Marina","address":"Phillip Goldson Highway,Tower Hill,Orange Walk,Belize","phones":"+5016707846","fax":"","email":"info@lamanailandings.com","url":"http://lamanailandings.com/","countryIso2":"BZ","countryName":"Belize","hotelRating":"3","latitude":"18.0292","longitude":"-88.5587","state_id":268,"state_name":"Orange Walk District","country_id":23},{"active":false,"Giataid":"551130","cityId":null,"cityName":"Ambergris Caye","hotelId":20000758,"hotelName":"White Sands Cove","address":"2.5 Miles north of San Pedro,Ambergris Caye,Belize","phones":"+5012263528","fax":"","email":"info@whitesandscove.com","url":"http://whitesandscove.com/","countryIso2":"BZ","countryName":"Belize","hotelRating":"3","latitude":"17.9516","longitude":"-87.9413","state_id":null,"state_name":null,"country_id":null},{"active":false,"Giataid":"139030","cityId":null,"cityName":"Cayo District","hotelId":20000820,"hotelName":"Jaguar Paw Jungle Resort","address":"Cave Branch River,Belmopan,Cayo,Belize","phones":"+5018202023","fax":"+5018202024","email":"info@jaguarpaw.com","url":"http://www.chukkacaribbean.com/jaguarpaw.php","countryIso2":"BZ","countryName":"Belize","hotelRating":"2","latitude":"17.2535","longitude":"-88.7641","state_id":null,"state_name":null,"country_id":null},{"active":false,"Giataid":"522234","cityId":16137,"cityName":"Dangriga","hotelId":20000907,"hotelName":"Thatch Caye Resort","address":"Thatch Caye,Stann Creek,Dangriga,Belize","phones":"+50118004353145","fax":"","email":"info@thatchcayebelize.com","url":"http://www.thatchcayebelize.com/","countryIso2":"BZ","countryName":"Belize","hotelRating":"3","latitude":"16.8859","longitude":"-88.1196","state_id":265,"state_name":"Stann Creek District","country_id":23},{"active":false,"Giataid":"372938","cityId":16133,"cityName":"Belize City","hotelId":20001084,"hotelName":"Huracan Diving","address":"PO Box: 487,Belize City,Belize","phones":"","fax":"","email":"info@huracandiving.com","url":"http://www.huracandiving.com/Home.html","countryIso2":"BZ","countryName":"Belize","hotelRating":"0","latitude":"17.4977","longitude":"-88.1865","state_id":264,"state_name":"Belize District","country_id":23},{"active":false,"Giataid":"583908","cityId":16142,"cityName":"San Ignacio","hotelId":20001213,"hotelName":"Macaw Bank Jungle Lodge","address":"Mile 2 Macaw Bank Road (Mystic River Road),PO Box 248,San Ignacio,Cayo,Belize,Belize","phones":"+50115016657241","fax":"","email":"macalbank@yahoo.com","url":"http://www.macawbankjunglelodge.com/","countryIso2":"BZ","countryName":"Belize","hotelRating":"0","latitude":"17.0815","longitude":"-89.0666","state_id":269,"state_name":"Cayo District","country_id":23},{"active":false,"Giataid":"139181","cityId":null,"cityName":"Mountain Pine Ridge","hotelId":20001379,"hotelName":"Pine Ridge Lodge","address":"Mountain Pine Ridge Reservat,Cayo District,Belize,Belize","phones":"+5012163759432","fax":"","email":"Estark@StarkfishLLC.com","url":"http://www.pineridgelodge.com/","countryIso2":"BZ","countryName":"Belize","hotelRating":"3","latitude":"17.0892","longitude":"-88.9819","state_id":null,"state_name":null,"country_id":null},{"active":false,"Giataid":"427514","cityId":null,"cityName":"Cayo District","hotelId":20001581,"hotelName":"Spirit of Benque Bed and Breakfast","address":"14 Riverside,Cayo District,Banque Viejo del Carmen,Belize","phones":"+5016320688","fax":"","email":"benqueresort@hotmail.com","url":"http://www.benque-resort.com","countryIso2":"BZ","countryName":"Belize","hotelRating":"2","latitude":"17.0746","longitude":"-89.1417","state_id":null,"state_name":null,"country_id":null},{"active":false,"Giataid":"583978","cityId":16140,"cityName":"Placencia","hotelId":20001765,"hotelName":"Green Parrot Beach Houses & Resort Belize","address":"1 Maya Beach,Placencia,Belize","phones":"+501115015338188","fax":"","email":"greenparrot@mail.com","url":"http://www.greenparrot-belize.com/","countryIso2":"BZ","countryName":"Belize","hotelRating":"2","latitude":"16.6152","longitude":"-88.3536","state_id":265,"state_name":"Stann Creek District","country_id":23},{"active":false,"Giataid":"584005","cityId":16140,"cityName":"Placencia","hotelId":20001927,"hotelName":"Caribbean Beach Cabanas","address":"The Placencia Sidewalk,Placencia,Belize","phones":"+50162241421","fax":"","email":"info@caribbeanbeachcabanas.com","url":"http://www.caribbeanbeachcabanas.com/","countryIso2":"BZ","countryName":"Belize","hotelRating":"3","latitude":"16.5209","longitude":"-88.3686","state_id":265,"state_name":"Stann Creek District","country_id":23},{"active":false,"Giataid":"542415","cityId":16140,"cityName":"Placencia","hotelId":20002046,"hotelName":"Ranguana Caye Cabanas","address":"Ranguana Caye,Punta Placencia,Stann Creek,Belize","phones":"+5016747264","fax":"","email":"info@ranguanacaye.com","url":"http://www.ranguanacaye.com/","countryIso2":"BZ","countryName":"Belize","hotelRating":"2","latitude":"16.642","longitude":"-88.2255","state_id":265,"state_name":"Stann Creek District","country_id":23},{"active":false,"Giataid":"359417","cityId":null,"cityName":"Crooked Tree","hotelId":20002217,"hotelName":"Bird's Eye View Lodge","address":"Crooked Tree,Crooked Tree Wildlife Sanctuary,Belize","phones":"+5012357333","fax":"+5012244869","email":"birdseye@btl.net","url":"http://www.birdseyeviewbelize.com/","countryIso2":"BZ","countryName":"Belize","hotelRating":"3","latitude":"17.7839","longitude":"-88.525","state_id":null,"state_name":null,"country_id":null},{"active":false,"Giataid":"359417","cityId":null,"cityName":"Crooked Tree","hotelId":20002217,"hotelName":"Bird's Eye View Lodge","address":"Crooked Tree,Crooked Tree Wildlife Sanctuary,Belize","phones":"+5012357333","fax":"+5012244869","email":"birdseye@btl.net","url":"http://www.birdseyeviewbelize.com/","countryIso2":"BZ","countryName":"Belize","hotelRating":"3","latitude":"17.7839","longitude":"-88.525","state_id":null,"state_name":null,"country_id":null},{"active":false,"Giataid":"583942","cityId":16142,"cityName":"San Ignacio","hotelId":20002378,"hotelName":"Aguada Hotel & Restaurant","address":"1 Aguada Street,Santa Elena,PO Box 133,San Igancio,Cayo District,Belize","phones":"+5018043609","fax":"+5018243960","email":"aguada@btl.net","url":"https://aguadabelize.com/","countryIso2":"BZ","countryName":"Belize","hotelRating":"2","latitude":"17.1487","longitude":"-89.0778","state_id":269,"state_name":"Cayo District","country_id":23},{"active":false,"Giataid":"483270","cityId":1446,"cityName":"San Pedro","hotelId":20002598,"hotelName":"Hotel San Pedrano","address":"10 Barrier Reef Drive,San Pedro Town,San Pedro,Belize,Belize","phones":"","fax":"","email":"","url":"","countryIso2":"BZ","countryName":"Belize","hotelRating":"0","latitude":"17.9208","longitude":"-87.961","state_id":3644,"state_name":"Misiones","country_id":11},{"active":false,"Giataid":"659457","cityId":1446,"cityName":"San Pedro","hotelId":20003025,"hotelName":"Amelia Guest House","address":"Pescador Drive,San Pedro,Belize","phones":"","fax":"","email":"","url":"","countryIso2":"BZ","countryName":"Belize","hotelRating":"2","latitude":"17.9211","longitude":"-87.9615","state_id":3644,"state_name":"Misiones","country_id":11},