[{"active":false,"Giataid":"1642","cityId":null,"cityName":"Grumeti Game Reserve","hotelId":1642,"hotelName":"Kirawira Serena Camp","address":"Grumeti Game Reserve,Western Serengeti National Park,Tanzania","phones":"+255272545555","fax":"+255282621517","email":"kirawira@serena.co.tz","url":"http://www.serenahotels.com/serenakirawira/default-en.html","countryIso2":"TZ","countryName":"Tanzania","hotelRating":"5","latitude":"-2.20786","longitude":"34.1357","state_id":null,"state_name":null,"country_id":null},{"active":false,"Giataid":"1645","cityId":null,"cityName":"Ngorongoro Conservation Area","hotelId":1645,"hotelName":"Ngorongoro Serena Safari Lodge","address":"Ngorongoro Conservation Area,Tanzania","phones":"+255272545555","fax":"+255272537056","email":"ngorongoro@serena.co.tz","url":"http://www.serenahotels.com/serenangorongoro/default-en.html","countryIso2":"TZ","countryName":"Tanzania","hotelRating":"4","latitude":"-3.21374","longitude":"35.4471","state_id":null,"state_name":null,"country_id":null},{"active":false,"Giataid":"11656","cityId":null,"cityName":"Zanzibar City","hotelId":11656,"hotelName":"Dongwe Club","address":"P.O. Box 1283,Dongwe,Pingwe,Zanzibar,Tanzania","phones":"+255242240250","fax":"+255242240253","email":"","url":"http://www.dongweclub.co.tz/","countryIso2":"TZ","countryName":"Tanzania","hotelRating":"4","latitude":"-6.1826","longitude":"39.5297","state_id":null,"state_name":null,"country_id":null},{"active":false,"Giataid":"11656","cityId":null,"cityName":"Pingwe","hotelId":11656,"hotelName":"Dongwe Club","address":"P.O. Box 1283,Dongwe,Pingwe,Zanzibar,Tanzania","phones":"+255242240250","fax":"+255242240253","email":"","url":"http://www.dongweclub.co.tz/","countryIso2":"TZ","countryName":"Tanzania","hotelRating":"4","latitude":"-6.1826","longitude":"39.5297","state_id":null,"state_name":null,"country_id":null},{"active":false,"Giataid":"19122","cityId":null,"cityName":"Kiwengwa Beach","hotelId":19122,"hotelName":"Diamonds Mapenzi Beach","address":"Mahonda,100 Kiwengwa,Zanzibar,Tanzania","phones":"+255774414268","fax":"+255774419398","email":"info.mapenzi@sandies-resorts.com","url":"http://mapenzibeach.sandies-resorts.com/","countryIso2":"TZ","countryName":"Tanzania","hotelRating":"4","latitude":"-5.94114","longitude":"39.3625","state_id":null,"state_name":null,"country_id":null},{"active":false,"Giataid":"24613","cityId":null,"cityName":"Stone Town","hotelId":24613,"hotelName":"Zanzibar Serena Hotel","address":"Kelele Square,Stone Town,Zanzibar,Tanzania","phones":"+255242233051","fax":"+255242233019","email":"zanzibar@serena.co.tz","url":"http://www.serenahotels.com/serenazanzibar/default-en.html","countryIso2":"TZ","countryName":"Tanzania","hotelRating":"5","latitude":"-6.16342","longitude":"39.1861","state_id":null,"state_name":null,"country_id":null},{"active":false,"Giataid":"32653","cityId":null,"cityName":"Pingwe","hotelId":32653,"hotelName":"Karafuu Beach Resort & Spa","address":"PO Box 71,Pingwe,Zanzibar,Tanzania","phones":"+255777413647","fax":"+255777419915","email":"","url":"http://www.karafuuzanzibar.com/index.html","countryIso2":"TZ","countryName":"Tanzania","hotelRating":"5","latitude":"-6.14227","longitude":"39.5134","state_id":null,"state_name":null,"country_id":null},{"active":false,"Giataid":"34527","cityId":null,"cityName":"Kiwengwa Beach","hotelId":34527,"hotelName":"Bluebay Beach Resort And Spa","address":"Kiwengwa,Zanzibar,Tanzania","phones":"+255774413321","fax":"+255242240245","email":"mail@bluebayzanzibar.com","url":"http://bluebayzanzibar.com/bluebay-beach-resort-and-spa/","countryIso2":"TZ","countryName":"Tanzania","hotelRating":"5","latitude":"-5.97797","longitude":"39.3748","state_id":null,"state_name":null,"country_id":null},{"active":false,"Giataid":"39934","cityId":109042,"cityName":"Arusha","hotelId":39934,"hotelName":"Four Points by Sheraton Arusha, The Arusha Hotel","address":"PO Box 88,Arusha,Tanzania","phones":"+255272507777","fax":"+255272508889","email":"info@thearushahotel.com","url":"http://www.thearushahotel.com/","countryIso2":"TZ","countryName":"Tanzania","hotelRating":"4","latitude":"-3.37269","longitude":"36.6946","state_id":1491,"state_name":"Arusha","country_id":218},{"active":false,"Giataid":"39935","cityId":null,"cityName":"Bwejuu","hotelId":39935,"hotelName":"Breezes Beach Club & Spa","address":"Bwejuu Beach,Bwejuu,Zanzibar,Tanzania","phones":"+255254720538148","fax":"+255242240450","email":"info@breezes-zanzibar.com","url":"http://www.breezes-zanzibar.com/index1.html","countryIso2":"TZ","countryName":"Tanzania","hotelRating":"5","latitude":"-6.19389","longitude":"39.5347","state_id":null,"state_name":null,"country_id":null},{"active":false,"Giataid":"41814","cityId":null,"cityName":"Arusha National Park","hotelId":41814,"hotelName":"Kigongoni Lodge","address":"P.O.Box 11952,Arusha,Tanzania","phones":"","fax":"","email":"","url":"","countryIso2":"TZ","countryName":"Tanzania","hotelRating":"4","latitude":"-3.3677","longitude":"36.6988","state_id":null,"state_name":null,"country_id":null},{"active":false,"Giataid":"41818","cityId":null,"cityName":"Arusha National Park","hotelId":41818,"hotelName":"Arusha Safari Lodge","address":"Old Moivaro Road,Arusha-Nationalpark,Tanzania","phones":"+255272506315","fax":"","email":"marketing@moivaro.com","url":"http://moivaro.com/lodges/tanzania/arusha-safari-lodge","countryIso2":"TZ","countryName":"Tanzania","hotelRating":"4","latitude":"-3.39794","longitude":"36.7595","state_id":null,"state_name":null,"country_id":null},{"active":false,"Giataid":"41819","cityId":109044,"cityName":"Bagamoyo","hotelId":41819,"hotelName":"Lazy Lagoon Island Lodge","address":"NULL","phones":"","fax":"","email":"info@tanzaniasafaris.info","url":"http://www.tanzaniasafaris.info/LazyLagoon/intro.htm","countryIso2":"TZ","countryName":"Tanzania","hotelRating":"4","latitude":"-6.45568","longitude":"38.9787","state_id":1485,"state_name":"Pwani","country_id":218},{"active":false,"Giataid":"41821","cityId":null,"cityName":"Dar-es-Salaam","hotelId":41821,"hotelName":"Dar Es Salaam Serena","address":"PO Box 791,Ohio St,Dar es Salaam,Tanzania","phones":"+255222112416","fax":"+255222113981","email":"hotel.daressalaam@moevenpick.co","url":"http://www.moevenpick-hotels.com/de/pub/ihre_hotels/worldmap/dar_es_salaam/uebersicht.cfm","countryIso2":"TZ","countryName":"Tanzania","hotelRating":"5","latitude":"-6.81065","longitude":"39.288","state_id":null,"state_name":null,"country_id":null},{"active":false,"Giataid":"41823","cityId":null,"cityName":"Dar-es-Salaam","hotelId":41823,"hotelName":"Protea Hotel Dar es Salaam Amani Beach","address":"Kigamboni,Temeke,Dar Es Salaam,Tanzania","phones":"+255782410033","fax":"","email":"","url":"","countryIso2":"TZ","countryName":"Tanzania","hotelRating":"3","latitude":"-6.94221","longitude":"39.505","state_id":null,"state_name":null,"country_id":null},{"active":false,"Giataid":"41824","cityId":null,"cityName":"Dar-es-Salaam","hotelId":41824,"hotelName":"Best Western Coral Beach Hotel","address":"Plot 956/1412 Coral Lane,Masaki,Msasani Peninsula,2585 Dar es Salaam,Tanzania","phones":"+255784260192","fax":"+255222601547","email":"info@coralbeach-tz.com","url":"http://www.coralbeach-tz.com/","countryIso2":"TZ","countryName":"Tanzania","hotelRating":"4","latitude":"-6.7403","longitude":"39.2775","state_id":null,"state_name":null,"country_id":null},{"active":false,"Giataid":"41825","cityId":null,"cityName":"Dar-es-Salaam","hotelId":41825,"hotelName":"Golden Tulip Dar Es Salaam","address":"Toure Drive Msasani Peninsula,PO BOX 6300,Dar Es Salaam,Tanzania","phones":"+255222600288","fax":"+255222601443","email":"reservations@goldentuliptanzania.com","url":"http://www.goldentulipdaressalaam.com/default.aspx?Language=EN","countryIso2":"TZ","countryName":"Tanzania","hotelRating":"3","latitude":"-6.75659","longitude":"39.2872","state_id":null,"state_name":null,"country_id":null},{"active":false,"Giataid":"41826","cityId":null,"cityName":"Dar-es-Salaam","hotelId":41826,"hotelName":"Southern Sun Dar Es Salaam","address":"Garden Avenue,PO Box 80022,Dar es Salaam,Tanzania","phones":"+255222137575","fax":"+255222139070","email":"adamf@southernsun.com","url":"http://www.southernsun.com/hotels/dar-es-salaam/pages/overview.aspx","countryIso2":"TZ","countryName":"Tanzania","hotelRating":"4","latitude":"-6.81151","longitude":"39.2936","state_id":null,"state_name":null,"country_id":null},{"active":false,"Giataid":"41827","cityId":null,"cityName":"Dar-es-Salaam","hotelId":41827,"hotelName":"Sea Cliff","address":"10 Toure Drive,Msasani Peninsula,P.O.Box 3030,Dar es Salaam,Tanzania","phones":"+255225529900","fax":"+255222600476","email":"reservations@hotelseacliff.com","url":"http://www.hotelseacliff.com/","countryIso2":"TZ","countryName":"Tanzania","hotelRating":"5","latitude":"-6.73974","longitude":"39.2843","state_id":null,"state_name":null,"country_id":null},{"active":false,"Giataid":"41828","cityId":null,"cityName":"Dar-es-Salaam","hotelId":41828,"hotelName":"Protea Hotel Dar es Salaam Courtyard","address":"Seaview Ocean Road,PO Box 542,Dar es Salaam 1000,Tanzania","phones":"+255222130130","fax":"+255222130100","email":"info@phcourtyard.com","url":"http://www.proteahotels.com/protea-hotel-courtyard-dar-es-salaam.html","countryIso2":"TZ","countryName":"Tanzania","hotelRating":"3","latitude":"-6.80363","longitude":"39.2891","state_id":null,"state_name":null,"country_id":null},{"active":false,"Giataid":"41829","cityId":null,"cityName":"Dar-es-Salaam","hotelId":41829,"hotelName":"Hotel White Sands - The Beach Resort","address":"Africana Road,P.O. Box 3030,Dar es Salaam,Jangwani Beach,Tanzania","phones":"+255758818696","fax":"","email":"","url":"","countryIso2":"TZ","countryName":"Tanzania","hotelRating":"4","latitude":"-6.68282","longitude":"39.2237","state_id":null,"state_name":null,"country_id":null},{"active":false,"Giataid":"41833","cityId":null,"cityName":"Ngorongoro Conservation Area","hotelId":41833,"hotelName":"Ngorongoro Sopa Lodge","address":"NULL","phones":"+2557842506301","fax":"+2557542506301","email":"info@sopalodges.com","url":"http://www.sopalodges.com/ngorongoro/home.html","countryIso2":"TZ","countryName":"Tanzania","hotelRating":"3","latitude":"-3.15408","longitude":"35.6764","state_id":null,"state_name":null,"country_id":null},{"active":false,"Giataid":"41836","cityId":null,"cityName":"Selous Game Reserve","hotelId":41836,"hotelName":"Sand Rivers Selous","address":"Selous Game Reserve,Tanzania","phones":"","fax":"","email":"info@nomad.co.tz","url":"http://www.sand-rivers-selous.com/","countryIso2":"TZ","countryName":"Tanzania","hotelRating":"3","latitude":"-7.87085","longitude":"37.9887","state_id":null,"state_name":null,"country_id":null},{"active":false,"Giataid":"41838","cityId":null,"cityName":"Selous Game Reserve","hotelId":41838,"hotelName":"Sable Mountain Lodge","address":"Selous Game Reserve,Tanzania","phones":"+255222110507","fax":"","email":"info@tentwithaview.com","url":"http://www.selouslodge.com/","countryIso2":"TZ","countryName":"Tanzania","hotelRating":"3","latitude":"-7.5153","longitude":"37.6752","state_id":null,"state_name":null,"country_id":null},{"active":false,"Giataid":"41841","cityId":null,"cityName":"Lake Manyara National Park","hotelId":41841,"hotelName":"E Unoto Retreat Luxury Lodge","address":"","phones":"","fax":"","email":"","url":"","countryIso2":"TZ","countryName":"Tanzania","hotelRating":"4","latitude":"-3.46602","longitude":"35.8321","state_id":null,"state_name":null,"country_id":null},{"active":false,"Giataid":"41842","cityId":null,"cityName":"Lake Manyara National Park","hotelId":41842,"hotelName":"Lake Manyara Wildlife Lodge","address":"Mto Wa Mbu,Lake Manyara National Park,Tanzania","phones":"+255272544595","fax":"+255272548633","email":"res@hotelsandlodges-tanzania.com","url":"http://www.hotelsandlodges-tanzania.com/properties/en/manyara_index.php","countryIso2":"TZ","countryName":"Tanzania","hotelRating":"3","latitude":"-3.74244","longitude":"35.707","state_id":null,"state_name":null,"country_id":null},{"active":false,"Giataid":"41842","cityId":null,"cityName":"Mto Wa Mbu","hotelId":41842,"hotelName":"Lake Manyara Wildlife Lodge","address":"Mto Wa Mbu,Lake Manyara National Park,Tanzania","phones":"+255272544595","fax":"+255272548633","email":"res@hotelsandlodges-tanzania.com","url":"http://www.hotelsandlodges-tanzania.com/properties/en/manyara_index.php","countryIso2":"TZ","countryName":"Tanzania","hotelRating":"3","latitude":"-3.74244","longitude":"35.707","state_id":null,"state_name":null,"country_id":null},{"active":false,"Giataid":"41843","cityId":null,"cityName":"Lake Manyara National Park","hotelId":41843,"hotelName":"Lake Manyara Serena Safari Lodge","address":"Kilimanoja,P O Box 2551,Lake Manyara-Nationalpark,Tanzania","phones":"+255272545555","fax":"+255272539164","email":"lakemanyara@serena.co.tz","url":"http://www.serenahotels.com/serenalakemanyara/default-en.html","countryIso2":"TZ","countryName":"Tanzania","hotelRating":"4","latitude":"-3.37265","longitude":"35.8275","state_id":null,"state_name":null,"country_id":null},{"active":false,"Giataid":"41846","cityId":null,"cityName":"Serengeti National Park","hotelId":41846,"hotelName":"&Beyond Grumeti Serengeti Tented Camp","address":"Grumeti Game Reserve,Serengeti,Tanzania","phones":"+25527118094300","fax":"+25527118094400","email":"talktous@andbeyond.com","url":"http://www.grumeti.com/","countryIso2":"TZ","countryName":"Tanzania","hotelRating":"4","latitude":"-2.20771","longitude":"34.3707","state_id":null,"state_name":null,"country_id":null},{"active":false,"Giataid":"41846","cityId":null,"cityName":"Grumeti Game Reserve","hotelId":41846,"hotelName":"&Beyond Grumeti Serengeti Tented Camp","address":"Grumeti Game Reserve,Serengeti,Tanzania","phones":"+25527118094300","fax":"+25527118094400","email":"talktous@andbeyond.com","url":"http://www.grumeti.com/","countryIso2":"TZ","countryName":"Tanzania","hotelRating":"4","latitude":"-2.20771","longitude":"34.3707","state_id":null,"state_name":null,"country_id":null},{"active":false,"Giataid":"41847","cityId":null,"cityName":"Seronera","hotelId":41847,"hotelName":"Klein's Camp","address":"Seronera,Serengeti National Park,Tanzania","phones":"+25527118094300","fax":"","email":"safaris@andbeyond.com","url":"http://www.andbeyondafrica.com/luxury_safari/tanzania/serengeti_national_park/and_beyond_kleins","countryIso2":"TZ","countryName":"Tanzania","hotelRating":"4","latitude":"-1.65321","longitude":"35.1144","state_id":null,"state_name":null,"country_id":null},{"active":false,"Giataid":"41851","cityId":null,"cityName":"Serengeti National Park","hotelId":41851,"hotelName":"Sanctuary Kusini Camp","address":"Serengeti National Park,Tanzania","phones":"","fax":"","email":"","url":"http://www.sanctuaryretreats.com/tanzania-camps-kusini","countryIso2":"TZ","countryName":"Tanzania","hotelRating":"4","latitude":"-3.02305","longitude":"34.7136","state_id":null,"state_name":null,"country_id":null},{"active":false,"Giataid":"41853","cityId":null,"cityName":"Serengeti National Park","hotelId":41853,"hotelName":"Serengeti Serena Safari Lodge","address":"Serengeti National Park,Tanzania","phones":"+255272545555","fax":"+255282621520","email":"serengeti@serena.co.tz","url":"http://www.serenahotels.com/serenaserengeti/default-en.html","countryIso2":"TZ","countryName":"Tanzania","hotelRating":"4","latitude":"-2.38327","longitude":"34.7032","state_id":null,"state_name":null,"country_id":null},{"active":false,"Giataid":"41856","cityId":null,"cityName":"Tarangire National Park","hotelId":41856,"hotelName":"Sanctuary Swala Camp","address":"Tarangire National Park,Tanzania","phones":"+255272509817","fax":"+255272508273","email":"reservations.tanzania@sanctuaryretreats.com","url":"http://www.sanctuaryretreats.com/tanzania-camps-swala","countryIso2":"TZ","countryName":"Tanzania","hotelRating":"4","latitude":"-4.15462","longitude":"35.9458","state_id":null,"state_name":null,"country_id":null},{"active":false,"Giataid":"41860","cityId":null,"cityName":"Tarangire National Park","hotelId":41860,"hotelName":"Boundary Hill Lodge","address":"Sakina,Tarangire National Park,Tansania,Tanzania","phones":"+255787293727","fax":"","email":"","url":"","countryIso2":"TZ","countryName":"Tanzania","hotelRating":"1","latitude":"-3.91188","longitude":"35.9973","state_id":null,"state_name":null,"country_id":null},{"active":false,"Giataid":"41861","cityId":109261,"cityName":"Nungwi","hotelId":41861,"hotelName":"Ras Nungwi Beach","address":"P.O. Box 1784,Nungwi Beach,Zanzibar,Tanzania","phones":"+255242233767","fax":"+255242233098","email":"info@rasnungwi.com","url":"http://www.rasnungwi.com/","countryIso2":"TZ","countryName":"Tanzania","hotelRating":"4","latitude":"-5.72388","longitude":"39.298","state_id":1473,"state_name":"Zanzibar North","country_id":218},{"active":false,"Giataid":"41862","cityId":null,"cityName":"Zanzibar City","hotelId":41862,"hotelName":"The Palms Zanzibar","address":"Bwejuu Beach,South East Coast,Zanzibar,Tanzania","phones":"+255777437007","fax":"+255242240450","email":"info@palms-zanzibar.com","url":"http://www.palms-zanzibar.com/index2.html","countryIso2":"TZ","countryName":"Tanzania","hotelRating":"5","latitude":"-6.23756","longitude":"39.5304","state_id":null,"state_name":null,"country_id":null},{"active":false,"Giataid":"41866","cityId":null,"cityName":"Zanzibar City","hotelId":41866,"hotelName":"Protea Hotel Zanzibar Mbweni Ruins","address":"Plot number 143/93 Mbweni Street,Kiembe Samakie,Zanzibar,Tanzania","phones":"+255242235478","fax":"","email":"hotel@mbweni.com","url":"http://www.mbweni.com","countryIso2":"TZ","countryName":"Tanzania","hotelRating":"4","latitude":"-6.21076","longitude":"39.2016","state_id":null,"state_name":null,"country_id":null},{"active":false,"Giataid":"41869","cityId":null,"cityName":"Mafia Island","hotelId":41869,"hotelName":"Kinasi Lodge","address":"Mafia Island,Tanzania","phones":"+255777424588","fax":"","email":"","url":"","countryIso2":"TZ","countryName":"Tanzania","hotelRating":"4","latitude":"-7.91825","longitude":"39.7507","state_id":null,"state_name":null,"country_id":null},{"active":false,"Giataid":"41870","cityId":null,"cityName":"Mafia Island","hotelId":41870,"hotelName":"Mafia Island Lodge","address":"Utende Street,Mafia Island,Tanzania","phones":"","fax":"","email":"","url":"http://www.mafialodge.com/","countryIso2":"TZ","countryName":"Tanzania","hotelRating":"3","latitude":"-7.86989","longitude":"39.755","state_id":null,"state_name":null,"country_id":null},{"active":false,"Giataid":"41875","cityId":null,"cityName":"Rubondo Island National Park","hotelId":41875,"hotelName":"Rubondo Island Camp","address":"Rubondo-Island-Nationalpark,Tanzania","phones":"","fax":"","email":"","url":"","countryIso2":"TZ","countryName":"Tanzania","hotelRating":"3","latitude":"-2.44246","longitude":"32.9047","state_id":null,"state_name":null,"country_id":null},{"active":false,"Giataid":"41876","cityId":null,"cityName":"Rubondo Island National Park","hotelId":41876,"hotelName":"Speke Bay Lodge","address":"Mwanza,Tanzania,Tanzania","phones":"","fax":"+255282621237","email":"info@spekebay.com","url":"http://www.spekebay.com/","countryIso2":"TZ","countryName":"Tanzania","hotelRating":"3","latitude":"-2.52329","longitude":"32.9047","state_id":null,"state_name":null,"country_id":null},{"active":false,"Giataid":"46622","cityId":64838,"cityName":"Mombasa","hotelId":46622,"hotelName":"Alfajuri House","address":"","phones":"","fax":"","email":"","url":"","countryIso2":"TZ","countryName":"Tanzania","hotelRating":"1","latitude":"0","longitude":"0","state_id":200,"state_name":"Mombasa","country_id":113},{"active":false,"Giataid":"47879","cityId":null,"cityName":"Pwani Mchangani","hotelId":47879,"hotelName":"Ocean Paradise Resort & Spa Zanzibar","address":"Kiwengwa Road,Pwani Mchangani,North East Coast of Zanzibar,Tanzania","phones":"+255774440990","fax":"+255774419991","email":"info@oceanparadisezanzibar.com","url":"http://www.oceanparadisezanzibar.com","countryIso2":"TZ","countryName":"Tanzania","hotelRating":"4","latitude":"-5.93696","longitude":"39.3621","state_id":null,"state_name":null,"country_id":null},{"active":false,"Giataid":"47879","cityId":null,"cityName":"Pwani Mchangani","hotelId":47879,"hotelName":"Ocean Paradise Resort & Spa Zanzibar","address":"Kiwengwa Road,Pwani Mchangani,North East Coast of Zanzibar,Tanzania","phones":"+255774440990","fax":"+255774419991","email":"info@oceanparadisezanzibar.com","url":"http://www.oceanparadisezanzibar.com","countryIso2":"TZ","countryName":"Tanzania","hotelRating":"4","latitude":"-5.93696","longitude":"39.3621","state_id":null,"state_name":null,"country_id":null},{"active":false,"Giataid":"76158","cityId":null,"cityName":"Pwani Mchangani","hotelId":76158,"hotelName":"Neptune Pwani Beach Resort & Spa","address":"Kiwengwa,3400 Pwani Mchangani,Zanzibar,Tanzania","phones":"+255774567893","fax":"+255242240302","email":"info.neptune@sandies-resorts.com","url":"http://neptunepwani.sandies-resorts.com/","countryIso2":"TZ","countryName":"Tanzania","hotelRating":"5","latitude":"-5.93185","longitude":"39.3597","state_id":null,"state_name":null,"country_id":null},{"active":false,"Giataid":"128919","cityId":null,"cityName":"Kilimanjaro","hotelId":128919,"hotelName":"Kia Lodge","address":"Ngalo Road,3 km from Kilimanjaro Airport,Kilimanjaro,Arusha,Tanzania","phones":"+255272506315","fax":"+255272506378","email":"reservations@kialodge.com","url":"http://www.kialodge.com","countryIso2":"TZ","countryName":"Tanzania","hotelRating":"2","latitude":"-3.42149","longitude":"37.0771","state_id":null,"state_name":null,"country_id":null},{"active":false,"Giataid":"128919","cityId":null,"cityName":"Kilimanjaro","hotelId":128919,"hotelName":"Kia Lodge","address":"Ngalo Road,3 km from Kilimanjaro Airport,Kilimanjaro,Arusha,Tanzania","phones":"+255272506315","fax":"+255272506378","email":"reservations@kialodge.com","url":"http://www.kialodge.com","countryIso2":"TZ","countryName":"Tanzania","hotelRating":"2","latitude":"-3.42149","longitude":"37.0771","state_id":null,"state_name":null,"country_id":null},{"active":false,"Giataid":"134347","cityId":null,"cityName":"Pwani Mchangani","hotelId":134347,"hotelName":"Dream of Zanzibar","address":"Kiwenga,Pwani Mchangani,North East Coast,Zanzibar,Tanzania","phones":"+255759598888","fax":"+255759597777","email":"info.doz@diamonds-resorts.com","url":"http://dreamofzanzibar.diamonds-resorts.com/","countryIso2":"TZ","countryName":"Tanzania","hotelRating":"5","latitude":"-5.93854","longitude":"39.3619","state_id":null,"state_name":null,"country_id":null},{"active":false,"Giataid":"134350","cityId":null,"cityName":"Stone Town","hotelId":134350,"hotelName":"Al-Johari","address":"116 Shangani,Stone Town,P.O. Box 3234,Zanzibar,Tanzania","phones":"+255242236779","fax":"","email":"","url":"","countryIso2":"TZ","countryName":"Tanzania","hotelRating":"3","latitude":"-6.16383","longitude":"39.1869","state_id":null,"state_name":null,"country_id":null},{"active":false,"Giataid":"135447","cityId":null,"cityName":"Mahale Mountains National Park","hotelId":135447,"hotelName":"Greystoke Mahale Camp","address":"","phones":"","fax":"","email":"","url":"","countryIso2":"TZ","countryName":"Tanzania","hotelRating":"4","latitude":"0","longitude":"0","state_id":null,"state_name":null,"country_id":null},{"active":false,"Giataid":"142333","cityId":null,"cityName":"Karatu District","hotelId":142333,"hotelName":"Crater Forest Tented Camp","address":"Ngorongoro Conservation Area,Karatu,Tanzania","phones":"","fax":"","email":"","url":"","countryIso2":"TZ","countryName":"Tanzania","hotelRating":"1","latitude":"-3.30213","longitude":"35.5581","state_id":null,"state_name":null,"country_id":null},{"active":false,"Giataid":"142336","cityId":null,"cityName":"Mkomazi Game Reserve","hotelId":142336,"hotelName":"Babu's Camp","address":"Mkomazi-Wildreservat,Tanzania","phones":"","fax":"","email":"","url":"http://www.anasasafari.com/babus-camp/","countryIso2":"TZ","countryName":"Tanzania","hotelRating":"2","latitude":"-4.02632","longitude":"37.8771","state_id":null,"state_name":null,"country_id":null},{"active":false,"Giataid":"142386","cityId":null,"cityName":"Bawe Island","hotelId":142386,"hotelName":"Bawe Tropical Island","address":"P.O. Box 3604,Bawe Island,Zanzibar,Tanzania","phones":"+255773333241","fax":"","email":"","url":"","countryIso2":"TZ","countryName":"Tanzania","hotelRating":"4","latitude":"-6.15191","longitude":"39.1287","state_id":null,"state_name":null,"country_id":null},{"active":false,"Giataid":"142848","cityId":null,"cityName":"Ngorongoro Conservation Area","hotelId":142848,"hotelName":"Kifaru Lodge","address":"Ngorongoro-Naturschutzgebiet,Tanzania","phones":"","fax":"","email":"","url":"","countryIso2":"TZ","countryName":"Tanzania","hotelRating":"1","latitude":"-3.24154","longitude":"35.4878","state_id":null,"state_name":null,"country_id":null},{"active":false,"Giataid":"143042","cityId":null,"cityName":"Selous Game Reserve","hotelId":143042,"hotelName":"Selous Impala Camp","address":"Selous-Wildreservat,Tanzania","phones":"","fax":"","email":"reservations@adventurecampstz.com","url":"http://www.adventurecampstz.com/selousimpalalocation.htm","countryIso2":"TZ","countryName":"Tanzania","hotelRating":"3","latitude":"-7.68627","longitude":"38.138","state_id":null,"state_name":null,"country_id":null},{"active":false,"Giataid":"143044","cityId":null,"cityName":"Lake Manyara National Park","hotelId":143044,"hotelName":"Kirurumu Tented Lodge","address":"","phones":"","fax":"","email":"","url":"","countryIso2":"TZ","countryName":"Tanzania","hotelRating":"3","latitude":"-3.46602","longitude":"35.8321","state_id":null,"state_name":null,"country_id":null},{"active":false,"Giataid":"143063","cityId":null,"cityName":"Selous Game Reserve","hotelId":143063,"hotelName":"Selous Mbuyu Safari Camp","address":"Selous,Wildreservat,Tanzania","phones":"+255689133010","fax":"","email":"gm@selousmbuyusafaricamp.com","url":"http://www.selousmbuyusafaricamp.com","countryIso2":"TZ","countryName":"Tanzania","hotelRating":"1","latitude":"-7.66189","longitude":"38.0768","state_id":null,"state_name":null,"country_id":null},{"active":false,"Giataid":"143084","cityId":null,"cityName":"Ngorongoro Conservation Area","hotelId":143084,"hotelName":"Ndutu Safari Lodge","address":"Ngorongoro-Naturschutzgebiet,Tanzania","phones":"+255272537015","fax":"","email":"info@ndutu.com","url":"http://www.ndutu.com","countryIso2":"TZ","countryName":"Tanzania","hotelRating":"3","latitude":"-3.01993","longitude":"34.997","state_id":null,"state_name":null,"country_id":null},{"active":false,"Giataid":"182455","cityId":109042,"cityName":"Arusha","hotelId":182455,"hotelName":"Arusha Serena Hotel, Resort & Spa","address":"PO Box 2551,Arusha,Tanzania","phones":"+255272553049","fax":"+255272553316","email":"mtvillage@serena.co.tz","url":"http://www.serenahotels.com/serenaarusha/default-en.html","countryIso2":"TZ","countryName":"Tanzania","hotelRating":"4","latitude":"-3.38065","longitude":"36.7923","state_id":1491,"state_name":"Arusha","country_id":218},{"active":false,"Giataid":"182852","cityId":null,"cityName":"Matemwe Beach","hotelId":182852,"hotelName":"Kena Beach Hotel","address":"Azanzi Beach,Shangani,06090 Matemwe,Tanzania","phones":"+255775044171","fax":"","email":"res@anthology.co.za","url":"http://www.azanzibeachhotel.com/index.php","countryIso2":"TZ","countryName":"Tanzania","hotelRating":"4","latitude":"-5.87567","longitude":"39.3513","state_id":null,"state_name":null,"country_id":null},{"active":false,"Giataid":"183774","cityId":null,"cityName":"Jambiani","hotelId":183774,"hotelName":"Mbuyuni Beach Village","address":"Jambiani,Paje,East Coast of Zanzibar,Tanzania","phones":"+255773659989","fax":"","email":"","url":"","countryIso2":"TZ","countryName":"Tanzania","hotelRating":"2","latitude":"-6.32578","longitude":"39.5501","state_id":null,"state_name":null,"country_id":null},{"active":false,"Giataid":"187722","cityId":null,"cityName":"Dar-es-Salaam","hotelId":187722,"hotelName":"Kunduchi Wet N Wild Water Park","address":"Off Bagamoyo Road,Near Mtongani,Kunduchi,01001 ï¿½Dar es Salaam,Tanzania","phones":"+255688058365","fax":"","email":"","url":"","countryIso2":"TZ","countryName":"Tanzania","hotelRating":"4","latitude":"-6.66674","longitude":"39.2194","state_id":null,"state_name":null,"country_id":null},{"active":false,"Giataid":"188222","cityId":null,"cityName":"Serengeti National Park","hotelId":188222,"hotelName":"Ranger Safaris Luxury Camping","address":"Serengeti National Park,Tanzania","phones":"+255272547571","fax":"","email":"","url":"http://www.rangersafaris.com/index.php?option=com_content&amp;view=article&amp;id=21&amp;Itemid=54","countryIso2":"TZ","countryName":"Tanzania","hotelRating":"1","latitude":"-2.33251","longitude":"34.8351","state_id":null,"state_name":null,"country_id":null},{"active":false,"Giataid":"203027","cityId":null,"cityName":"Serengeti National Park","hotelId":203027,"hotelName":"Mbuzi Mawe Tented Camp","address":"Central Serengeti National Park,Tanzania","phones":"+255272545555","fax":"+255282621517","email":"mbuzimawe@serena.co.tz","url":"http://www.serenahotels.com/serenambuzi/default-en.html","countryIso2":"TZ","countryName":"Tanzania","hotelRating":"4","latitude":"-2.19694","longitude":"34.9754","state_id":null,"state_name":null,"country_id":null},{"active":false,"Giataid":"228219","cityId":109261,"cityName":"Nungwi","hotelId":228219,"hotelName":"DoubleTree Resort by Hilton Hotel Zanzibar - Nungwi","address":"Nungwi Village,P.O. Box 2651,Nungwi,Zanzibar,Tanzania","phones":"+255779000008","fax":"+255242240017","email":"","url":"http://doubletree1.hilton.com/en_US/dt/hotel/ZNZDTDI-Doubletree-by-Hilton-Resort-Zanzibar-Nungwi/index.do","countryIso2":"TZ","countryName":"Tanzania","hotelRating":"4","latitude":"-5.72437","longitude":"39.2951","state_id":1473,"state_name":"Zanzibar North","country_id":218},{"active":false,"Giataid":"229002","cityId":null,"cityName":"Serengeti National Park","hotelId":229002,"hotelName":"Serengeti Explorer Camp","address":"Serengeti National Park,Ndutu area on the Serengeti side of the lake,Tanzania","phones":"+25527214275900","fax":"","email":"camps@rangercamps.com","url":"http://serengetiexplorercamp.com/index.html","countryIso2":"TZ","countryName":"Tanzania","hotelRating":"3","latitude":"-2.41621","longitude":"34.6856","state_id":null,"state_name":null,"country_id":null},{"active":false,"Giataid":"229007","cityId":109261,"cityName":"Nungwi","hotelId":229007,"hotelName":"Diamonds Star of the East","address":"P.O.Box 4700,Nungwi Road,Nungwi,Zanzibar,Tanzania","phones":"+255242240125","fax":"+255242240089","email":"info.sote@diamonds-resorts.com","url":"http://staroftheeast.diamonds-resorts.com/","countryIso2":"TZ","countryName":"Tanzania","hotelRating":"5","latitude":"-5.74553","longitude":"39.2908","state_id":1473,"state_name":"Zanzibar North","country_id":218},{"active":false,"Giataid":"229008","cityId":null,"cityName":"Stone Town","hotelId":229008,"hotelName":"The Seyyida Hotel & Spa","address":"Kiponda,Kijangwani,Stonetown,Zanzibar,Tanzania","phones":"+255242238352","fax":"+255242235463","email":"sales@theseyyida-zanzibar.com","url":"http://www.theseyyida-zanzibar.com/","countryIso2":"TZ","countryName":"Tanzania","hotelRating":"3","latitude":"-6.15856","longitude":"39.2064","state_id":null,"state_name":null,"country_id":null},{"active":false,"Giataid":"229088","cityId":null,"cityName":"Uroa","hotelId":229088,"hotelName":"PalumboReef Beach Resort","address":"Uroa Road,P.O Box 3508,Uroa,Tanzania","phones":"+255772633063","fax":"","email":"","url":"http://www.palumboreef.com/index.php?lang=en&amp;area=2&amp;menuid=2","countryIso2":"TZ","countryName":"Tanzania","hotelRating":"3","latitude":"-6.1015","longitude":"39.4248","state_id":null,"state_name":null,"country_id":null},{"active":false,"Giataid":"229093","cityId":null,"cityName":"Zanzibar City","hotelId":229093,"hotelName":"Marumbi Beach","address":"Marumbi,Sansibar,Tanzania","phones":"","fax":"","email":"","url":"http://www.marumbibeachzanzibar.com/","countryIso2":"TZ","countryName":"Tanzania","hotelRating":"3","latitude":"-6.13089","longitude":"39.4237","state_id":null,"state_name":null,"country_id":null},{"active":false,"Giataid":"229094","cityId":109261,"cityName":"Nungwi","hotelId":229094,"hotelName":"My Blue","address":"Nungwi,Sansibar,Tanzania","phones":"+255779337207","fax":"","email":"","url":"http://www.mybluehotel.com/","countryIso2":"TZ","countryName":"Tanzania","hotelRating":"4","latitude":"-5.73556","longitude":"39.2909","state_id":1473,"state_name":"Zanzibar North","country_id":218},{"active":false,"Giataid":"230011","cityId":null,"cityName":"Selous Game Reserve","hotelId":230011,"hotelName":"Lake Manze Tented Camp","address":"NULL","phones":"","fax":"","email":"","url":"","countryIso2":"TZ","countryName":"Tanzania","hotelRating":"1","latitude":"-7.6637","longitude":"38.045","state_id":null,"state_name":null,"country_id":null},{"active":false,"Giataid":"230019","cityId":null,"cityName":"Selous Game Reserve","hotelId":230019,"hotelName":"Selous Wilderness Camp","address":"South Side of the Rufiji River,Selous-Wildreservat,Eastern Boundary,Tanzania","phones":"+255222125197","fax":"+255222125197","email":"info@selouswilderness.com","url":"http://www.selouswilderness.com","countryIso2":"TZ","countryName":"Tanzania","hotelRating":"3","latitude":"-7.76252","longitude":"38.2246","state_id":null,"state_name":null,"country_id":null},{"active":false,"Giataid":"230379","cityId":null,"cityName":"Bwejuu","hotelId":230379,"hotelName":"African Sun Sea Beach Resort & Spa","address":"Off Bwejuu Road,Bwejuu,Zanzibar,Tanzania","phones":"+255763397397","fax":"","email":"res@beachstay.co.za","url":"http://www.whiterosezanzibar.com","countryIso2":"TZ","countryName":"Tanzania","hotelRating":"3","latitude":"-6.22634","longitude":"39.5327","state_id":null,"state_name":null,"country_id":null},{"active":false,"Giataid":"232204","cityId":65155,"cityName":"Paje","hotelId":232204,"hotelName":"Hakuna Majiwe Beach Lodge","address":"P.o box 758,Stone Town,Paje,South East Coast,Island of Unguja,Tanzania","phones":"+255777454505","fax":"","email":"res@beachstay.co.za","url":"http://www.hakunamajiwezanzibar.com","countryIso2":"TZ","countryName":"Tanzania","hotelRating":"3","latitude":"-6.28288","longitude":"39.5361","state_id":2821,"state_name":"Anjouan","country_id":49},{"active":false,"Giataid":"232203","cityId":null,"cityName":"Dar-es-Salaam","hotelId":232203,"hotelName":"DoubleTree by Hilton Hotel Dar es Salaam - Oyster Bay","address":"Slipway Road Msasani Peninsula,Dar es Salaam,105342,Tanzania","phones":"+255222210000","fax":"+255222602375","email":"","url":"http://doubletree1.hilton.com/en_US/dt/hotel/DARDTDI-Doubletree-by-Hilton-Dar-es-Salaam-Oysterbay/index.do","countryIso2":"TZ","countryName":"Tanzania","hotelRating":"4","latitude":"-6.75447","longitude":"39.2734","state_id":null,"state_name":null,"country_id":null},{"active":false,"Giataid":"232810","cityId":null,"cityName":"Pwani Mchangani","hotelId":232810,"hotelName":"Coral Reef Beach Resort","address":"Pwani Mchangani,Zanzibar East Coast,Tanzania","phones":"+255777415549","fax":"+255777415549","email":"","url":"http://www.trivago.de/zanzibar-city-87080/hotel/ora-coral-reef-resort-593241","countryIso2":"TZ","countryName":"Tanzania","hotelRating":"3","latitude":"-5.94342","longitude":"39.3644","state_id":null,"state_name":null,"country_id":null},{"active":false,"Giataid":"233796","cityId":null,"cityName":"Dar-es-Salaam","hotelId":233796,"hotelName":"Colosseum","address":"9 Haille Selassie Road,Dar-es-Salaam,Tanzania,Tanzania","phones":"+255222666655","fax":"+255222668844","email":"reservations@colosseumtz.com","url":"http://www.colosseumtz.com/","countryIso2":"TZ","countryName":"Tanzania","hotelRating":"4","latitude":"-6.77024","longitude":"39.2752","state_id":null,"state_name":null,"country_id":null},{"active":false,"Giataid":"233797","cityId":null,"cityName":"Dar-es-Salaam","hotelId":233797,"hotelName":"Livingstone Hotel","address":"Livingstone/Amani Street,Kariakoo,42771 Dar es Salaam,Tanzania","phones":"+255222181462","fax":"","email":"royalmirage@raha.com","url":"http://www.royalmiragetz.com/","countryIso2":"TZ","countryName":"Tanzania","hotelRating":"3","latitude":"-6.81582","longitude":"39.2765","state_id":null,"state_name":null,"country_id":null},{"active":false,"Giataid":"234462","cityId":65155,"cityName":"Paje","hotelId":234462,"hotelName":"Dhown Inn","address":"Paje,Zanzibar Island,Tanzania","phones":"+255777525828","fax":"","email":"info@dhowinn.com","url":"http://www.dhowinn.com","countryIso2":"TZ","countryName":"Tanzania","hotelRating":"4","latitude":"-6.26276","longitude":"39.5355","state_id":2821,"state_name":"Anjouan","country_id":49},{"active":false,"Giataid":"234469","cityId":65155,"cityName":"Paje","hotelId":234469,"hotelName":"Paje by Night","address":"Paje,Zanzibar Island,Tanzania","phones":"+255777460710","fax":"","email":"info@pajebynight.net","url":"http://www.pajebynight.net/","countryIso2":"TZ","countryName":"Tanzania","hotelRating":"3","latitude":"-6.26881","longitude":"39.5351","state_id":2821,"state_name":"Anjouan","country_id":49},{"active":false,"Giataid":"235087","cityId":null,"cityName":"Mangapwani","hotelId":235087,"hotelName":"Sea Cliff Resort & Spa","address":"Kama Village,Mangapwani,P.O.Box 1763,Zanzibar,Tanzania","phones":"+2557677022419","fax":"","email":"gm@seacliffzanzibar.com","url":"http://www.seacliffzanzibar.com/","countryIso2":"TZ","countryName":"Tanzania","hotelRating":"4","latitude":"-6.03621","longitude":"39.2056","state_id":null,"state_name":null,"country_id":null},{"active":false,"Giataid":"236573","cityId":null,"cityName":"Uroa","hotelId":236573,"hotelName":"Uroa Bay Beach Resort","address":"P.O. Box 2675,Uroa,Zanzibar,Tanzania","phones":"+255778672809","fax":"","email":"info@uroabay.com","url":"http://www.uroabay.com/eng/zanzibar_vacancy.htm","countryIso2":"TZ","countryName":"Tanzania","hotelRating":"4","latitude":"-6.09725","longitude":"39.4254","state_id":null,"state_name":null,"country_id":null},{"active":false,"Giataid":"238321","cityId":null,"cityName":"Kizimkazi","hotelId":238321,"hotelName":"The Residence Zanzibar","address":"Mchamgamle,Kizimkazi,PO Box 2404,Zanzibar,Tanzania","phones":"+255245555000","fax":"+255245555001","email":"info-zanzibar@theresidence.com","url":"http://www.theresidence.com/zanzibar/default-en.html","countryIso2":"TZ","countryName":"Tanzania","hotelRating":"5","latitude":"-6.44973","longitude":"39.4709","state_id":null,"state_name":null,"country_id":null},{"active":false,"Giataid":"238322","cityId":109261,"cityName":"Nungwi","hotelId":238322,"hotelName":"Essque Zalu Zanzibar","address":"PO Box 3151,Zanzibar,Tanzania","phones":"+255773601799","fax":"","email":"sales@essquehotels.com","url":"http://www.essquehotels.com/essque-zalu-zanzibar.html","countryIso2":"TZ","countryName":"Tanzania","hotelRating":"5","latitude":"-5.72911","longitude":"39.3114","state_id":1473,"state_name":"Zanzibar North","country_id":218},{"active":false,"Giataid":"238506","cityId":null,"cityName":"Dar-es-Salaam","hotelId":238506,"hotelName":"Holiday Inn Dar es Salam","address":"Azikiwe Street/Upanga Road Jct.,P.O.Box 3222,Dar Es Salaam,Tanzania","phones":"+255222139250","fax":"+255222139260","email":"","url":"http://www.holidayinn.com/hotels/us/en/dar-es-salaam/desas/hoteldetail","countryIso2":"TZ","countryName":"Tanzania","hotelRating":"3","latitude":"-6.81538","longitude":"39.2884","state_id":null,"state_name":null,"country_id":null},{"active":false,"Giataid":"238821","cityId":null,"cityName":"Kendwa","hotelId":238821,"hotelName":"Gold Zanzibar Beach House & Spa","address":"Kendwa Beach,Kendwa,Zanzibar,Tanzania","phones":"+255779700005","fax":"","email":"info@goldzanzibar.com","url":"http://www.goldzanzibar.com/","countryIso2":"TZ","countryName":"Tanzania","hotelRating":"5","latitude":"-5.75248","longitude":"39.2901","state_id":null,"state_name":null,"country_id":null},{"active":false,"Giataid":"244349","cityId":null,"cityName":"Dar-es-Salaam","hotelId":244349,"hotelName":"Blue Pearl","address":"Morogoro Road,P.O.Box 4868,Ubungo Plaza,Dar es Salaam,Tanzania","phones":"+255222461130","fax":"","email":"info@bluepearlhoteltz.com","url":"http://www.bluepearlhoteltz.com/","countryIso2":"TZ","countryName":"Tanzania","hotelRating":"3","latitude":"-6.79446","longitude":"39.2153","state_id":null,"state_name":null,"country_id":null},{"active":false,"Giataid":"202035","cityId":null,"cityName":"Selous Game Reserve","hotelId":247121,"hotelName":"Selous Serena Camp","address":"Selous Game Reserve,Selous-Wildreservat,Tanzania","phones":"+255272545555","fax":"+255272545368","email":"selous@serena.co.tz","url":"http://www.serenahotels.com/serenaselous/default-en.html","countryIso2":"TZ","countryName":"Tanzania","hotelRating":"5","latitude":"-7.78913","longitude":"37.8532","state_id":null,"state_name":null,"country_id":null},{"active":false,"Giataid":"247125","cityId":null,"cityName":"Stone Town","hotelId":247125,"hotelName":"Mashariki Palace","address":"Shangani,Stone Town,Tanzania","phones":"+255242237232","fax":"+255242237235","email":"info@masharikipalacehotel.com","url":"http://www.masharikipalacehotel.com/","countryIso2":"TZ","countryName":"Tanzania","hotelRating":"4","latitude":"-6.16072","longitude":"39.1907","state_id":null,"state_name":null,"country_id":null},{"active":false,"Giataid":"249877","cityId":null,"cityName":"Karatu District","hotelId":249877,"hotelName":"Neptune Ngorongoro Luxury Lodge","address":"Ngorongoro Conservation Area,P.O. Box 6222,Karatu,Arusha,Tanzania","phones":"+255736502496","fax":"","email":"info.ngoro@exploreans.com","url":"http://ngorongorolodge.exploreans.com/","countryIso2":"TZ","countryName":"Tanzania","hotelRating":"5","latitude":"-3.30411","longitude":"35.5906","state_id":null,"state_name":null,"country_id":null},{"active":false,"Giataid":"291728","cityId":65155,"cityName":"Paje","hotelId":291728,"hotelName":"Savanna And Ocean","address":"","phones":"","fax":"","email":"","url":"","countryIso2":"TZ","countryName":"Tanzania","hotelRating":"1","latitude":"-6.24673","longitude":"39.5317","state_id":2821,"state_name":"Anjouan","country_id":49},{"active":false,"Giataid":"292100","cityId":null,"cityName":"Stone Town","hotelId":292100,"hotelName":"Golden Tulip Zanzibar Boutique Hotel","address":"Malindi Road,P.O. Box 271,Stonetown,Zanzibar,Tanzania","phones":"+255242235368","fax":"","email":"bookings@zanzibargrandpalace.com","url":"http://zanzibargrandpalace.com","countryIso2":"TZ","countryName":"Tanzania","hotelRating":"4","latitude":"-6.15743","longitude":"39.1938","state_id":null,"state_name":null,"country_id":null},{"active":false,"Giataid":"292259","cityId":null,"cityName":"Zanzibar City","hotelId":292259,"hotelName":"Shangani","address":"Kenyatta Road","phones":"","fax":"","email":"","url":"","countryIso2":"TZ","countryName":"Tanzania","hotelRating":"3","latitude":"-6.16296","longitude":"39.1877","state_id":null,"state_name":null,"country_id":null},{"active":false,"Giataid":"323307","cityId":null,"cityName":"Bwejuu","hotelId":323307,"hotelName":"White Beach","address":"","phones":"+255719326441","fax":"","email":"","url":"","countryIso2":"TZ","countryName":"Tanzania","hotelRating":"3","latitude":"-6.23681","longitude":"39.5298","state_id":null,"state_name":null,"country_id":null},{"active":false,"Giataid":"323308","cityId":null,"cityName":"Bwejuu","hotelId":323308,"hotelName":"Andy's Karibuni Romantic Garden","address":"","phones":"","fax":"","email":"","url":"","countryIso2":"TZ","countryName":"Tanzania","hotelRating":"1","latitude":"-6.21289","longitude":"39.5327","state_id":null,"state_name":null,"country_id":null},{"active":false,"Giataid":"323309","cityId":null,"cityName":"Bwejuu","hotelId":323309,"hotelName":"Echo Beach","address":"","phones":"+255773593260","fax":"","email":"","url":"","countryIso2":"TZ","countryName":"Tanzania","hotelRating":"1","latitude":"-6.13594","longitude":"39.4225","state_id":null,"state_name":null,"country_id":null},{"active":false,"Giataid":"365506","cityId":109261,"cityName":"Nungwi","hotelId":363773,"hotelName":"The Z","address":"Nungwi Beach,Nungwi,Zanzibar,Tanzania","phones":"+255774266266","fax":"+255732940171","email":"info@thezhotel.com","url":"http://www.thezhotel.com/","countryIso2":"TZ","countryName":"Tanzania","hotelRating":"4","latitude":"-5.7309","longitude":"39.2919","state_id":1473,"state_name":"Zanzibar North","country_id":218},{"active":false,"Giataid":"369359","cityId":null,"cityName":"Dar-es-Salaam","hotelId":369359,"hotelName":"Giraffe Ocean View","address":"169 Monduli Road,Dar Es Salaam,Tanzania","phones":"+255222647870","fax":"","email":"","url":"","countryIso2":"TZ","countryName":"Tanzania","hotelRating":"1","latitude":"-6.69517","longitude":"39.2254","state_id":null,"state_name":null,"country_id":null},{"active":false,"Giataid":"369362","cityId":null,"cityName":"Dar-es-Salaam","hotelId":369362,"hotelName":"Selous Wilderness Camp","address":"","phones":"","fax":"","email":"","url":"","countryIso2":"TZ","countryName":"Tanzania","hotelRating":"1","latitude":"-6.79491","longitude":"39.2553","state_id":null,"state_name":null,"country_id":null},{"active":false,"Giataid":"369364","cityId":null,"cityName":"Lake Tanganyika","hotelId":369364,"hotelName":"Gombe Forest Lodge","address":"","phones":"","fax":"","email":"","url":"","countryIso2":"TZ","countryName":"Tanzania","hotelRating":"1","latitude":"-4.97984","longitude":"29.6161","state_id":null,"state_name":null,"country_id":null},{"active":false,"Giataid":"370853","cityId":67979,"cityName":"Mwanza","hotelId":370853,"hotelName":"Isamilo Lodge & Spa","address":"Isamilo Road,Isamilo Hills,PO Box 3195,Mwanza,Tanzania","phones":"+255282541627","fax":"","email":"","url":"","countryIso2":"TZ","countryName":"Tanzania","hotelRating":"3","latitude":"-2.50739","longitude":"32.9127","state_id":3106,"state_name":"Southern Region","country_id":131},{"active":false,"Giataid":"372046","cityId":65155,"cityName":"Paje","hotelId":372046,"hotelName":"Dongwe Ocean View","address":"Michamvi Pingwe,P.O. Box 4242,Paje,Dongwe,Zanzibar,Tanzania","phones":"+255777835515","fax":"","email":"","url":"http://www.dongweoceanview.com/pubblico","countryIso2":"TZ","countryName":"Tanzania","hotelRating":"3","latitude":"-6.18483","longitude":"39.5322","state_id":2821,"state_name":"Anjouan","country_id":49},{"active":false,"Giataid":"372047","cityId":65155,"cityName":"Paje","hotelId":372047,"hotelName":"Kichanga Lodge","address":"Michamvi Pingwe","phones":"","fax":"","email":"","url":"","countryIso2":"TZ","countryName":"Tanzania","hotelRating":"3","latitude":"-6.13141","longitude":"39.5111","state_id":2821,"state_name":"Anjouan","country_id":49},{"active":false,"Giataid":"372050","cityId":65155,"cityName":"Paje","hotelId":372050,"hotelName":"Swahili Beach Resort","address":"255 Mkunguni","phones":"","fax":"","email":"","url":"","countryIso2":"TZ","countryName":"Tanzania","hotelRating":"3","latitude":"-6.4752","longitude":"39.4965","state_id":2821,"state_name":"Anjouan","country_id":49},{"active":false,"Giataid":"372051","cityId":65155,"cityName":"Paje","hotelId":372051,"hotelName":"Utalii Beach Resort And Spa","address":"","phones":"","fax":"","email":"","url":"","countryIso2":"TZ","countryName":"Tanzania","hotelRating":"4","latitude":"-6.14331","longitude":"39.4897","state_id":2821,"state_name":"Anjouan","country_id":49},{"active":false,"Giataid":"372052","cityId":null,"cityName":"Jambiani","hotelId":372052,"hotelName":"Visitor Inn","address":"P.O. Box 1856,Jambiani,Unguja,Tanzania","phones":"","fax":"","email":"","url":"","countryIso2":"TZ","countryName":"Tanzania","hotelRating":"1","latitude":"-6.24673","longitude":"39.5317","state_id":null,"state_name":null,"country_id":null},{"active":false,"Giataid":"372052","cityId":null,"cityName":"Jambiani","hotelId":372052,"hotelName":"Visitor Inn","address":"P.O. Box 1856,Jambiani,Unguja,Tanzania","phones":"","fax":"","email":"","url":"","countryIso2":"TZ","countryName":"Tanzania","hotelRating":"1","latitude":"-6.24673","longitude":"39.5317","state_id":null,"state_name":null,"country_id":null},{"active":false,"Giataid":"373455","cityId":null,"cityName":"Zanzibar City","hotelId":373455,"hotelName":"Sunset Bay","address":"","phones":"","fax":"","email":"","url":"","countryIso2":"TZ","countryName":"Tanzania","hotelRating":"1","latitude":"-6.15584","longitude":"39.2478","state_id":null,"state_name":null,"country_id":null},{"active":false,"Giataid":"391626","cityId":109209,"cityName":"Moshi","hotelId":391626,"hotelName":"Marangu","address":"PO Box 40,Moshi,Tanzania","phones":"+255272756594","fax":"+255272756591","email":"info@maranguhotel.com","url":"http://www.maranguhotel.com/marangu/","countryIso2":"TZ","countryName":"Tanzania","hotelRating":"1","latitude":"-3.29646","longitude":"37.5254","state_id":1467,"state_name":"Kilimanjaro","country_id":218},{"active":false,"Giataid":"391666","cityId":null,"cityName":"Serengeti National Park","hotelId":391666,"hotelName":"Ikoma Tented Camp - Serengeti","address":"Robanda Village,Serengeti National Park,Tanzania,Tanzania","phones":"+255272506315","fax":"","email":"","url":"http://www.ikomasafaricamp.com/home.html","countryIso2":"TZ","countryName":"Tanzania","hotelRating":"1","latitude":"-2.17628","longitude":"34.7114","state_id":null,"state_name":null,"country_id":null},{"active":false,"Giataid":"391678","cityId":null,"cityName":"Ngorongoro Conservation Area","hotelId":391678,"hotelName":"Lake Natron Tented Camp","address":"Next to Lake Natron,Ngorongoro-Naturschutzgebiet,Mtowabaga,Tanzania","phones":"+255272506315","fax":"","email":"","url":"http://moivaro.com/lodges/tanzania/lake-natron-tented-camp/","countryIso2":"TZ","countryName":"Tanzania","hotelRating":"1","latitude":"-2.83365","longitude":"35.6804","state_id":null,"state_name":null,"country_id":null},{"active":false,"Giataid":"391688","cityId":null,"cityName":"Serengeti National Park","hotelId":391688,"hotelName":"Ndutu Under Canvas Safari Camp","address":"Serengeti National Park,Tanzania","phones":"+255785069944","fax":"","email":"info@twctanzania.com","url":"http://twctanzania.com/eccommodation/ndutu-under-canvas/","countryIso2":"TZ","countryName":"Tanzania","hotelRating":"1","latitude":"-2.34705","longitude":"34.8292","state_id":null,"state_name":null,"country_id":null},{"active":false,"Giataid":"391690","cityId":109065,"cityName":"Dodoma","hotelId":391690,"hotelName":"New Dodoma","address":"Opposite Dodoma Railway Station,Plot No. 459 Dodoma Municipality,P.O.Box 239,Dodoma,Tanzania","phones":"+255262321641","fax":"+255262321641","email":"info@newdodomahotel.com","url":"http://www.newdodomahotel.com/","countryIso2":"TZ","countryName":"Tanzania","hotelRating":"4","latitude":"-6.18487","longitude":"35.7489","state_id":1466,"state_name":"Dodoma","country_id":218},{"active":false,"Giataid":"391695","cityId":null,"cityName":"Kipili","hotelId":391695,"hotelName":"Lake Shore Lodge","address":"Lake Tanganyika,Near Kipili Village,Rukwa,448 Sumbawanga,Tanzania","phones":"+255684540792","fax":"","email":"info@lakeshoretz.com","url":"http://lakeshoretz.com/","countryIso2":"TZ","countryName":"Tanzania","hotelRating":"1","latitude":"-7.43426","longitude":"30.5907","state_id":null,"state_name":null,"country_id":null},{"active":false,"Giataid":"391712","cityId":null,"cityName":"Jambiani","hotelId":391712,"hotelName":"Bahari View Lodge","address":"Jambiani Road,Jambiani,Sansibar,Tanzania","phones":"","fax":"","email":"","url":"http://www.african-view.com/deutsch/lodges/bahari-view-lodge/bahari-view-lodge.html","countryIso2":"TZ","countryName":"Tanzania","hotelRating":"1","latitude":"-6.29907","longitude":"39.5417","state_id":null,"state_name":null,"country_id":null},{"active":false,"Giataid":"391707","cityId":null,"cityName":"Serengeti National Park","hotelId":391707,"hotelName":"Robanda Tented Camp","address":"Robanda,Serengeti Nationalpark,Tanzania","phones":"+255272506315","fax":"","email":"","url":"http://www.robanda-safari-camp.com/","countryIso2":"TZ","countryName":"Tanzania","hotelRating":"1","latitude":"-2.13757","longitude":"34.6946","state_id":null,"state_name":null,"country_id":null},{"active":false,"Giataid":"391712","cityId":null,"cityName":"Jambiani","hotelId":391712,"hotelName":"Bahari View Lodge","address":"Jambiani Road,Jambiani,Sansibar,Tanzania","phones":"","fax":"","email":"","url":"http://www.african-view.com/deutsch/lodges/bahari-view-lodge/bahari-view-lodge.html","countryIso2":"TZ","countryName":"Tanzania","hotelRating":"1","latitude":"-6.29907","longitude":"39.5417","state_id":null,"state_name":null,"country_id":null},{"active":false,"Giataid":"391716","cityId":null,"cityName":"Saadani National Park","hotelId":391716,"hotelName":"Kisampa Camp","address":"","phones":"","fax":"","email":"","url":"","countryIso2":"TZ","countryName":"Tanzania","hotelRating":"1","latitude":"-6.0001","longitude":"38.7578","state_id":null,"state_name":null,"country_id":null},{"active":false,"Giataid":"391726","cityId":109285,"cityName":"Soni","hotelId":391726,"hotelName":"Maweni Farm","address":"Lushoto,PO Box 6,Soni,Tanzania","phones":"+255787279371","fax":"","email":"maweni@gmail.com","url":"http://www.maweni.com/","countryIso2":"TZ","countryName":"Tanzania","hotelRating":"1","latitude":"-4.86315","longitude":"38.3774","state_id":1487,"state_name":"Tanga","country_id":218},{"active":false,"Giataid":"391745","cityId":null,"cityName":"Karatu District","hotelId":391745,"hotelName":"Kitela Lodge","address":"NULL","phones":"+255785069944","fax":"","email":"info@twctanzania.com","url":"http://twctanzania.com/eccommodation/kitela-lodge/","countryIso2":"TZ","countryName":"Tanzania","hotelRating":"3","latitude":"-3.3386","longitude":"35.6581","state_id":null,"state_name":null,"country_id":null},{"active":false,"Giataid":"391749","cityId":null,"cityName":"Serengeti National Park","hotelId":391749,"hotelName":"Kenzan Luxury Mobile Camp","address":"Serengeti National Park,Tanzania","phones":"+255754497379","fax":"","email":"info@kenzanluxurycamp.com","url":"http://www.kenzanluxurycamp.com","countryIso2":"TZ","countryName":"Tanzania","hotelRating":"1","latitude":"-2.33333","longitude":"34.8333","state_id":null,"state_name":null,"country_id":null},{"active":false,"Giataid":"391757","cityId":null,"cityName":"Stone Town","hotelId":391757,"hotelName":"Jafferji House And Spa","address":"170 Gizenga Street,P.O. Box 3181,Stone Town,Zanzibar,Tanzania","phones":"+255774078441","fax":"","email":"info@jafferjihouse.net","url":"http://www.jafferjihouse.net","countryIso2":"TZ","countryName":"Tanzania","hotelRating":"4","latitude":"-6.16231","longitude":"39.1888","state_id":null,"state_name":null,"country_id":null},{"active":false,"Giataid":"391750","cityId":null,"cityName":"Tarangire National Park","hotelId":391750,"hotelName":"Whistling Thorn Tented Camp","address":"Tarangire National Park,Tanzania","phones":"","fax":"","email":"","url":"","countryIso2":"TZ","countryName":"Tanzania","hotelRating":"1","latitude":"-3.99991","longitude":"36","state_id":null,"state_name":null,"country_id":null},{"active":false,"Giataid":"391798","cityId":null,"cityName":"Sinoni","hotelId":391798,"hotelName":"Serengeti Mobile - Kusini","address":"Kusini,Sinoni,Serengeti National Park,Tanzania","phones":"","fax":"","email":"","url":"","countryIso2":"TZ","countryName":"Tanzania","hotelRating":"1","latitude":"-2.85852","longitude":"34.9145","state_id":null,"state_name":null,"country_id":null},{"active":false,"Giataid":"407719","cityId":null,"cityName":"Kilimani","hotelId":407719,"hotelName":"Zanzibar Ocean View Beach Resort","address":"Kilimani,Zanzibar,Tanzania","phones":"+255242233882","fax":"+255242233883","email":"info@zanzibaroceanview.com","url":"http://zanzibaroceanview.com/accomodation.html","countryIso2":"TZ","countryName":"Tanzania","hotelRating":"1","latitude":"-6.20341","longitude":"39.2077","state_id":null,"state_name":null,"country_id":null},{"active":false,"Giataid":"416365","cityId":null,"cityName":"Matemwe Beach","hotelId":416365,"hotelName":"Matemwe Retreat","address":"near Mnemba Atoll,Matemwe Beach,Northeastern Coast,Zanzibar Island,Tanzania","phones":"+255736500515","fax":"","email":"reservations@asiliaafrica.com","url":"http://www.asiliaafrica.com/east-africa-safari/zanzibar/matemwe/matemwe-retreat/","countryIso2":"TZ","countryName":"Tanzania","hotelRating":"5","latitude":"-5.8438","longitude":"39.357","state_id":null,"state_name":null,"country_id":null},{"active":false,"Giataid":"416366","cityId":null,"cityName":"Matemwe Beach","hotelId":416366,"hotelName":"Matemwe Beach House","address":"North East Coast","phones":"","fax":"","email":"","url":"","countryIso2":"TZ","countryName":"Tanzania","hotelRating":"1","latitude":"-5.87028","longitude":"39.3525","state_id":null,"state_name":null,"country_id":null},{"active":false,"Giataid":"418677","cityId":null,"cityName":"Matemwe Beach","hotelId":418677,"hotelName":"Che Che Vule","address":"Matemwe Beach,Zanzibar,Tanzania","phones":"+255778919525","fax":"","email":"reservations@moivarosouth.com","url":"http://moivaro.com/lodges/zanzibar/che-che-vule/","countryIso2":"TZ","countryName":"Tanzania","hotelRating":"3","latitude":"-5.84937","longitude":"39.3562","state_id":null,"state_name":null,"country_id":null},{"active":false,"Giataid":"427932","cityId":null,"cityName":"Uroa","hotelId":427932,"hotelName":"Zanzibar Safari Club","address":"","phones":"","fax":"","email":"","url":"","countryIso2":"TZ","countryName":"Tanzania","hotelRating":"4","latitude":"-6.11044","longitude":"39.4263","state_id":null,"state_name":null,"country_id":null},{"active":false,"Giataid":"429649","cityId":109261,"cityName":"Nungwi","hotelId":429649,"hotelName":"Zanzibar Star Resort","address":"PO Box 1766,Nungwi,Tanzania","phones":"+255779790089","fax":"","email":"info@zanzibarstarresort.com","url":"http://www.zanzibarstarresort.com","countryIso2":"TZ","countryName":"Tanzania","hotelRating":"3","latitude":"-5.7312","longitude":"39.2926","state_id":1473,"state_name":"Zanzibar North","country_id":218},{"active":false,"Giataid":"429897","cityId":null,"cityName":"Serengeti National Park","hotelId":429897,"hotelName":"Sanctuary Serengeti Migration Camp","address":"Serengeti National Park,Tanzania","phones":"","fax":"","email":"","url":"http://www.sanctuaryretreats.com/tanzania-camps-serengeti-migration-camp","countryIso2":"TZ","countryName":"Tanzania","hotelRating":"4","latitude":"-3.03608","longitude":"34.7102","state_id":null,"state_name":null,"country_id":null},{"active":false,"Giataid":"429934","cityId":null,"cityName":"Ngorongoro Conservation Area","hotelId":429934,"hotelName":"Sanctuary Ngorongoro Crater Camp","address":"NULL","phones":"","fax":"","email":"","url":"http://www.sanctuaryretreats.com/tanzania-camps-ngorongoro-crater-camp","countryIso2":"TZ","countryName":"Tanzania","hotelRating":"4","latitude":"-3.23963","longitude":"35.4966","state_id":null,"state_name":null,"country_id":null},{"active":false,"Giataid":"429969","cityId":null,"cityName":"Serengeti National Park","hotelId":429969,"hotelName":"Namiri Plains Camp","address":"","phones":"","fax":"","email":"","url":"","countryIso2":"TZ","countryName":"Tanzania","hotelRating":"4","latitude":"-2.28939","longitude":"34.8013","state_id":null,"state_name":null,"country_id":null},{"active":false,"Giataid":"430108","cityId":null,"cityName":"Serengeti National Park","hotelId":430108,"hotelName":"Kimondo Camp","address":"","phones":"","fax":"","email":"","url":"","countryIso2":"TZ","countryName":"Tanzania","hotelRating":"4","latitude":"-2.28939","longitude":"34.8013","state_id":null,"state_name":null,"country_id":null},{"active":false,"Giataid":"430109","cityId":null,"cityName":"Tarangire National Park","hotelId":430109,"hotelName":"Little Chem Chem","address":"","phones":"","fax":"","email":"","url":"","countryIso2":"TZ","countryName":"Tanzania","hotelRating":"4","latitude":"-3.91188","longitude":"35.9973","state_id":null,"state_name":null,"country_id":null},{"active":false,"Giataid":"431225","cityId":109209,"cityName":"Moshi","hotelId":431225,"hotelName":"Parkview Inn","address":"Aga Khan Road,P.O. Box 373,Moshi,Kilimanjaro,Tanzania","phones":"","fax":"","email":"","url":"","countryIso2":"TZ","countryName":"Tanzania","hotelRating":"3","latitude":"-3.34918","longitude":"37.3405","state_id":1467,"state_name":"Kilimanjaro","country_id":218},{"active":false,"Giataid":"434529","cityId":null,"cityName":"Selous Game Reserve","hotelId":434529,"hotelName":"Zarafa Tented Camp","address":"","phones":"","fax":"","email":"","url":"","countryIso2":"TZ","countryName":"Tanzania","hotelRating":"2","latitude":"-7.75176","longitude":"38.0381","state_id":null,"state_name":null,"country_id":null},{"active":false,"Giataid":"460415","cityId":null,"cityName":"Matemwe Beach","hotelId":460415,"hotelName":"Panga Chumvi Beach Resort","address":"Matemwe","phones":"","fax":"","email":"","url":"","countryIso2":"TZ","countryName":"Tanzania","hotelRating":"3","latitude":"-5.88785","longitude":"39.3532","state_id":null,"state_name":null,"country_id":null},{"active":false,"Giataid":"460463","cityId":null,"cityName":"Chuini Ruins/Bububu","hotelId":460463,"hotelName":"Imani Beach Villa","address":"Off Malawi Road","phones":"","fax":"","email":"","url":"","countryIso2":"TZ","countryName":"Tanzania","hotelRating":"1","latitude":"-6.09831","longitude":"39.2159","state_id":null,"state_name":null,"country_id":null},{"active":false,"Giataid":"460477","cityId":67979,"cityName":"Mwanza","hotelId":460477,"hotelName":"Gold Crest Hotel","address":"PPF Building, Kenyatta Road","phones":"","fax":"","email":"","url":"","countryIso2":"TZ","countryName":"Tanzania","hotelRating":"1","latitude":"-2.51947","longitude":"32.8989","state_id":3106,"state_name":"Southern Region","country_id":131},{"active":false,"Giataid":"460551","cityId":109208,"cityName":"Morogoro","hotelId":460551,"hotelName":"Arc Hotel","address":"Off The Old Dar es Salaam Road,Morogoro,Tanzania","phones":"","fax":"","email":"","url":"","countryIso2":"TZ","countryName":"Tanzania","hotelRating":"1","latitude":"-6.80944","longitude":"37.6947","state_id":1470,"state_name":"Morogoro","country_id":218},{"active":false,"Giataid":"460650","cityId":null,"cityName":"Dar-es-Salaam","hotelId":460650,"hotelName":"Hotel Continental","address":"","phones":"","fax":"","email":"","url":"","countryIso2":"TZ","countryName":"Tanzania","hotelRating":"2","latitude":"-6.82389","longitude":"39.2819","state_id":null,"state_name":null,"country_id":null},{"active":false,"Giataid":"460699","cityId":null,"cityName":"Dar-es-Salaam","hotelId":460699,"hotelName":"Marriotti Hotel Dar es Salaam","address":"","phones":"","fax":"","email":"","url":"","countryIso2":"TZ","countryName":"Tanzania","hotelRating":"3","latitude":"-6.80517","longitude":"39.2135","state_id":null,"state_name":null,"country_id":null},{"active":false,"Giataid":"460778","cityId":null,"cityName":"Zanzibar City","hotelId":460778,"hotelName":"Warere Town House","address":"Malindi Rd","phones":"","fax":"","email":"","url":"","countryIso2":"TZ","countryName":"Tanzania","hotelRating":"1","latitude":"-6.15659","longitude":"39.1951","state_id":null,"state_name":null,"country_id":null},{"active":false,"Giataid":"460786","cityId":null,"cityName":"Zanzibar City","hotelId":460786,"hotelName":"Mangrove Lodge","address":"Mawimbini Beach,Chuini,Zanzibar City,Tanzania","phones":"","fax":"","email":"","url":"","countryIso2":"TZ","countryName":"Tanzania","hotelRating":"1","latitude":"-6.07466","longitude":"39.2127","state_id":null,"state_name":null,"country_id":null},{"active":false,"Giataid":"460862","cityId":null,"cityName":"Zanzibar City","hotelId":460862,"hotelName":"Five Star Lodge","address":"","phones":"","fax":"","email":"","url":"","countryIso2":"TZ","countryName":"Tanzania","hotelRating":"1","latitude":"-6.16211","longitude":"39.1953","state_id":null,"state_name":null,"country_id":null},{"active":false,"Giataid":"460863","cityId":null,"cityName":"Zanzibar City","hotelId":460863,"hotelName":"Funguni Palace Hotel","address":"Funguni Street,Malindi,Zanzibar City,Tanzania","phones":"","fax":"","email":"","url":"","countryIso2":"TZ","countryName":"Tanzania","hotelRating":"1","latitude":"-6.15667","longitude":"39.1952","state_id":null,"state_name":null,"country_id":null},{"active":false,"Giataid":"460871","cityId":65155,"cityName":"Paje","hotelId":460871,"hotelName":"Panorama Sea View","address":"","phones":"","fax":"","email":"","url":"","countryIso2":"TZ","countryName":"Tanzania","hotelRating":"2","latitude":"-6.26496","longitude":"39.533","state_id":2821,"state_name":"Anjouan","country_id":49},{"active":false,"Giataid":"460889","cityId":null,"cityName":"Kizimkazi","hotelId":460889,"hotelName":"Promised Land Lodge","address":"Kizimkazi-Zanzibar","phones":"","fax":"","email":"","url":"","countryIso2":"TZ","countryName":"Tanzania","hotelRating":"1","latitude":"-6.44595","longitude":"39.4674","state_id":null,"state_name":null,"country_id":null},{"active":false,"Giataid":"461004","cityId":null,"cityName":"Kiwengwa Beach","hotelId":461004,"hotelName":"Bahati Villa","address":"Kiwengwa Beach,Kiwengwa,Tanzania","phones":"+255774233331","fax":"","email":"info@bahativilla.net","url":"http://www.bahativilla.net/","countryIso2":"TZ","countryName":"Tanzania","hotelRating":"3","latitude":"-5.98255","longitude":"39.3755","state_id":null,"state_name":null,"country_id":null},{"active":false,"Giataid":"461013","cityId":null,"cityName":"Arusha National Park","hotelId":461013,"hotelName":"Rich Hotel","address":"14 Market Street,Arusha,Tanzania","phones":"","fax":"","email":"","url":"","countryIso2":"TZ","countryName":"Tanzania","hotelRating":"3","latitude":"-3.37197","longitude":"36.6862","state_id":null,"state_name":null,"country_id":null},{"active":false,"Giataid":"461014","cityId":109208,"cityName":"Morogoro","hotelId":461014,"hotelName":"Morogoro Hotel","address":"Rwegasore Road, Forest Area","phones":"","fax":"","email":"","url":"","countryIso2":"TZ","countryName":"Tanzania","hotelRating":"1","latitude":"-6.83476","longitude":"37.672","state_id":1470,"state_name":"Morogoro","country_id":218},{"active":false,"Giataid":"461064","cityId":null,"cityName":"Jambiani","hotelId":461064,"hotelName":"Jambiani Beach Hotel","address":"Jambiani Beach,Jambiani,Tanzania","phones":"","fax":"","email":"","url":"","countryIso2":"TZ","countryName":"Tanzania","hotelRating":"1","latitude":"-6.30018","longitude":"39.5386","state_id":null,"state_name":null,"country_id":null},{"active":false,"Giataid":"461168","cityId":null,"cityName":"Uroa","hotelId":461168,"hotelName":"Kaure Sand Beach Lodge","address":"","phones":"","fax":"","email":"","url":"","countryIso2":"TZ","countryName":"Tanzania","hotelRating":"1","latitude":"-6.09693","longitude":"39.4253","state_id":null,"state_name":null,"country_id":null},{"active":false,"Giataid":"461169","cityId":109261,"cityName":"Nungwi","hotelId":461169,"hotelName":"Casa Umoja","address":"PO Box 3796,Nungwi,Zanzibar,Tanzania","phones":"","fax":"","email":"","url":"","countryIso2":"TZ","countryName":"Tanzania","hotelRating":"1","latitude":"-5.73214","longitude":"39.2947","state_id":1473,"state_name":"Zanzibar North","country_id":218},{"active":false,"Giataid":"461179","cityId":67979,"cityName":"Mwanza","hotelId":461179,"hotelName":"The Pigeon Hotel","address":"","phones":"","fax":"","email":"","url":"","countryIso2":"TZ","countryName":"Tanzania","hotelRating":"1","latitude":"-2.5185","longitude":"32.9067","state_id":3106,"state_name":"Southern Region","country_id":131},{"active":false,"Giataid":"461221","cityId":109208,"cityName":"Morogoro","hotelId":461221,"hotelName":"Kingsway Hotel Morogoro","address":"","phones":"","fax":"","email":"","url":"","countryIso2":"TZ","countryName":"Tanzania","hotelRating":"1","latitude":"-6.82037","longitude":"37.6624","state_id":1470,"state_name":"Morogoro","country_id":218},{"active":false,"Giataid":"461228","cityId":109289,"cityName":"Tanga","hotelId":461228,"hotelName":"Central City Hotel LTD","address":"","phones":"","fax":"","email":"","url":"","countryIso2":"TZ","countryName":"Tanzania","hotelRating":"1","latitude":"-5.07825","longitude":"39.1021","state_id":1487,"state_name":"Tanga","country_id":218},{"active":false,"Giataid":"482917","cityId":null,"cityName":"Pwani Mchangani","hotelId":482917,"hotelName":"Garden Palms","address":"Pwani Mchangani,Tanzania","phones":"+255777771000","fax":"","email":"biuro@gardenpalms.pl","url":"http://www.gardenpalms.pl/","countryIso2":"TZ","countryName":"Tanzania","hotelRating":"1","latitude":"-5.92728","longitude":"39.3593","state_id":null,"state_name":null,"country_id":null},{"active":false,"Giataid":"485419","cityId":109042,"cityName":"Arusha","hotelId":485419,"hotelName":"Nejobugg Palace Hotel","address":"Baraa district near River Nduruma(Kwa Mrefu),Arusha,Tanzania","phones":"+255756710000","fax":"","email":"info@nejobuggpalacehotel.com","url":"http://www.nejobuggpalacehotel.com/","countryIso2":"TZ","countryName":"Tanzania","hotelRating":"1","latitude":"-3.37695","longitude":"36.7456","state_id":1491,"state_name":"Arusha","country_id":218},{"active":false,"Giataid":"485805","cityId":null,"cityName":"Pongwe","hotelId":485805,"hotelName":"Queen of Sheba Beach Lodge","address":"Pongwe Village","phones":"","fax":"","email":"","url":"","countryIso2":"TZ","countryName":"Tanzania","hotelRating":"1","latitude":"-6.035","longitude":"39.4074","state_id":null,"state_name":null,"country_id":null},{"active":false,"Giataid":"486298","cityId":109220,"cityName":"Mtwara","hotelId":486298,"hotelName":"BNN Royal Palm Hotel","address":"P.O BOX 1411,Mtwara,Tanzania","phones":"","fax":"","email":"","url":"","countryIso2":"TZ","countryName":"Tanzania","hotelRating":"1","latitude":"-10.2604","longitude":"40.1692","state_id":1476,"state_name":"Mtwara","country_id":218},{"active":false,"Giataid":"486587","cityId":null,"cityName":"Dar-es-Salaam","hotelId":486587,"hotelName":"Sophia House Hotel & Apartment","address":"Bibititi Mohammed Road,Dar es Salaam,Tanzania","phones":"","fax":"","email":"","url":"","countryIso2":"TZ","countryName":"Tanzania","hotelRating":"1","latitude":"-6.81845","longitude":"39.2807","state_id":null,"state_name":null,"country_id":null},{"active":false,"Giataid":"486591","cityId":null,"cityName":"Zanzibar City","hotelId":486591,"hotelName":"Safari Lodge","address":"Karume Road,Malindi,Stone Town,Zanzibar City,Tanzania","phones":"+255242236523","fax":"","email":"info@safarilodgetz.com","url":"http://www.safarilodgetz.com/","countryIso2":"TZ","countryName":"Tanzania","hotelRating":"1","latitude":"-6.16552","longitude":"39.1994","state_id":null,"state_name":null,"country_id":null},{"active":false,"Giataid":"486646","cityId":null,"cityName":"Dar-es-Salaam","hotelId":486646,"hotelName":"Cate Hotel","address":"Msimbazi / Nyamwezi Street,Kariokoo,P. O. Box 22110,Dar es Salaam,Tanzania","phones":"+255222182974","fax":"+255222182975","email":"info@catehotel.co.tz","url":"http://www.catehotel.co.tz/","countryIso2":"TZ","countryName":"Tanzania","hotelRating":"1","latitude":"-6.79491","longitude":"39.2553","state_id":null,"state_name":null,"country_id":null},{"active":false,"Giataid":"487202","cityId":null,"cityName":"Dar-es-Salaam","hotelId":487202,"hotelName":"Valley View Hotel","address":"","phones":"","fax":"","email":"","url":"","countryIso2":"TZ","countryName":"Tanzania","hotelRating":"1","latitude":"-6.818","longitude":"39.2718","state_id":null,"state_name":null,"country_id":null},{"active":false,"Giataid":"491773","cityId":null,"cityName":"Dar-es-Salaam","hotelId":491773,"hotelName":"Pumzika Hotel","address":"","phones":"","fax":"","email":"","url":"","countryIso2":"TZ","countryName":"Tanzania","hotelRating":"3","latitude":"-6.74409","longitude":"39.2371","state_id":null,"state_name":null,"country_id":null},{"active":false,"Giataid":"497926","cityId":null,"cityName":"Jambiani","hotelId":497926,"hotelName":"Bliss Beach Lodge","address":"NULL","phones":"+255772100080","fax":"","email":"blissbeachlodge@gmail.com","url":"http://www.blissbeachlodge.com","countryIso2":"TZ","countryName":"Tanzania","hotelRating":"3","latitude":"-6.31932","longitude":"39.5458","state_id":null,"state_name":null,"country_id":null},{"active":false,"Giataid":"503969","cityId":null,"cityName":"Arusha National Park","hotelId":503969,"hotelName":"Gateway Pension Inn","address":"Levolosi Area,Near Selian Hospital,Arusha,Tanzania","phones":"","fax":"","email":"","url":"","countryIso2":"TZ","countryName":"Tanzania","hotelRating":"1","latitude":"-3.36412","longitude":"36.6824","state_id":null,"state_name":null,"country_id":null},{"active":false,"Giataid":"297117","cityId":null,"cityName":"Zanzibar City","hotelId":509711,"hotelName":"Tausi Palace Hotel","address":"Baghani Street,540 Zanzibar City,Tanzania","phones":"","fax":"","email":"gm@tausihotel.co.tz","url":"http://www.tausihotel.co.tz","countryIso2":"TZ","countryName":"Tanzania","hotelRating":"3","latitude":"-6.16382","longitude":"39.1886","state_id":null,"state_name":null,"country_id":null},{"active":false,"Giataid":"522794","cityId":109261,"cityName":"Nungwi","hotelId":522794,"hotelName":"Sazani Beach Lodge","address":"NULL","phones":"+255776668681","fax":"","email":"bookings@sazanibeach.com","url":"http://sazanibeach.com/","countryIso2":"TZ","countryName":"Tanzania","hotelRating":"3","latitude":"-5.72598","longitude":"39.2959","state_id":1473,"state_name":"Zanzibar North","country_id":218},{"active":false,"Giataid":"529937","cityId":null,"cityName":"Kizimkazi","hotelId":529937,"hotelName":"Zanzibar Garden Villa","address":"NULL","phones":"","fax":"","email":"","url":"","countryIso2":"TZ","countryName":"Tanzania","hotelRating":"4","latitude":"-6.43587","longitude":"39.4615","state_id":null,"state_name":null,"country_id":null},{"active":false,"Giataid":"531592","cityId":null,"cityName":"Kilwa Masoko","hotelId":531592,"hotelName":"Kimbilio Lodge","address":"Tansania  Coast,Kilwa Masoko,Tanzania","phones":"+255656022166","fax":"","email":"","url":"http://www.kimbiliolodges.com","countryIso2":"TZ","countryName":"Tanzania","hotelRating":"1","latitude":"-8.9136","longitude":"39.5165","state_id":null,"state_name":null,"country_id":null},{"active":false,"Giataid":"531946","cityId":109289,"cityName":"Tanga","hotelId":531946,"hotelName":"Tanga Beach Resort","address":"PO Box 2294,Tanga,Tanzania","phones":"+255272645424","fax":"+255272645426","email":"info@tangabeachresort.com","url":"http://www.tangabeachresort.com","countryIso2":"TZ","countryName":"Tanzania","hotelRating":"1","latitude":"-5.07763","longitude":"39.1256","state_id":1487,"state_name":"Tanga","country_id":218},{"active":false,"Giataid":"531949","cityId":null,"cityName":"Kilwa Masoko","hotelId":531949,"hotelName":"Kilwa Pakaya Hotel","address":"Kilwa Masoko,Kilwa Masoko,Tanzania","phones":"+255783789738","fax":"","email":"info@kilwapakayahotel.co.tz","url":"http://www.kilwapakayahotel.co.tz","countryIso2":"TZ","countryName":"Tanzania","hotelRating":"1","latitude":"-8.93029","longitude":"39.5163","state_id":null,"state_name":null,"country_id":null},{"active":false,"Giataid":"531951","cityId":109209,"cityName":"Moshi","hotelId":531951,"hotelName":"Weru Weru River Lodge","address":"855 Moshi,Kilimanjaro,Tanzania","phones":"","fax":"+255272750248","email":"info@weruweruriverlodge.com","url":"http://www.weruweruriverlodge.com/","countryIso2":"TZ","countryName":"Tanzania","hotelRating":"3","latitude":"-3.31474","longitude":"37.262","state_id":1467,"state_name":"Kilimanjaro","country_id":218},{"active":false,"Giataid":"531953","cityId":null,"cityName":"Magu","hotelId":531953,"hotelName":"Ndabaka Lodge","address":"BOX 277,Magu,Tanzania","phones":"+255757550055","fax":"","email":"info@ndabakalodgetz.com","url":"http://www.ndabakalodgetz.com/","countryIso2":"TZ","countryName":"Tanzania","hotelRating":"1","latitude":"0","longitude":"0","state_id":null,"state_name":null,"country_id":null},{"active":false,"Giataid":"532092","cityId":null,"cityName":"Dar-es-Salaam","hotelId":532092,"hotelName":"Tansoma Business Hotel","address":"66 Nkrumah Street, Gerezani Area,P.O.Box 69074,Dar es Salaam,Tanzania","phones":"+255763725044","fax":"","email":"reservations@tansomabusinesshotel.com","url":"http://tansomabusinesshotel.com/","countryIso2":"TZ","countryName":"Tanzania","hotelRating":"3","latitude":"-6.82593","longitude":"39.2788","state_id":null,"state_name":null,"country_id":null},{"active":false,"Giataid":"533188","cityId":null,"cityName":"Dar-es-Salaam","hotelId":533188,"hotelName":"Sawe Hotel","address":"Mabibo Road,Off Morogoro Road,80268 Dar es Salaam,Tanzania","phones":"","fax":"","email":"","url":"http://www.agoda.com/de-de/sawe-hotel-dar-es-salaam/hotel/dar-es-salaam-tz.html","countryIso2":"TZ","countryName":"Tanzania","hotelRating":"3","latitude":"-6.79859","longitude":"39.2258","state_id":null,"state_name":null,"country_id":null},{"active":false,"Giataid":"538898","cityId":null,"cityName":"Matemwe Beach","hotelId":538898,"hotelName":"Matemwe Beach Village","address":"Matemwe Road,North & East coast,Mnemba Atoll,Matemwe,Zanzibar,Tanzania","phones":"+255777437200","fax":"","email":"gailmatemwe@zanlink.com","url":"http://www.matemwebeach.net/","countryIso2":"TZ","countryName":"Tanzania","hotelRating":"1","latitude":"-5.86301","longitude":"39.3516","state_id":null,"state_name":null,"country_id":null},{"active":false,"Giataid":"561422","cityId":109261,"cityName":"Nungwi","hotelId":561422,"hotelName":"Nungwi Village Beach Resort","address":"NULL","phones":"","fax":"","email":"","url":"","countryIso2":"TZ","countryName":"Tanzania","hotelRating":"3","latitude":"-5.72476","longitude":"39.2956","state_id":1473,"state_name":"Zanzibar North","country_id":218},{"active":false,"Giataid":"579797","cityId":null,"cityName":"Dar-es-Salaam","hotelId":579797,"hotelName":"The Grand Hotel & Residences","address":"","phones":"","fax":"","email":"","url":"","countryIso2":"TZ","countryName":"Tanzania","hotelRating":"1","latitude":"-6.79491","longitude":"39.2553","state_id":null,"state_name":null,"country_id":null},{"active":false,"Giataid":"599137","cityId":null,"cityName":"Dar-es-Salaam","hotelId":599137,"hotelName":"Hong Kong Hotel","address":"Msimbazi/Narung'ombe,Kariakoo,Dar es Salaam,Tanzania","phones":"","fax":"","email":"","url":"","countryIso2":"TZ","countryName":"Tanzania","hotelRating":"3","latitude":"-6.82129","longitude":"39.2727","state_id":null,"state_name":null,"country_id":null},{"active":false,"Giataid":"611097","cityId":null,"cityName":"Ngorongoro Conservation Area","hotelId":611097,"hotelName":"The Highlands Ngorongoro","address":"","phones":"","fax":"","email":"","url":"","countryIso2":"TZ","countryName":"Tanzania","hotelRating":"4","latitude":"-3.18943","longitude":"35.4776","state_id":null,"state_name":null,"country_id":null},{"active":false,"Giataid":"613173","cityId":null,"cityName":"Serengeti National Park","hotelId":613173,"hotelName":"Robanda Safari Camp","address":"Serengeti National Park,Tanzania","phones":"","fax":"","email":"","url":"","countryIso2":"TZ","countryName":"Tanzania","hotelRating":"3","latitude":"-2.152","longitude":"34.6588","state_id":null,"state_name":null,"country_id":null},{"active":false,"Giataid":"622516","cityId":109293,"cityName":"Usa River","hotelId":622516,"hotelName":"Meru Mbega Lodge","address":"Momella Road,P O Box 390,Usa River,Arusha,Tanzania","phones":"+255784748888","fax":"","email":"info@baobabvillage.com","url":"http://www.mt-meru.com/mbega.html","countryIso2":"TZ","countryName":"Tanzania","hotelRating":"1","latitude":"0","longitude":"0","state_id":1491,"state_name":"Arusha","country_id":218},{"active":false,"Giataid":"630043","cityId":null,"cityName":"Dar-es-Salaam","hotelId":630043,"hotelName":"ABC Travellers Hotel","address":"BOX 40829,Dar es Salaam,Msimbazi Street,Tanzania","phones":"+255222182492","fax":"","email":"info@abctravellershotel.com","url":"http://www.abctravellershotel.com/","countryIso2":"TZ","countryName":"Tanzania","hotelRating":"3","latitude":"-6.81633","longitude":"39.2747","state_id":null,"state_name":null,"country_id":null},{"active":false,"Giataid":"630103","cityId":null,"cityName":"Jambiani","hotelId":630103,"hotelName":"Visitors Inn Hotel","address":"NULL","phones":"","fax":"","email":"","url":"","countryIso2":"TZ","countryName":"Tanzania","hotelRating":"1","latitude":"-6.26278","longitude":"39.5355","state_id":null,"state_name":null,"country_id":null},{"active":false,"Giataid":"630109","cityId":109261,"cityName":"Nungwi","hotelId":630109,"hotelName":"Paradise Beach Bungalows","address":"Nungwi,Zanzibar,Tanzania","phones":"+255778677691","fax":"","email":"info@nungwiparadisebungalows.com","url":"http://nungwiparadisebungalows.com/","countryIso2":"TZ","countryName":"Tanzania","hotelRating":"1","latitude":"-5.73214","longitude":"39.2947","state_id":1473,"state_name":"Zanzibar North","country_id":218},{"active":false,"Giataid":"630110","cityId":109044,"cityName":"Bagamoyo","hotelId":630110,"hotelName":"Green Park Village Bagamoyo","address":"NULL","phones":"","fax":"","email":"","url":"","countryIso2":"TZ","countryName":"Tanzania","hotelRating":"1","latitude":"-6.45358","longitude":"38.9052","state_id":1485,"state_name":"Pwani","country_id":218},{"active":false,"Giataid":"630332","cityId":109289,"cityName":"Tanga","hotelId":630332,"hotelName":"Panori Hotel","address":"P.O. Box 672,Ocean drive, Raskazone,Tanga,Tanzania","phones":"+255272646044","fax":"","email":"panorihotel@yahoo.com","url":"http://www.panorihotel.com/","countryIso2":"TZ","countryName":"Tanzania","hotelRating":"1","latitude":"-5.06478","longitude":"39.1254","state_id":1487,"state_name":"Tanga","country_id":218},{"active":false,"Giataid":"630344","cityId":109052,"cityName":"Bukoba","hotelId":630344,"hotelName":"The Walkgard Transit Hotel","address":"457 Bukoba, Uganda road/ Karume road,Bukoba,Tanzania","phones":"","fax":"","email":"","url":"","countryIso2":"TZ","countryName":"Tanzania","hotelRating":"1","latitude":"-1.33524","longitude":"31.8128","state_id":1465,"state_name":"Kagera","country_id":218},{"active":false,"Giataid":"630355","cityId":null,"cityName":"Dar-es-Salaam","hotelId":630355,"hotelName":"Eben View Hotel","address":"Likoma/Masasi Street,P.O Box 76272,Dar Es Salaam,Tanzania","phones":"","fax":"","email":"","url":"","countryIso2":"TZ","countryName":"Tanzania","hotelRating":"1","latitude":"-6.82302","longitude":"39.2721","state_id":null,"state_name":null,"country_id":null},{"active":false,"Giataid":"630362","cityId":109289,"cityName":"Tanga","hotelId":630362,"hotelName":"Nyinda Respective Hotel","address":"Kwamichi Area Near Round About,Tanga,Tanzania","phones":"+255673500415","fax":"","email":"nyindarespective@gmail.com","url":"https://nyindarespectivehotel.com","countryIso2":"TZ","countryName":"Tanzania","hotelRating":"1","latitude":"-5.05679","longitude":"39.1212","state_id":1487,"state_name":"Tanga","country_id":218},{"active":false,"Giataid":"630364","cityId":109220,"cityName":"Mtwara","hotelId":630364,"hotelName":"Jeco Mtwara Hotel","address":"Mangowera,Mtwara,Tanzania","phones":"","fax":"","email":"","url":"","countryIso2":"TZ","countryName":"Tanzania","hotelRating":"1","latitude":"-10.2845","longitude":"40.1692","state_id":1476,"state_name":"Mtwara","country_id":218},{"active":false,"Giataid":"630367","cityId":null,"cityName":"Karatu District","hotelId":630367,"hotelName":"Crater Rim View","address":"NULL","phones":"","fax":"","email":"","url":"","countryIso2":"TZ","countryName":"Tanzania","hotelRating":"1","latitude":"-3.33689","longitude":"35.6475","state_id":null,"state_name":null,"country_id":null},{"active":false,"Giataid":"630369","cityId":null,"cityName":"Dar-es-Salaam","hotelId":630369,"hotelName":"Spice Hotel","address":"Lumumba And Narun'gombe Street,Opposite Bin Slum Tyres,Dar es Salaam,Tanzania","phones":"","fax":"","email":"","url":"","countryIso2":"TZ","countryName":"Tanzania","hotelRating":"1","latitude":"-6.79491","longitude":"39.2553","state_id":null,"state_name":null,"country_id":null},{"active":false,"Giataid":"630372","cityId":null,"cityName":"Dar-es-Salaam","hotelId":630372,"hotelName":"Cornrad Hotel","address":"Livingstone Street,Dar Es Salaam,Tanzania","phones":"+255222181426","fax":"","email":"info@cornradhotel.co.tz","url":"http://cornradhotel.co.tz/","countryIso2":"TZ","countryName":"Tanzania","hotelRating":"1","latitude":"-6.82283","longitude":"39.2788","state_id":null,"state_name":null,"country_id":null},{"active":false,"Giataid":"630372","cityId":null,"cityName":"Kariakoo","hotelId":630372,"hotelName":"Cornrad Hotel","address":"Livingstone Street,Dar Es Salaam,Tanzania","phones":"+255222181426","fax":"","email":"info@cornradhotel.co.tz","url":"http://cornradhotel.co.tz/","countryIso2":"TZ","countryName":"Tanzania","hotelRating":"1","latitude":"-6.82283","longitude":"39.2788","state_id":null,"state_name":null,"country_id":null},{"active":false,"Giataid":"630375","cityId":null,"cityName":"Himo","hotelId":630375,"hotelName":"African Flower Hotel","address":"159 Himo-Kilimanjaro,Himo,Tanzania","phones":"","fax":"","email":"","url":"","countryIso2":"TZ","countryName":"Tanzania","hotelRating":"1","latitude":"-3.38761","longitude":"37.5496","state_id":null,"state_name":null,"country_id":null},{"active":false,"Giataid":"630382","cityId":null,"cityName":"Pingwe","hotelId":630382,"hotelName":"Dongwe Beach Bungalows","address":"Dongwe,P.O Box 791,Pingwe,Zanzibar,Tanzania","phones":"+255777458008","fax":"","email":"info@dongwebeachbungalows.com","url":"http://dongwebeachbungalows.com/","countryIso2":"TZ","countryName":"Tanzania","hotelRating":"1","latitude":"-6.18604","longitude":"39.5327","state_id":null,"state_name":null,"country_id":null},{"active":false,"Giataid":"630386","cityId":null,"cityName":"Dar-es-Salaam","hotelId":630386,"hotelName":"Rising Sun Hotel","address":"Msimbazi/Narung'ombe streets,Dar-es-Salaam,Tanzania","phones":"+255222185535","fax":"","email":"info@risingsunhotel.co.tz","url":"http://www.risingsunhotel.co.tz/","countryIso2":"TZ","countryName":"Tanzania","hotelRating":"1","latitude":"-6.82144","longitude":"39.2725","state_id":null,"state_name":null,"country_id":null},{"active":false,"Giataid":"630393","cityId":109261,"cityName":"Nungwi","hotelId":630393,"hotelName":"Warere Beach","address":"Nungwi,Zanzibar,Tanzania","phones":"+255782234564","fax":"","email":"info@warere.com","url":"http://warere.com/beach","countryIso2":"TZ","countryName":"Tanzania","hotelRating":"1","latitude":"-5.72908","longitude":"39.3111","state_id":1473,"state_name":"Zanzibar North","country_id":218},{"active":false,"Giataid":"630404","cityId":109209,"cityName":"Moshi","hotelId":630404,"hotelName":"East Point Hotel","address":"103,Moshi,Kilimanjaro,Tanzania","phones":"","fax":"","email":"","url":"","countryIso2":"TZ","countryName":"Tanzania","hotelRating":"1","latitude":"-3.33526","longitude":"37.3359","state_id":1467,"state_name":"Kilimanjaro","country_id":218},{"active":false,"Giataid":"630410","cityId":109044,"cityName":"Bagamoyo","hotelId":630410,"hotelName":"Stella Maris Hotel","address":"P.O. Box 316,Bagamoyo,Tanzania","phones":"+255232440249","fax":"","email":"info@stellamarisbagamoyo.com","url":"http://www.stellamarisbagamoyo.com/","countryIso2":"TZ","countryName":"Tanzania","hotelRating":"1","latitude":"-6.44021","longitude":"38.9067","state_id":1485,"state_name":"Pwani","country_id":218},{"active":false,"Giataid":"630437","cityId":109289,"cityName":"Tanga","hotelId":630437,"hotelName":"Mauwa Inn Hotel Tanga","address":"Tanga,Street No 8,Tanga,Tanzania","phones":"","fax":"","email":"","url":"","countryIso2":"TZ","countryName":"Tanzania","hotelRating":"1","latitude":"-5.07819","longitude":"39.1031","state_id":1487,"state_name":"Tanga","country_id":218},{"active":false,"Giataid":"630440","cityId":109289,"cityName":"Tanga","hotelId":630440,"hotelName":"CBA Hotel Tanga","address":"Raskazon Area,Tanga,Tanzania","phones":"","fax":"","email":"","url":"","countryIso2":"TZ","countryName":"Tanzania","hotelRating":"1","latitude":"-5.06775","longitude":"39.1173","state_id":1487,"state_name":"Tanga","country_id":218},{"active":false,"Giataid":"630442","cityId":109289,"cityName":"Tanga","hotelId":630442,"hotelName":"Ocean Breeze Inn","address":"NMB, Madaraka,Tanga,Tanzania","phones":"","fax":"","email":"","url":"","countryIso2":"TZ","countryName":"Tanzania","hotelRating":"1","latitude":"-5.07075","longitude":"39.0973","state_id":1487,"state_name":"Tanga","country_id":218},{"active":false,"Giataid":"630446","cityId":109220,"cityName":"Mtwara","hotelId":630446,"hotelName":"Naf Beach Hotel","address":"Chuno Road,Shangani Area,Mtwara,Tanzania","phones":"","fax":"","email":"","url":"","countryIso2":"TZ","countryName":"Tanzania","hotelRating":"1","latitude":"-10.2597","longitude":"40.1668","state_id":1476,"state_name":"Mtwara","country_id":218},{"active":false,"Giataid":"630459","cityId":109114,"cityName":"Kilindoni","hotelId":630459,"hotelName":"Moams Hotel","address":"Kigamboni,Kilindoni,Tanzania","phones":"+255659666222","fax":"","email":"moamshotel@gmail.com","url":"http://www.moamshotel.com/","countryIso2":"TZ","countryName":"Tanzania","hotelRating":"1","latitude":"-7.9058","longitude":"39.6777","state_id":1485,"state_name":"Pwani","country_id":218},{"active":false,"Giataid":"630449","cityId":109289,"cityName":"Tanga","hotelId":630449,"hotelName":"Regal Naivera Hotel","address":"Amboni Road,Tanga,Tanzania","phones":"","fax":"","email":"","url":"","countryIso2":"TZ","countryName":"Tanzania","hotelRating":"1","latitude":"-5.06529","longitude":"39.1163","state_id":1487,"state_name":"Tanga","country_id":218},{"active":false,"Giataid":"630469","cityId":109220,"cityName":"Mtwara","hotelId":630469,"hotelName":"Victoria Hotel","address":"Chuno, Kibaoni,Mtwara,Tanzania","phones":"","fax":"","email":"","url":"","countryIso2":"TZ","countryName":"Tanzania","hotelRating":"1","latitude":"-10.2752","longitude":"40.1658","state_id":1476,"state_name":"Mtwara","country_id":218},{"active":false,"Giataid":"630475","cityId":67979,"cityName":"Mwanza","hotelId":630475,"hotelName":"Victoria Palace Hotel","address":"Capri Point Road,Mwanza,Tanzania","phones":"+255282503068","fax":"","email":"info@victoriapalacehoteltz.com","url":"http://www.victoriapalacehoteltz.com","countryIso2":"TZ","countryName":"Tanzania","hotelRating":"1","latitude":"-2.52519","longitude":"32.8924","state_id":3106,"state_name":"Southern Region","country_id":131},{"active":false,"Giataid":"659445","cityId":null,"cityName":"Lake Manyara National Park","hotelId":659445,"hotelName":"Africa Safari Glamping","address":"Mto Wa Mbu,Lake Manyara,Lake Manyara National Park,Tanzania","phones":"","fax":"","email":"","url":"","countryIso2":"TZ","countryName":"Tanzania","hotelRating":"1","latitude":"-3.46602","longitude":"35.8321","state_id":null,"state_name":null,"country_id":null},{"active":false,"Giataid":"659449","cityId":null,"cityName":"Stone Town","hotelId":659449,"hotelName":"Shaba Boutique Hotel","address":"Shangani Street,Behind Hilton Double Tree Hotel,Stone Town,Zanzibar,Tanzania","phones":"+255242238021","fax":"","email":"info@shaba-zanzibar.com","url":"http://shaba-zanzibar.com/","countryIso2":"TZ","countryName":"Tanzania","hotelRating":"3","latitude":"-6.16283","longitude":"39.1872","state_id":null,"state_name":null,"country_id":null},{"active":false,"Giataid":"666729","cityId":null,"cityName":"Serengeti National Park","hotelId":666729,"hotelName":"Asilia Migration Camps","address":"","phones":"","fax":"","email":"","url":"","countryIso2":"TZ","countryName":"Tanzania","hotelRating":"4","latitude":"-2.28939","longitude":"34.8013","state_id":null,"state_name":null,"country_id":null},{"active":false,"Giataid":"667916","cityId":109289,"cityName":"Tanga","hotelId":667916,"hotelName":"Fish Eagle Point","address":"P O Box 723,Fish Eagle Point Road,Tanga,Tanga Region,Tanzania","phones":"+255687680494","fax":"","email":"reservations@fisheaglepoint.com","url":"http://www.fisheaglepoint.com","countryIso2":"TZ","countryName":"Tanzania","hotelRating":"1","latitude":"-5.06775","longitude":"39.1173","state_id":1487,"state_name":"Tanga","country_id":218},{"active":false,"Giataid":"667987","cityId":null,"cityName":"Michamvi","hotelId":667987,"hotelName":"Upendo Zanzibar","address":"Michamvi Kae Road,1000 Michamvi,Zanzibar,Tanzania","phones":"+255777244492","fax":"","email":"enquiries@upendozanzibar.com","url":"http://www.upendozanzibar.com","countryIso2":"TZ","countryName":"Tanzania","hotelRating":"1","latitude":"-6.1527","longitude":"39.5185","state_id":null,"state_name":null,"country_id":null},{"active":false,"Giataid":"668154","cityId":149054,"cityName":"Mbeya","hotelId":668154,"hotelName":"Utengule Coffee Lodge","address":"PO Box 139,Mbeya,Mbeya Region,Tanzania","phones":"+255753020901","fax":"","email":"","url":"http://www.riftvalley-zanzibar.com/index.html","countryIso2":"TZ","countryName":"Tanzania","hotelRating":"1","latitude":"-8.88894","longitude":"33.4448","state_id":4955,"state_name":"Mbeya","country_id":218},{"active":false,"Giataid":"689190","cityId":null,"cityName":"Kizimkazi","hotelId":689190,"hotelName":"Aya Beach Bungalows","address":"Kizimkazi Mkunguni,Zanzibar,Tanzania","phones":"","fax":"","email":"","url":"","countryIso2":"TZ","countryName":"Tanzania","hotelRating":"1","latitude":"-6.44595","longitude":"39.4674","state_id":null,"state_name":null,"country_id":null},{"active":false,"Giataid":"700481","cityId":null,"cityName":"Zanzibar City","hotelId":700481,"hotelName":"Mazsons Hotel Limited","address":"Kenyatta Street,Shangani Area,Stone Town,3367 Zanzibar,Tanzania","phones":"+255242233694","fax":"","email":"info@mazsonshotel.com","url":"http://mazsonshotel.com/","countryIso2":"TZ","countryName":"Tanzania","hotelRating":"3","latitude":"-6.16343","longitude":"39.1876","state_id":null,"state_name":null,"country_id":null},{"active":false,"Giataid":"700532","cityId":109289,"cityName":"Tanga","hotelId":700532,"hotelName":"Kwetu Hotel","address":"Old Nguvumali,Kisosora Estate,21112 Tanga,Tanzania","phones":"","fax":"","email":"info@kwetuhotel.co.tz","url":"http://www.kwetuhotel.co.tz/","countryIso2":"TZ","countryName":"Tanzania","hotelRating":"1","latitude":"-5.07078","longitude":"39.0741","state_id":1487,"state_name":"Tanga","country_id":218},{"active":false,"Giataid":"700641","cityId":67979,"cityName":"Mwanza","hotelId":700641,"hotelName":"Samanene Hotel","address":"Luchelele,Near Saint Augustine University,PO Box 11317,Mwanza,Tanzania","phones":"","fax":"","email":"samanene@samanenehotel.com","url":"https://samanenehotel.com/","countryIso2":"TZ","countryName":"Tanzania","hotelRating":"1","latitude":"-2.51922","longitude":"32.8991","state_id":3106,"state_name":"Southern Region","country_id":131},{"active":false,"Giataid":"705552","cityId":109042,"cityName":"Arusha","hotelId":705552,"hotelName":"Arusha Bimel Hotel","address":"Pangani Street,Arusha,Tanzania","phones":"","fax":"+255682548523","email":"info@bimelhotel.co.tz","url":"http://www.bimelhotel.co.tz/","countryIso2":"TZ","countryName":"Tanzania","hotelRating":"3","latitude":"-3.37073","longitude":"36.6887","state_id":1491,"state_name":"Arusha","country_id":218},{"active":false,"Giataid":"705579","cityId":null,"cityName":"Zanzibar City","hotelId":705579,"hotelName":"Jambo Guest House","address":"Mkunanini Street,P.O.Box 635,Zanzibar Town,Tanzania","phones":"+255242233779","fax":"","email":"info@jamboguest.com","url":"http://www.jamboguest.com/","countryIso2":"TZ","countryName":"Tanzania","hotelRating":"1","latitude":"-6.1639","longitude":"39.1915","state_id":null,"state_name":null,"country_id":null},{"active":false,"Giataid":"705693","cityId":null,"cityName":"Matemwe Beach","hotelId":705693,"hotelName":"Zanzibar Queen Hotel","address":"Matemwe,Zanzibar,Tanzania","phones":"+255779666701","fax":"","email":"contact@zanzibarqueen.com","url":"https://www.zanzibarqueen.com/","countryIso2":"TZ","countryName":"Tanzania","hotelRating":"4","latitude":"-5.86097","longitude":"39.3544","state_id":null,"state_name":null,"country_id":null},{"active":false,"Giataid":"705910","cityId":109150,"cityName":"Lushoto","hotelId":705910,"hotelName":"MamboViewPoint","address":"Mambo,Mtae,PO Box 157,Lushoto,Tanzania","phones":"+255785272150","fax":"","email":"info@mamboviewpoint.org","url":"http://www.mamboviewpoint.org/","countryIso2":"TZ","countryName":"Tanzania","hotelRating":"1","latitude":"-4.79144","longitude":"38.2863","state_id":1487,"state_name":"Tanga","country_id":218},{"active":false,"Giataid":"707167","cityId":null,"cityName":"Jambiani","hotelId":707167,"hotelName":"Ifa Beach Resort","address":"Jambiani South Beach Road,Jambiani,Zanzibar,Tanzania","phones":"","fax":"","email":"ifabeachresort@yahoo.com","url":"http://ifabeachresort.com/","countryIso2":"TZ","countryName":"Tanzania","hotelRating":"1","latitude":"-6.30314","longitude":"39.5425","state_id":null,"state_name":null,"country_id":null},{"active":false,"Giataid":"707275","cityId":109042,"cityName":"Arusha","hotelId":707275,"hotelName":"Destination 3 Degrees","address":"Plot 48 Ingira Road,Off Old Moshi Road,PO Box 1525,Arusha,Tanzania","phones":"","fax":"+255272548684","email":"info@destination3degrees.com","url":"http://www.destination3degrees.com/home.php","countryIso2":"TZ","countryName":"Tanzania","hotelRating":"3","latitude":"-3.37705","longitude":"36.6972","state_id":1491,"state_name":"Arusha","country_id":218},{"active":false,"Giataid":"707502","cityId":109261,"cityName":"Nungwi","hotelId":707502,"hotelName":"Nungwi House","address":"Nungwi,Zanzibar,Tanzania","phones":"","fax":"","email":"booking@nungwihouse.com","url":"http://www.nungwihouse.com/","countryIso2":"TZ","countryName":"Tanzania","hotelRating":"1","latitude":"-5.72733","longitude":"39.2935","state_id":1473,"state_name":"Zanzibar North","country_id":218},{"active":false,"Giataid":"715997","cityId":null,"cityName":"Selous Game Reserve","hotelId":715997,"hotelName":"Roho ya Selous","address":"Selous Game Reserve,Tanzania","phones":"","fax":"","email":"reservations@asiliaafrica.com","url":"http://www.asiliaafrica.com/east-africa-safari/tanzania/selous-game-reserve/roho-ya-selous/#1446638245509-9867174d-f484052c-43c2","countryIso2":"TZ","countryName":"Tanzania","hotelRating":"4","latitude":"-7.75176","longitude":"38.0381","state_id":null,"state_name":null,"country_id":null},{"active":false,"Giataid":"725400","cityId":null,"cityName":"Bububu","hotelId":725400,"hotelName":"Z Ocean Hotel & Apartments Kihinani","address":"Kihinani,Bububu,Tanzania","phones":"+255776531214","fax":"","email":"amaanbeach@oceangrouphotel.com","url":"http://www.oceangrouphotel.com/z-ocean-kihinani.php","countryIso2":"TZ","countryName":"Tanzania","hotelRating":"3","latitude":"-6.09973","longitude":"39.216","state_id":null,"state_name":null,"country_id":null},{"active":false,"Giataid":"726096","cityId":null,"cityName":"Pongwe","hotelId":726096,"hotelName":"Malcom Villa","address":"NULL","phones":"","fax":"","email":"","url":"","countryIso2":"TZ","countryName":"Tanzania","hotelRating":"1","latitude":"-6.03564","longitude":"39.4067","state_id":null,"state_name":null,"country_id":null},