[{"active":false,"Giataid":"187566","cityId":9193,"cityName":"Ouagadougou","hotelId":187566,"hotelName":"Palm Beach","address":"Kwame N'Krumah Avenue 10,Burkina Faso,Ouagadougou,Burkina Faso","phones":"+22625310991","fax":"","email":"dgpalmbeach@fasonet.bf","url":"http://palmbeach-burkina.com","countryIso2":"BF","countryName":"Burkina Faso","hotelRating":"3","latitude":"12.3612","longitude":"-1.51776","state_id":3136,"state_name":"Centre","country_id":35},{"active":false,"Giataid":"240741","cityId":9193,"cityName":"Ouagadougou","hotelId":240741,"hotelName":"Joly","address":"Joly Hotel Ouaga 2000,02 BP 6149,Ouagadougou,Burkina Faso","phones":"+22625376257","fax":"+22650376259","email":"info@jolyhotel.bf","url":"http://www.jolyhotel.bf","countryIso2":"BF","countryName":"Burkina Faso","hotelRating":"4","latitude":"12.3654","longitude":"-1.52976","state_id":3136,"state_name":"Centre","country_id":35},{"active":false,"Giataid":"568600","cityId":9162,"cityName":"Bobo-Dioulasso","hotelId":568600,"hotelName":"Hotel Sissiman","address":"Rue 17.04,Bobo-Dioulasso,Burkina Faso","phones":"+2262098008","fax":"","email":"resa@hotelsissiman.com","url":"http://www.hotelsissiman.com/","countryIso2":"BF","countryName":"Burkina Faso","hotelRating":"1","latitude":"11.1636","longitude":"-4.27512","state_id":3165,"state_name":"Hauts-Bassins Region","country_id":35},{"active":false,"Giataid":"568630","cityId":9193,"cityName":"Ouagadougou","hotelId":568630,"hotelName":"Hotel Soritel","address":"Avenue Kwam? N'krumah,Ouagadougou,Burkina Faso","phones":"+22650330478","fax":"","email":"soritel@fasonet.bf","url":"http://www.soritelfaso.bf/","countryIso2":"BF","countryName":"Burkina Faso","hotelRating":"3","latitude":"12.3637","longitude":"-1.5201","state_id":3136,"state_name":"Centre","country_id":35},{"active":false,"Giataid":"725678","cityId":9193,"cityName":"Ouagadougou","hotelId":725678,"hotelName":"Hotel Residence Prestige","address":"Rue Lepold Sengor Ouaga 2000,Ouagadougou,Burkina Faso","phones":"","fax":"","email":"","url":"http://www.hotelresidenceprestige.com","countryIso2":"BF","countryName":"Burkina Faso","hotelRating":"1","latitude":"12.3087","longitude":"-1.51779","state_id":3136,"state_name":"Centre","country_id":35},{"active":false,"Giataid":"727048","cityId":9193,"cityName":"Ouagadougou","hotelId":727048,"hotelName":"Residence Diane","address":"Ouaga 2000,Ouagadougou,Burkina Faso","phones":"","fax":"","email":"","url":"","countryIso2":"BF","countryName":"Burkina Faso","hotelRating":"1","latitude":"12.3252","longitude":"-1.49826","state_id":3136,"state_name":"Centre","country_id":35},{"active":false,"Giataid":"801720","cityId":9193,"cityName":"Ouagadougou","hotelId":801720,"hotelName":"Tang Zugu Residence Hotel","address":"Avenue Houari Boumedienne,Ouagadougou,Burkina Faso","phones":"","fax":"","email":"","url":"","countryIso2":"BF","countryName":"Burkina Faso","hotelRating":"1","latitude":"12.3637","longitude":"-1.5201","state_id":3136,"state_name":"Centre","country_id":35},{"active":false,"Giataid":"802541","cityId":9193,"cityName":"Ouagadougou","hotelId":802541,"hotelName":"Residence Le Jardin d'Eden","address":"204 Ouagadougou,Burkina Faso","phones":"","fax":"","email":"","url":"","countryIso2":"BF","countryName":"Burkina Faso","hotelRating":"1","latitude":"12.3637","longitude":"-1.5201","state_id":3136,"state_name":"Centre","country_id":35},{"active":false,"Giataid":"802554","cityId":9193,"cityName":"Ouagadougou","hotelId":802554,"hotelName":"Residence Alice","address":"Boulevard Des Tensoba,Ouagadougou,Burkina Faso","phones":"","fax":"","email":"","url":"","countryIso2":"BF","countryName":"Burkina Faso","hotelRating":"1","latitude":"12.3637","longitude":"-1.5201","state_id":3136,"state_name":"Centre","country_id":35},{"active":false,"Giataid":"802570","cityId":9193,"cityName":"Ouagadougou","hotelId":802570,"hotelName":"L'Hacienda","address":"Rue 5.45 11,BP 352,Ouagadougou,Burkina Faso","phones":"","fax":"","email":"contact@hotelhaciendaouagadougou.com","url":"http://www.hotelhaciendaouagadougou.com/","countryIso2":"BF","countryName":"Burkina Faso","hotelRating":"1","latitude":"12.3637","longitude":"-1.5201","state_id":3136,"state_name":"Centre","country_id":35},{"active":false,"Giataid":"802580","cityId":9162,"cityName":"Bobo-Dioulasso","hotelId":802580,"hotelName":"Relax Hotel Bobo Dioulasso","address":"Avenue Alwata Diawara,Bobo-Dioulasso,Burkina Faso","phones":"","fax":"","email":"","url":"","countryIso2":"BF","countryName":"Burkina Faso","hotelRating":"1","latitude":"11.1597","longitude":"-4.27407","state_id":3165,"state_name":"Hauts-Bassins Region","country_id":35},{"active":false,"Giataid":"802595","cityId":9162,"cityName":"Bobo-Dioulasso","hotelId":802595,"hotelName":"Hotel Watinoma","address":"Rue Pepin Malherbre Porte 312,Bobo-Dioulasso,Burkina Faso","phones":"","fax":"","email":"","url":"","countryIso2":"BF","countryName":"Burkina Faso","hotelRating":"1","latitude":"11.1597","longitude":"-4.27407","state_id":3165,"state_name":"Hauts-Bassins Region","country_id":35},{"active":false,"Giataid":"802598","cityId":9162,"cityName":"Bobo-Dioulasso","hotelId":802598,"hotelName":"Ran Hotel Somketa Bobo-Dioulasso","address":"Avenue De La Nation,Bobo-Dioulasso,Burkina Faso","phones":"","fax":"","email":"","url":"","countryIso2":"BF","countryName":"Burkina Faso","hotelRating":"1","latitude":"11.1597","longitude":"-4.27407","state_id":3165,"state_name":"Hauts-Bassins Region","country_id":35},{"active":false,"Giataid":"802617","cityId":9193,"cityName":"Ouagadougou","hotelId":802617,"hotelName":"Hotel Iris","address":"Avenue Yennenga,Ouagadougou,Burkina Faso","phones":"","fax":"","email":"","url":"","countryIso2":"BF","countryName":"Burkina Faso","hotelRating":"1","latitude":"12.3637","longitude":"-1.5201","state_id":3136,"state_name":"Centre","country_id":35},{"active":false,"Giataid":"803567","cityId":9193,"cityName":"Ouagadougou","hotelId":803567,"hotelName":"Residence Hotel Lwili","address":"12-63 avenue Sacr? Coeur de Dapoya,Ouagadougou,Burkina Faso","phones":"","fax":"","email":"","url":"","countryIso2":"BF","countryName":"Burkina Faso","hotelRating":"1","latitude":"12.3637","longitude":"-1.5201","state_id":3136,"state_name":"Centre","country_id":35},{"active":false,"Giataid":"804961","cityId":9193,"cityName":"Ouagadougou","hotelId":804961,"hotelName":"Hotel Le Baobab","address":"Avenue De La Dignit?,Ouagadougou,Burkina Faso","phones":"","fax":"","email":"","url":"","countryIso2":"BF","countryName":"Burkina Faso","hotelRating":"1","latitude":"12.3637","longitude":"-1.5201","state_id":3136,"state_name":"Centre","country_id":35},{"active":false,"Giataid":"805943","cityId":9162,"cityName":"Bobo-Dioulasso","hotelId":805943,"hotelName":"Villa Rose","address":"501 Avenue Philippe Zinda Kabore,Secteur 4,Bobo-Dioulasso,Burkina Faso","phones":"+22620976758","fax":"","email":"villarosebobo@gmail.com","url":"http://villarosebobodioulasso.com","countryIso2":"BF","countryName":"Burkina Faso","hotelRating":"1","latitude":"11.1597","longitude":"-4.27407","state_id":3165,"state_name":"Hauts-Bassins Region","country_id":35},{"active":false,"Giataid":"805950","cityId":9193,"cityName":"Ouagadougou","hotelId":805950,"hotelName":"Villa Kaya","address":"Quartier Zogona,Ouagadougou,Burkina Faso","phones":"","fax":"","email":"","url":"","countryIso2":"BF","countryName":"Burkina Faso","hotelRating":"1","latitude":"12.3637","longitude":"-1.5201","state_id":3136,"state_name":"Centre","country_id":35},{"active":false,"Giataid":"807035","cityId":9193,"cityName":"Ouagadougou","hotelId":807035,"hotelName":"Hotel Zind Naaba Cafe Des Arts","address":"Rue 15.166,Patte d'Oie,Ouagadougou,Burkina Faso","phones":"+22625382525","fax":"","email":"cafedesarts@hotelszindnaaba.com","url":"http://www.hotelszindnaaba.com/","countryIso2":"BF","countryName":"Burkina Faso","hotelRating":"1","latitude":"12.3637","longitude":"-1.5201","state_id":3136,"state_name":"Centre","country_id":35},{"active":false,"Giataid":"808511","cityId":9193,"cityName":"Ouagadougou","hotelId":808511,"hotelName":"Royal Beach Hotel","address":"Avenue Jean Paul II,Cote Sud Echangeur De l'est,Ouagadougou,Burkina Faso","phones":"+22650365222","fax":"","email":"reservation@royalbeach-burkina.com","url":"http://www.royalbeach-burkina.com","countryIso2":"BF","countryName":"Burkina Faso","hotelRating":"5","latitude":"12.3637","longitude":"-1.5201","state_id":3136,"state_name":"Centre","country_id":35},{"active":false,"Giataid":"810851","cityId":9162,"cityName":"Bobo-Dioulasso","hotelId":810851,"hotelName":"Iba Hotel","address":"Secteur 25,Bobo Dioulasso,Burkina Faso","phones":"","fax":"","email":"","url":"","countryIso2":"BF","countryName":"Burkina Faso","hotelRating":"1","latitude":"11.1597","longitude":"-4.27407","state_id":3165,"state_name":"Hauts-Bassins Region","country_id":35},{"active":false,"Giataid":"810872","cityId":9193,"cityName":"Ouagadougou","hotelId":810872,"hotelName":"Residence Amine","address":"Boulevard Des Tensoba,Ouagadougou,Burkina Faso","phones":"","fax":"","email":"","url":"","countryIso2":"BF","countryName":"Burkina Faso","hotelRating":"1","latitude":"12.3637","longitude":"-1.5201","state_id":3136,"state_name":"Centre","country_id":35},{"active":false,"Giataid":"813295","cityId":9193,"cityName":"Ouagadougou","hotelId":813295,"hotelName":"Residence Hoteliere Anael","address":"Boulevard Des Tensoba,Ouagadougou,Burkina Faso","phones":"","fax":"","email":"","url":"","countryIso2":"BF","countryName":"Burkina Faso","hotelRating":"1","latitude":"12.3637","longitude":"-1.5201","state_id":3136,"state_name":"Centre","country_id":35},{"active":false,"Giataid":"813317","cityId":9162,"cityName":"Bobo-Dioulasso","hotelId":813317,"hotelName":"Pacific Hotel Bobo-Dioulasso","address":"Petit Paris,Secteur 9,Accart Ville,Bobo-Dioulasso,Burkina Faso","phones":"","fax":"","email":"","url":"","countryIso2":"BF","countryName":"Burkina Faso","hotelRating":"1","latitude":"11.1597","longitude":"-4.27407","state_id":3165,"state_name":"Hauts-Bassins Region","country_id":35},{"active":false,"Giataid":"819486","cityId":9193,"cityName":"Ouagadougou","hotelId":819486,"hotelName":"Sigri Hotel","address":"Boulevard Tensoba 01,BP 1689,Ouagadougou,Burkina Faso","phones":"","fax":"","email":"","url":"","countryIso2":"BF","countryName":"Burkina Faso","hotelRating":"1","latitude":"12.3637","longitude":"-1.5201","state_id":3136,"state_name":"Centre","country_id":35},{"active":false,"Giataid":"822637","cityId":9193,"cityName":"Ouagadougou","hotelId":822637,"hotelName":"Ran Hotel Somketa Ouagadougou","address":"Avenue De La Nation,01 BP,Ouagadougou 1808,Burkina Faso","phones":"","fax":"","email":"","url":"","countryIso2":"BF","countryName":"Burkina Faso","hotelRating":"1","latitude":"12.3637","longitude":"-1.5201","state_id":3136,"state_name":"Centre","country_id":35},{"active":false,"Giataid":"507270","cityId":9193,"cityName":"Ouagadougou","hotelId":10100871,"hotelName":"Palace Hotel","address":"Avenue France Afrique,Ouaga 2000,Ouagadougou,Burkina Faso","phones":"NULL","fax":"NULL","email":"NULL","url":"NULL","countryIso2":"BF","countryName":"Burkina Faso","hotelRating":"3","latitude":"12.3139","longitude":"-1.52856","state_id":3136,"state_name":"Centre","country_id":35},{"active":false,"Giataid":"568669","cityId":9193,"cityName":"Ouagadougou","hotelId":10118558,"hotelName":"Faso Hotel","address":"01 BP 528 Ouagadougou 01,Avenue du President Sayes Zerbo,Ouagadougou,Burkina Faso","phones":"NULL","fax":"NULL","email":"NULL","url":"NULL","countryIso2":"BF","countryName":"Burkina Faso","hotelRating":"3","latitude":"12.3684","longitude":"-1.51319","state_id":3136,"state_name":"Centre","country_id":35},{"active":false,"Giataid":"330036","cityId":9193,"cityName":"Ouagadougou","hotelId":20000875,"hotelName":"Motel du 15","address":"BP 501,Secteur 15,Ouagadougou 01,Burkina Faso,Burkina Faso","phones":"","fax":"","email":"","url":"","countryIso2":"BF","countryName":"Burkina Faso","hotelRating":"0","latitude":"12.3273","longitude":"-1.50885","state_id":3136,"state_name":"Centre","country_id":35},{"active":false,"Giataid":"568653","cityId":9193,"cityName":"Ouagadougou","hotelId":20000942,"hotelName":"Hotel de la Liberte","address":"02 Bo?te Postale 5098,Avenue de la Libert?,Paspanga, sect. 12,Ouagadougou,Burkina Faso","phones":"+22650332363","fax":"","email":"hotelliberte@gmail.com","url":"http://www.hotel-liberte.com/","countryIso2":"BF","countryName":"Burkina Faso","hotelRating":"0","latitude":"12.3821","longitude":"-1.51609","state_id":3136,"state_name":"Centre","country_id":35},{"active":false,"Giataid":"446763","cityId":9193,"cityName":"Ouagadougou","hotelId":20001030,"hotelName":"Hotel Kavana","address":"Rue du Docteur Goarnisson,Ouagadougou,Burkina Faso","phones":"+22625333620","fax":"","email":"info@hotel-kavana.com","url":"http://www.hotel-kavana.com/","countryIso2":"BF","countryName":"Burkina Faso","hotelRating":"1","latitude":"12.3599","longitude":"-1.52708","state_id":3136,"state_name":"Centre","country_id":35},{"active":false,"Giataid":"422573","cityId":9193,"cityName":"Ouagadougou","hotelId":20001151,"hotelName":"The Grand Calao Lodge","address":"Ouagadougou,Burkina Faso","phones":"+22625485401","fax":"","email":"","url":"http://www.grand-calao.com/en/index.php","countryIso2":"BF","countryName":"Burkina Faso","hotelRating":"0","latitude":"12.2749","longitude":"-1.53119","state_id":3136,"state_name":"Centre","country_id":35},{"active":false,"Giataid":"568678","cityId":9193,"cityName":"Ouagadougou","hotelId":20001294,"hotelName":"Hotel Eden Park","address":"BP 1947, Ouagadougou 01,Avenue Bassawarga,Ouagadougou,Burkina Faso","phones":"","fax":"","email":"","url":"","countryIso2":"BF","countryName":"Burkina Faso","hotelRating":"0","latitude":"12.3533","longitude":"-1.52735","state_id":3136,"state_name":"Centre","country_id":35},{"active":false,"Giataid":"568638","cityId":9193,"cityName":"Ouagadougou","hotelId":20001477,"hotelName":"Centre d'Hebergement et de Conference Le Moringa","address":"01Boite Postale 2532 Ouagadougou 01,1200 Logements,Ouagadougou,Burkina Faso","phones":"+22625360159","fax":"","email":"extensions@joomla.fr","url":"http://www.moringaouaga.com/","countryIso2":"BF","countryName":"Burkina Faso","hotelRating":"0","latitude":"12.3628","longitude":"-1.49831","state_id":3136,"state_name":"Centre","country_id":35},{"active":false,"Giataid":"568620","cityId":9193,"cityName":"Ouagadougou","hotelId":20001857,"hotelName":"Maison d'hotes Chez Giuliana","address":"Rue Lamine Guye, porte 733,1200 Logements,06 Boite Postale 9691 ouaga 06,Ouagadougou,Burkina Faso","phones":"+22625363397","fax":"","email":"chezgiuliana@gmail.com","url":"http://www.chezgiuliana.com","countryIso2":"BF","countryName":"Burkina Faso","hotelRating":"0","latitude":"12.3644","longitude":"-1.49498","state_id":3136,"state_name":"Centre","country_id":35},{"active":false,"Giataid":"202054","cityId":9193,"cityName":"Ouagadougou","hotelId":20002098,"hotelName":"Les Palmiers","address":"Rue Joseph Badoua,Centre Of Ouagadougou,Across The French High School,Ouagadougou,Burkina Faso","phones":"+22625333330","fax":"","email":"reception@hotellespalmiers.net","url":"http://www.hotellespalmiers.net/","countryIso2":"BF","countryName":"Burkina Faso","hotelRating":"0","latitude":"12.3652","longitude":"-1.5255","state_id":3136,"state_name":"Centre","country_id":35},{"active":false,"Giataid":"507258","cityId":9193,"cityName":"Ouagadougou","hotelId":20002323,"hotelName":"Hotel Ouaga Beach","address":"01 Bo?te Postale 5693 Ouagadougou,Ouaga 2000,Boulevard France - Afrique,Ouagadougou,Burkina Faso","phones":"+22625374536","fax":"","email":"hotelouagabeach@yahoo.com","url":"http://www.ouagabeach.com/","countryIso2":"BF","countryName":"Burkina Faso","hotelRating":"3","latitude":"12.3072","longitude":"-1.52882","state_id":3136,"state_name":"Centre","country_id":35},{"active":false,"Giataid":"257277","cityId":9193,"cityName":"Ouagadougou","hotelId":20002552,"hotelName":"Pacific Hotel","address":"Avenue de lï¿½UEMOA,01 BP 5818 Ouagadougou 01,Burkina Faso","phones":"+22650306542","fax":"+22650313039","email":"hotel.pacific@fasonet.bf","url":"","countryIso2":"BF","countryName":"Burkina Faso","hotelRating":"3","latitude":"12.3642","longitude":"-1.51669","state_id":3136,"state_name":"Centre","country_id":35},{"active":false,"Giataid":"406333","cityId":9193,"cityName":"Ouagadougou","hotelId":20002737,"hotelName":"Relax Hotel Ouaga","address":"Avenue de la Nation,Porte 570 01,P.O. Box 567,Oagadougou,Burkina Faso","phones":"+22650313233","fax":"+22650332344","email":"relax.hotel@fasonet.bf","url":"http://www.groupe-soyaf.com/relax-ouaga.html","countryIso2":"BF","countryName":"Burkina Faso","hotelRating":"3","latitude":"12.35","longitude":"-1.51667","state_id":3136,"state_name":"Centre","country_id":35},{"active":false,"Giataid":"289902","cityId":9193,"cityName":"Ouagadougou","hotelId":20002970,"hotelName":"Dragon Hotel","address":"Ouagadougou,Burkina Faso","phones":"","fax":"","email":"","url":"","countryIso2":"BF","countryName":"Burkina Faso","hotelRating":"0","latitude":"12.3645","longitude":"-1.53408","state_id":3136,"state_name":"Centre","country_id":35},{"active":false,"Giataid":"568684","cityId":9193,"cityName":"Ouagadougou","hotelId":20003396,"hotelName":"Yibi Hotel","address":"2079, Avenue Kwame Nkrumah,Ouagadougou,Burkina Faso","phones":"+22625307323","fax":"+22625305900","email":"yibi.hotel@yibihotel.com","url":"http://www.yibihotel.com/","countryIso2":"BF","countryName":"Burkina Faso","hotelRating":"0","latitude":"12.3637","longitude":"-1.5201","state_id":3136,"state_name":"Centre","country_id":35},{"active":false,"Giataid":"568591","cityId":9193,"cityName":"Ouagadougou","hotelId":20003605,"hotelName":"La Case d'Hotes","address":"741 Rue 11.52,Ouagadougou,Burkina Faso","phones":"","fax":"","email":"","url":"http://www.case-hotes.com/","countryIso2":"BF","countryName":"Burkina Faso","hotelRating":"0","latitude":"12.3773","longitude":"-1.53924","state_id":3136,"state_name":"Centre","country_id":35},{"active":false,"Giataid":"568689","cityId":9193,"cityName":"Ouagadougou","hotelId":20003810,"hotelName":"Benoua Lodge","address":"Zogona Secteur 13,Ouagadougou,Burkina Faso","phones":"+22664772020","fax":"","email":"benoualodge@gmail.com","url":"http://benoua-lodge.com/","countryIso2":"BF","countryName":"Burkina Faso","hotelRating":"0","latitude":"12.3781","longitude":"-1.49048","state_id":3136,"state_name":"Centre","country_id":35},{"active":false,"Giataid":"589770","cityId":9193,"cityName":"Ouagadougou","hotelId":20003992,"hotelName":"Bravia Hotel","address":"Sector 4 District Zaca,01 BP 4883,Ouagadougou 01,Burkina Faso","phones":"+2262533327174","fax":"","email":"info-ouaga@braviahotels.com","url":"http://www.braviahotels.com","countryIso2":"BF","countryName":"Burkina Faso","hotelRating":"4","latitude":"12.3597","longitude":"-1.51658","state_id":3136,"state_name":"Centre","country_id":35},{"active":false,"Giataid":"860454","cityId":9193,"cityName":"Ouagadougou","hotelId":20277843,"hotelName":"Maison D'hotes Chez Mam'bolo","address":"Rue 13.62,Porte 323,Zogona secteur 13,Ouagadougou,Burkina Faso","phones":"","fax":"","email":"chezmambolo@gmail.com","url":"http://www.maisondhoteschezmambolo.com","countryIso2":"BF","countryName":"Burkina Faso","hotelRating":"0","latitude":"12.3637","longitude":"-1.5201","state_id":3136,"state_name":"Centre","country_id":35},{"active":false,"Giataid":"860708","cityId":9193,"cityName":"Ouagadougou","hotelId":20277841,"hotelName":"La Villa Opale","address":"11,Bp 371,Ouagadougou,Burkina Faso","phones":"","fax":"","email":"","url":"","countryIso2":"BF","countryName":"Burkina Faso","hotelRating":"0","latitude":"12.3637","longitude":"-1.5201","state_id":3136,"state_name":"Centre","country_id":35},{"active":false,"Giataid":"920461","cityId":9193,"cityName":"Ouagadougou","hotelId":20277842,"hotelName":"Hotel Pavillon Vert","address":"Avenue De La Liberte,02 BP5098,Ouagadougo,Burkina Faso","phones":"","fax":"","email":"","url":"","countryIso2":"BF","countryName":"Burkina Faso","hotelRating":"0","latitude":"12.3637","longitude":"-1.5201","state_id":3136,"state_name":"Centre","country_id":35},{"active":false,"Giataid":"919457","cityId":9193,"cityName":"Ouagadougou","hotelId":20277844,"hotelName":"Hotel Residence Kessene","address":"Rue Joseph Weresinski,Ouagadougo,Burkina Faso","phones":"","fax":"","email":"","url":"","countryIso2":"BF","countryName":"Burkina Faso","hotelRating":"0","latitude":"12.3637","longitude":"-1.5201","state_id":3136,"state_name":"Centre","country_id":35},{"active":false,"Giataid":"860554","cityId":9193,"cityName":"Ouagadougou","hotelId":20277847,"hotelName":"Chez Sego","address":"13-49 Zogona,Ouagadougou,Burkina Faso,Burkina Faso","phones":"","fax":"","email":"","url":"","countryIso2":"BF","countryName":"Burkina Faso","hotelRating":"0","latitude":"12.381","longitude":"-1.48415","state_id":3136,"state_name":"Centre","country_id":35},{"active":false,"Giataid":"919468","cityId":9193,"cityName":"Ouagadougou","hotelId":20277848,"hotelName":"Residence Amak","address":"Rue Simon Compaor?,Ouagadougou,Burkina Faso","phones":"","fax":"","email":"","url":"","countryIso2":"BF","countryName":"Burkina Faso","hotelRating":"0","latitude":"12.3637","longitude":"-1.5201","state_id":3136,"state_name":"Centre","country_id":35},{"active":false,"Giataid":"860637","cityId":9193,"cityName":"Ouagadougou","hotelId":20277850,"hotelName":"Villa Yiri Suma","address":"428 Avenue Du President Maurice Yameogo,Secteur 04,Ouagadougou,Burkina Faso","phones":"","fax":"","email":"Contact@yirisuma.com","url":"https://yirisuma.com","countryIso2":"BF","countryName":"Burkina Faso","hotelRating":"0","latitude":"12.3637","longitude":"-1.5201","state_id":3136,"state_name":"Centre","country_id":35},{"active":false,"Giataid":"920449","cityId":9193,"cityName":"Ouagadougou","hotelId":20277851,"hotelName":"Hotel Avenir","address":"1538 Boulevard Naaba Zombre Gounghin,09 BP 307 Ouaga 09,Ouagadougou,Burkina Faso","phones":"","fax":"","email":"","url":"","countryIso2":"BF","countryName":"Burkina Faso","hotelRating":"0","latitude":"12.3637","longitude":"-1.5201","state_id":3136,"state_name":"Centre","country_id":35},{"active":false,"Giataid":"871285","cityId":9162,"cityName":"Bobo-Dioulasso","hotelId":20277853,"hotelName":"Flani Hotel","address":"Bobo Dioulasso,Burkina Faso","phones":"","fax":"","email":"contact@flanihotel.com","url":"http://www.welkom-bf.com/","countryIso2":"BF","countryName":"Burkina Faso","hotelRating":"0","latitude":"11.1673","longitude":"-4.28188","state_id":3165,"state_name":"Hauts-Bassins Region","country_id":35},{"active":false,"Giataid":"860981","cityId":9193,"cityName":"Ouagadougou","hotelId":20277854,"hotelName":"Bienvenu Chez Nous","address":"27.110 179 Ouagadougou,Burkina Faso","phones":"","fax":"","email":"","url":"","countryIso2":"BF","countryName":"Burkina Faso","hotelRating":"0","latitude":"12.3637","longitude":"-1.5201","state_id":3136,"state_name":"Centre","country_id":35},{"active":false,"Giataid":"920479","cityId":9193,"cityName":"Ouagadougou","hotelId":20277855,"hotelName":"Hotel Residence Sam","address":"822 Rue Tiefo Amoro,1200 Logements,Ouagadougou,Burkina Faso","phones":"","fax":"","email":"","url":"","countryIso2":"BF","countryName":"Burkina Faso","hotelRating":"0","latitude":"12.3637","longitude":"-1.5201","state_id":3136,"state_name":"Centre","country_id":35},{"active":false,"Giataid":"859706","cityId":9193,"cityName":"Ouagadougou","hotelId":20277856,"hotelName":"Le Karite Bleu","address":"Boulevard De L'onatel Porte 214,Zone Du Bois,BP 9891,Ouagadougou,Burkina Faso","phones":"+22625369046","fax":"","email":"info@karitebleu.com","url":"http://www.karitebleu.com","countryIso2":"BF","countryName":"Burkina Faso","hotelRating":"0","latitude":"12.3637","longitude":"-1.5201","state_id":3136,"state_name":"Centre","country_id":35},{"active":false,"Giataid":"920474","cityId":9193,"cityName":"Ouagadougou","hotelId":20277860,"hotelName":"Holland House","address":"112 Rue 27,Ouagadougou,Burkina Faso","phones":"","fax":"","email":"","url":"","countryIso2":"BF","countryName":"Burkina Faso","hotelRating":"0","latitude":"12.3637","longitude":"-1.5201","state_id":3136,"state_name":"Centre","country_id":35},{"active":false,"Giataid":"919453","cityId":9193,"cityName":"Ouagadougou","hotelId":20277857,"hotelName":"Ouaka","address":"Rue Luili Pende,Ouagadougou,Burkina Faso","phones":"","fax":"","email":"","url":"","countryIso2":"BF","countryName":"Burkina Faso","hotelRating":"0","latitude":"12.3637","longitude":"-1.5201","state_id":3136,"state_name":"Centre","country_id":35},{"active":false,"Giataid":"860828","cityId":9193,"cityName":"Ouagadougou","hotelId":20277859,"hotelName":"La Villa Sougri Doogo","address":"1760 Rue 15.947,Pres D'Espace Culturel Yiki,Ouagadougou,Burkina Faso","phones":"","fax":"","email":"","url":"","countryIso2":"BF","countryName":"Burkina Faso","hotelRating":"0","latitude":"12.3637","longitude":"-1.5201","state_id":3136,"state_name":"Centre","country_id":35},{"active":false,"Giataid":"858532","cityId":9193,"cityName":"Ouagadougou","hotelId":20277862,"hotelName":"Umoja Guest House","address":"Zone Du Bois & Zogona,Ouagadougou,Burkina Faso","phones":"","fax":"","email":"info@umojaguesthouse.com","url":"http://www.umojaguesthouse.com","countryIso2":"BF","countryName":"Burkina Faso","hotelRating":"0","latitude":"12.3637","longitude":"-1.5201","state_id":3136,"state_name":"Centre","country_id":35},{"active":false,"Giataid":"912717","cityId":9193,"cityName":"Ouagadougou","hotelId":20277863,"hotelName":"Le Milamac Guest House","address":"Ouaga 2000,Ouagadougou,Burkina Faso","phones":"","fax":"","email":"","url":"","countryIso2":"BF","countryName":"Burkina Faso","hotelRating":"0","latitude":"12.3637","longitude":"-1.5201","state_id":3136,"state_name":"Centre","country_id":35},{"active":false,"Giataid":"952984","cityId":9162,"cityName":"Bobo-Dioulasso","hotelId":20390066,"hotelName":"Villa Bobo","address":"Rue 35 porte 292,Secteur 04/Koko,Entre Clinique Exalab et Direction G?n?rale des Transports Boulevard Charles de Gaulle,BP 2649,Bobo-Dioulasso,Burkina Faso","phones":"","fax":"","email":"","url":"","countryIso2":"BF","countryName":"Burkina Faso","hotelRating":"1","latitude":"11.1673","longitude":"-4.28188","state_id":3165,"state_name":"Hauts-Bassins Region","country_id":35},{"active":false,"Giataid":"945261","cityId":9193,"cityName":"Ouagadougou","hotelId":20390067,"hotelName":"Residence Amye","address":"Avenue Des Comores,Ouagadougou,Burkina Faso","phones":"","fax":"","email":"","url":"","countryIso2":"BF","countryName":"Burkina Faso","hotelRating":"1","latitude":"12.3637","longitude":"-1.5201","state_id":3136,"state_name":"Centre","country_id":35},{"active":false,"Giataid":"944744","cityId":9193,"cityName":"Ouagadougou","hotelId":20390070,"hotelName":"Residence Le Cailcedrat","address":"BP 3082,01 En Face Du Cour Prive La Fontaine,Ouagadougou,Burkina Faso","phones":"","fax":"","email":"","url":"http://www.residencelecailcedrat.net/residence-auberge-moins-chere-tarifs-chambres-d-hotes-hebergement-a-petit-budget-hotel-pas-cher-residence-moins-chere-chambre-a-bas-prix-logem","countryIso2":"BF","countryName":"Burkina Faso","hotelRating":"1","latitude":"12.3637","longitude":"-1.5201","state_id":3136,"state_name":"Centre","country_id":35},{"active":false,"Giataid":"998190","cityId":9193,"cityName":"Ouagadougou","hotelId":20425694,"hotelName":"Hotel Zamdogo","address":"Rue Zangoeg-Pelgo,Ouagadougou,Burkina Faso","phones":"","fax":"","email":"","url":"","countryIso2":"BF","countryName":"Burkina Faso","hotelRating":"1","latitude":"12.3637","longitude":"-1.5201","state_id":3136,"state_name":"Centre","country_id":35},{"active":false,"Giataid":"1000122","cityId":9193,"cityName":"Ouagadougou","hotelId":20431052,"hotelName":"Le Zanali Hotel","address":"Zone I Secteur 46,Ouagadougou,Burkina Faso","phones":"","fax":"","email":"zanalihotel@gmail.com","url":"http://lezanali.com","countryIso2":"BF","countryName":"Burkina Faso","hotelRating":"1","latitude":"12.3637","longitude":"-1.5201","state_id":3136,"state_name":"Centre","country_id":35},{"active":false,"Giataid":"1000333","cityId":9193,"cityName":"Ouagadougou","hotelId":20431053,"hotelName":"Residence Salta","address":"North 1,Ouagadougou,Burkina Faso","phones":"","fax":"","email":"","url":"","countryIso2":"BF","countryName":"Burkina Faso","hotelRating":"1","latitude":"12.3637","longitude":"-1.5201","state_id":3136,"state_name":"Centre","country_id":35}]