[{"active":false,"Giataid":"7336","cityId":null,"cityName":"Lermos","hotelId":7336,"hotelName":"Alexandra","address":"Kindergartenweg 1,6631 Lermoos,Austria","phones":"+4356732416","fax":"+4356732416","email":"office@haus-alexandra.at","url":"http://www.haus-alexandra.at","countryIso2":"AT","countryName":"Austria","hotelRating":"1","latitude":"47.4029","longitude":"10.883","state_id":null,"state_name":null,"country_id":null},{"active":false,"Giataid":"7433","cityId":null,"cityName":"Maria Alm","hotelId":7433,"hotelName":"Almhof","address":"Kreidenbachweg 5,5761 Maria Alm-Hinterthal,Austria","phones":"+4365848414","fax":"+436584841415","email":"office@almhof.co.at","url":"http://www.almhof.co.at","countryIso2":"AT","countryName":"Austria","hotelRating":"4","latitude":"47.4093","longitude":"12.9794","state_id":null,"state_name":null,"country_id":null},{"active":false,"Giataid":"7434","cityId":null,"cityName":"Galt?r","hotelId":7434,"hotelName":"Almhof","address":"6563 Galt?r,Austria","phones":"+4354438253","fax":"+435443844371","email":"almhof@huber-hotels.at","url":"http://www.huber-hotels.at/de/almhof/","countryIso2":"AT","countryName":"Austria","hotelRating":"4","latitude":"46.9667","longitude":"10.1611","state_id":null,"state_name":null,"country_id":null},{"active":false,"Giataid":"7448","cityId":null,"cityName":"Vent","hotelId":7448,"hotelName":"Kleon","address":"Venterstra?e 37,6458 Vent,Austria","phones":"+4352548101","fax":"+4352548115","email":"kleon@tirol.com","url":"","countryIso2":"AT","countryName":"Austria","hotelRating":"3","latitude":"46.8618","longitude":"10.9159","state_id":null,"state_name":null,"country_id":null},{"active":false,"Giataid":"7454","cityId":null,"cityName":"St. Anton (am Arlberg)","hotelId":7454,"hotelName":"Alpenhof","address":"Arlbergstra?e 7,6580 St. Anton am Arlberg,Austria","phones":"+4354462495","fax":"+4354462700","email":"info@alpenhof-stanton.at","url":"http://alpenhof-stanton.at/","countryIso2":"AT","countryName":"Austria","hotelRating":"3","latitude":"47.1216","longitude":"10.2497","state_id":null,"state_name":null,"country_id":null},{"active":false,"Giataid":"7458","cityId":null,"cityName":"S?lden","hotelId":7458,"hotelName":"VAYA Solden","address":"Auweg 2,6450 S?lden,Austria","phones":"+43525420096","fax":"+43525420505","email":"info@hotel-alpenland.com","url":"http://www.hotel-alpenland.com","countryIso2":"AT","countryName":"Austria","hotelRating":"4","latitude":"46.9671","longitude":"11.0081","state_id":null,"state_name":null,"country_id":null},{"active":false,"Giataid":"7459","cityId":null,"cityName":"Obergurgl","hotelId":7459,"hotelName":"Alpenland","address":"Kressbrunnenweg 6,6456 Obergurgl,Austria","phones":"+4352566337","fax":"+4352566337503","email":"info@hotelalpenland.at","url":"http://www.hotelalpenland.at/","countryIso2":"AT","countryName":"Austria","hotelRating":"4","latitude":"46.8704","longitude":"11.0286","state_id":null,"state_name":null,"country_id":null},{"active":false,"Giataid":"7462","cityId":null,"cityName":"S?lden","hotelId":7462,"hotelName":"Alpenrose","address":"Rechenaustra?e 14,6450 S?lden,Nordtirol,Austria","phones":"+4352542783","fax":"","email":"columbia@soelden.at","url":"http://www.columbia-soelden.at/","countryIso2":"AT","countryName":"Austria","hotelRating":"2","latitude":"46.9762","longitude":"11.0124","state_id":null,"state_name":null,"country_id":null},{"active":false,"Giataid":"7465","cityId":null,"cityName":"S?ll","hotelId":7465,"hotelName":"AlpenschloSSl","address":"Reit 15,6306 S?ll,Austria","phones":"+4353336400","fax":"","email":"customerservice@tiscover.com","url":"http://hotel-alpenschloessl-soell-tirol.hotelwebseite.at/","countryIso2":"AT","countryName":"Austria","hotelRating":"4","latitude":"47.5003","longitude":"12.1644","state_id":null,"state_name":null,"country_id":null},{"active":false,"Giataid":"7466","cityId":null,"cityName":"Neustift","hotelId":7466,"hotelName":"Alpenwelt","address":"Franz-Senn-Stra?e 155,6167 Neustift im Stubaital,Austria","phones":"+43512900115843","fax":"","email":"","url":"http://alpenwelt-neustift-im-stubaital-tirol.hotelwebseite.at/","countryIso2":"AT","countryName":"Austria","hotelRating":"3","latitude":"47.094","longitude":"11.2801","state_id":null,"state_name":null,"country_id":null},{"active":false,"Giataid":"7471","cityId":null,"cityName":"Scheffau","hotelId":7471,"hotelName":"Alpin","address":"Dorf 31,6351 Scheffau,Austria","phones":"+43535885560","fax":"+435358855668","email":"office@hotelalpinscheffau.at","url":"http://www.hotelalpinscheffau.at","countryIso2":"AT","countryName":"Austria","hotelRating":"3","latitude":"47.5279","longitude":"12.2506","state_id":null,"state_name":null,"country_id":null},{"active":false,"Giataid":"7474","cityId":null,"cityName":"St. Johann im Pongau","hotelId":7474,"hotelName":"ALPINA Family, Spa & Sporthotel","address":"Alpendorf 8,5600 St. Johann im Pongau,Salzburg,Austria","phones":"+4364128282","fax":"+4364128144","email":"info@alpina-alpendorf.at","url":"http://www.sporthotel-alpina.com","countryIso2":"AT","countryName":"Austria","hotelRating":"4","latitude":"47.3222","longitude":"13.196","state_id":null,"state_name":null,"country_id":null},{"active":false,"Giataid":"7565","cityId":null,"cityName":"Pertisau","hotelId":7565,"hotelName":"Entners am See","address":"Seepromenade 17-19,6213 Pertisau am Achensee,Tirol,Austria","phones":"+43524355590","fax":"+4352435985113","email":"info@strandhotel.at","url":"http://www.strandhotel.at/","countryIso2":"AT","countryName":"Austria","hotelRating":"4","latitude":"47.4408","longitude":"11.7033","state_id":null,"state_name":null,"country_id":null},{"active":false,"Giataid":"8045","cityId":null,"cityName":"St. Anton (am Arlberg)","hotelId":8045,"hotelName":"Arthur Strolz","address":"St. Jakober Dorfstra?e 27,6580 St. Anton am Arlberg,Austria","phones":"+4354462716","fax":"+435446271627","email":"","url":"","countryIso2":"AT","countryName":"Austria","hotelRating":"2","latitude":"47.1403","longitude":"10.2821","state_id":null,"state_name":null,"country_id":null},{"active":false,"Giataid":"8403","cityId":null,"cityName":"S?lden","hotelId":8403,"hotelName":"Backelarwirt","address":"Dorfstra?e 125,6450 S?lden,Tirol,Austria","phones":"+4352542183","fax":"+435254218360","email":"hotel@baeckelarwirt.at","url":"http://www.baeckelarwirt.at","countryIso2":"AT","countryName":"Austria","hotelRating":"3","latitude":"46.9584","longitude":"11.0096","state_id":null,"state_name":null,"country_id":null},{"active":false,"Giataid":"9072","cityId":null,"cityName":"S?lden","hotelId":9072,"hotelName":"Birkenhof","address":"Granbichlstr. 5,6450 S?lden,Austria","phones":"+4352542644","fax":"+4352542644500","email":"info@birkenhof-soelden.at","url":"http://www.birkenhof-soelden.at","countryIso2":"AT","countryName":"Austria","hotelRating":"3","latitude":"46.9689","longitude":"11.0105","state_id":null,"state_name":null,"country_id":null},{"active":false,"Giataid":"9322","cityId":null,"cityName":"Kitzb?hel","hotelId":9322,"hotelName":"Wellness & Sporthotel Bruggerhof","address":"Reither Stra?e 24,6370 Kitzb?hel,Austria","phones":"+43535662806","fax":"+4353566447930","email":"office@bruggerhof-camping.at","url":"http://www.bruggerhof-camping.at/home.html","countryIso2":"AT","countryName":"Austria","hotelRating":"3","latitude":"47.4591","longitude":"12.3619","state_id":null,"state_name":null,"country_id":null},{"active":false,"Giataid":"9788","cityId":null,"cityName":"Abersee","hotelId":9788,"hotelName":"Carossa","address":"Seestr. 56,5342 Abersee,Austria","phones":"+4362273001","fax":"+43622730014","email":"office@hotel-carossa.at","url":"http://www.hotel-carossa.at","countryIso2":"AT","countryName":"Austria","hotelRating":"3","latitude":"47.7301","longitude":"13.426","state_id":null,"state_name":null,"country_id":null},{"active":false,"Giataid":"10310","cityId":null,"cityName":"Thiersee","hotelId":10310,"hotelName":"Charlotte","address":"Breiten 109,6335 Thiersee,Austria","phones":"+43537655000","fax":"+4353764311","email":"info@hotel-charlotte.at","url":"http://members.aon.at/charlotte.hotel/flash/index.htm","countryIso2":"AT","countryName":"Austria","hotelRating":"4","latitude":"47.5879","longitude":"12.1257","state_id":null,"state_name":null,"country_id":null},{"active":false,"Giataid":"10431","cityId":null,"cityName":"V?sendorf","hotelId":10431,"hotelName":"Austria Trend Eventhotel Pyramide","address":"Parkallee 2,2334 V?sendorf,Nieder?sterreich,Austria","phones":"+43169900","fax":"+43169900692","email":"eventhotel.pyramide@austria-trend.at","url":"http://www.austria-trend.at/Eventhotel-Pyramide/","countryIso2":"AT","countryName":"Austria","hotelRating":"4","latitude":"48.1131","longitude":"16.3126","state_id":null,"state_name":null,"country_id":null},{"active":false,"Giataid":"11687","cityId":null,"cityName":"St. Veit a. d. Glan","hotelId":11687,"hotelName":"FuchS-Palast","address":"Professor Ernst Fuchs Platz 1,9300 St Veit an der Glan,Austria","phones":"+43421246600","fax":"+4342124660661","email":"info@hotel-fuchspalast.at","url":"http://www.hotel-fuchspalast.at","countryIso2":"AT","countryName":"Austria","hotelRating":"4","latitude":"46.7691","longitude":"14.3606","state_id":null,"state_name":null,"country_id":null},{"active":false,"Giataid":"11843","cityId":null,"cityName":"Maria W?rth","hotelId":11843,"hotelName":"Ebner","address":"Seepromenade 1,9082 Maria W?rth,Austria","phones":"+4342732283","fax":"+43427322838","email":"","url":"","countryIso2":"AT","countryName":"Austria","hotelRating":"3","latitude":"46.6151","longitude":"14.161","state_id":null,"state_name":null,"country_id":null},{"active":false,"Giataid":"11888","cityId":null,"cityName":"W?rgl","hotelId":11888,"hotelName":"Edenstrasser","address":"W?rgl,Tirol,Austria","phones":"","fax":"","email":"","url":"","countryIso2":"AT","countryName":"Austria","hotelRating":"1","latitude":"47.4775","longitude":"12.0324","state_id":null,"state_name":null,"country_id":null},{"active":false,"Giataid":"12148","cityId":null,"cityName":"Hochs?lden","hotelId":12148,"hotelName":"Enzian","address":"Hochs?ldenstra?e 7,6452 Hochs?lden,Austria","phones":"+4352542252","fax":"+4352542846","email":"info@hotel-enzian.at","url":"http://www.hotel-enzian.at","countryIso2":"AT","countryName":"Austria","hotelRating":"4","latitude":"46.9773","longitude":"10.9844","state_id":null,"state_name":null,"country_id":null},{"active":false,"Giataid":"12415","cityId":null,"cityName":"L?ngenfeld","hotelId":12415,"hotelName":"Landhaus Falkner","address":"Oberl?ngenfeld 28,6444 L?ngenfeld,Austria","phones":"+4352535453","fax":"+4352535453","email":"info@landhausfalkner.at","url":"http://www.landhausfalkner.at/","countryIso2":"AT","countryName":"Austria","hotelRating":"3","latitude":"47.0725","longitude":"10.9699","state_id":null,"state_name":null,"country_id":null},{"active":false,"Giataid":"12416","cityId":null,"cityName":"L?ngenfeld","hotelId":12416,"hotelName":"Falkneralm","address":"Unterastlehn Nr. 90 a,6444 L?ngenfeld,Austria","phones":"+4352535965","fax":"+435253596550","email":"apart@infourlaub.at","url":"http://www.ferienhotels-tirol.at/de/falkner-appartment-resort/sommer/falkneralm.html","countryIso2":"AT","countryName":"Austria","hotelRating":"2","latitude":"47.0598","longitude":"10.9583","state_id":null,"state_name":null,"country_id":null},{"active":false,"Giataid":"12487","cityId":null,"cityName":"St. Johann im Pongau","hotelId":12487,"hotelName":"Hotel Lerch","address":"Liechtensteinklammstra?e 12,5600 St Johann im Pongau,Austria","phones":"+4364124251","fax":"+436412401513","email":"info@hotel-lerch.at","url":"http://www.hotel-lerch.at/","countryIso2":"AT","countryName":"Austria","hotelRating":"4","latitude":"47.3425","longitude":"13.1987","state_id":null,"state_name":null,"country_id":null},{"active":false,"Giataid":"12974","cityId":null,"cityName":"Neustift","hotelId":12974,"hotelName":"Bergjuwel","address":"Stubaitalstrasse 50,6167 Neustift,Austria","phones":"+4352262500","fax":"","email":"info@activehotel.at","url":"http://www.bergjuwel.at/de/hotel-stubaital/bergidyll/urlaub-in-tirol/stubaital.html","countryIso2":"AT","countryName":"Austria","hotelRating":"4","latitude":"47.1151","longitude":"11.3131","state_id":null,"state_name":null,"country_id":null},{"active":false,"Giataid":"13016","cityId":null,"cityName":"W?ngle","hotelId":13016,"hotelName":"Naturhotel LechLife","address":"Holz 1a,6610 W?ngle,Austria","phones":"+43567264234","fax":"+4356726423420","email":"hotel@fuerstenhof.at","url":"http://www.fuerstenhof.at","countryIso2":"AT","countryName":"Austria","hotelRating":"4","latitude":"47.4816","longitude":"10.6807","state_id":null,"state_name":null,"country_id":null},{"active":false,"Giataid":"13051","cityId":null,"cityName":"S?lden","hotelId":13051,"hotelName":"Gaislachalm","address":"Gaislach 18,6450 S?lden,Tirol,Austria","phones":"+4352542914","fax":"+43525427588","email":"info@gaislachalm.com","url":"http://www.hotel-alpenland.com/17.0.html","countryIso2":"AT","countryName":"Austria","hotelRating":"3","latitude":"46.9344","longitude":"10.9985","state_id":null,"state_name":null,"country_id":null},{"active":false,"Giataid":"13144","cityId":null,"cityName":"Weissensee","hotelId":13144,"hotelName":"Hotel Moser","address":"Techendorf 17,9762 Weissensee,K?rnten,Austria","phones":"+43471322310","fax":"+4347132250","email":"info@hotel-moser.at","url":"http://www.hotel-moser.at/","countryIso2":"AT","countryName":"Austria","hotelRating":"4","latitude":"46.7172","longitude":"13.2952","state_id":null,"state_name":null,"country_id":null},{"active":false,"Giataid":"13146","cityId":null,"cityName":"Hellmons?dt","hotelId":13146,"hotelName":"Gasthof Post","address":"Marktplatz 5,4202 Hellmons?dt,Ober?sterreich,Austria","phones":"+4372152250","fax":"","email":"office@gasthofpo.st","url":"http://gasthofpo.st","countryIso2":"AT","countryName":"Austria","hotelRating":"3","latitude":"48.4315","longitude":"14.2994","state_id":null,"state_name":null,"country_id":null},{"active":false,"Giataid":"13147","cityId":null,"cityName":"L?ngenfeld","hotelId":13147,"hotelName":"Gasthof Stern","address":"Oberl?ngenfeld 1,6444 L?ngenfeld,Austria","phones":"+4352535226","fax":"+435253522650","email":"info@hotel-stern.com","url":"http://www.hotel-stern.com","countryIso2":"AT","countryName":"Austria","hotelRating":"4","latitude":"47.0724","longitude":"10.971","state_id":null,"state_name":null,"country_id":null},{"active":false,"Giataid":"13547","cityId":null,"cityName":"S?lden","hotelId":13547,"hotelName":"Grauer Bar","address":"Dorfstra?e 172,6450 S?lden,Austria","phones":"+4352542564","fax":"+435254256466","email":"info@grauer-baer.com","url":"http://www.grauer-baer.com/php/","countryIso2":"AT","countryName":"Austria","hotelRating":"4","latitude":"46.9577","longitude":"11.0099","state_id":null,"state_name":null,"country_id":null},{"active":false,"Giataid":"13837","cityId":null,"cityName":"Obertraun","hotelId":13837,"hotelName":"Haus Am See","address":"Obertraun 169,4831 Obertraun,Salzburger Land,Austria","phones":"+43613126777","fax":"+43613126788","email":"hotel-hausamsee@aon.at","url":"http://www.hotel-hausamsee.at/home/","countryIso2":"AT","countryName":"Austria","hotelRating":"3","latitude":"47.5597","longitude":"13.6781","state_id":null,"state_name":null,"country_id":null},{"active":false,"Giataid":"13887","cityId":null,"cityName":"Heiligenblut am Gro?glockner","hotelId":13887,"hotelName":"Hunguest Hotel Heiligenblut","address":"Winkl 46,9844 Heiligenblut,K?rnten,Austria","phones":"+4348244111","fax":"+434824411188","email":"office@hotel-heiligenblut.at","url":"http://www.hotel-heiligenblut.at/en/home/","countryIso2":"AT","countryName":"Austria","hotelRating":"4","latitude":"47.0401","longitude":"12.8365","state_id":null,"state_name":null,"country_id":null},{"active":false,"Giataid":"13892","cityId":null,"cityName":"F?gen","hotelId":13892,"hotelName":"Sport- und Wellnesshotel Held","address":"Kleinbodenerstrasse 6,6263 F?gen,Zillertal,Austria","phones":"+43528862386","fax":"+435288623867","email":"reservierung@held.at","url":"http://www.held.at","countryIso2":"AT","countryName":"Austria","hotelRating":"4","latitude":"47.3346","longitude":"11.8549","state_id":null,"state_name":null,"country_id":null},{"active":false,"Giataid":"14067","cityId":null,"cityName":"Bruck an der Glocknerstrasse","hotelId":14067,"hotelName":"Parkhotel am GroSSglockner","address":"Glocknerstrasse 51,5671 Bruck an der Glocknerstrasse,Salzburger Land,Austria","phones":"+4365457240","fax":"+436545724046","email":"glockner@hotel-hoellern.at","url":"http://www.hotel-hoellern.at","countryIso2":"AT","countryName":"Austria","hotelRating":"3","latitude":"47.2718","longitude":"12.8257","state_id":null,"state_name":null,"country_id":null},{"active":false,"Giataid":"14079","cityId":null,"cityName":"Obergurgl","hotelId":14079,"hotelName":"Hohenfels","address":"Gurglerstra?e 92,6456 Obergurgl,Nordtirol,Austria","phones":"+4352566281","fax":"+435256628111","email":"info@pension-hohenfels.com","url":"http://www.pension-hohenfels.com/","countryIso2":"AT","countryName":"Austria","hotelRating":"3","latitude":"46.8747","longitude":"11.0316","state_id":null,"state_name":null,"country_id":null},{"active":false,"Giataid":"14448","cityId":null,"cityName":"Hochpillberg","hotelId":14448,"hotelName":"Hubertus","address":"Pillbergstra?e 191,6136 Hochpillberg,Nordtirol,Austria","phones":"+43524262472","fax":"+435242624724","email":"info@alpenhof-hubertus.at","url":"http://www.alpenhof-hubertus.at/","countryIso2":"AT","countryName":"Austria","hotelRating":"3","latitude":"47.3185","longitude":"11.722","state_id":null,"state_name":null,"country_id":null},{"active":false,"Giataid":"14985","cityId":null,"cityName":"St. Johann im Pongau","hotelId":14985,"hotelName":"Pension Jagdhof","address":"Liechtensteinklammstrasse 51,5600 St. Johann im Pongau,Austria","phones":"+43641260930","fax":"+43641260931","email":"pension.jagdhof@sbg.at","url":"http://www.pension-jagdhof.at","countryIso2":"AT","countryName":"Austria","hotelRating":"4","latitude":"47.3293","longitude":"13.1947","state_id":null,"state_name":null,"country_id":null},{"active":false,"Giataid":"15247","cityId":null,"cityName":"Pertisau","hotelId":15247,"hotelName":"Karlwirt","address":"Golfplatzstra?e 1,6213 Pertisau am Achensee,Austria","phones":"+4352435206","fax":"+4352435967","email":"info@hotelkarlwirt.at","url":"http://www.hotelkarlwirt.at/","countryIso2":"AT","countryName":"Austria","hotelRating":"3","latitude":"47.4389","longitude":"11.6912","state_id":null,"state_name":null,"country_id":null},{"active":false,"Giataid":"15402","cityId":null,"cityName":"Kaunertal","hotelId":15402,"hotelName":"Kirchenhof","address":"NULL","phones":"","fax":"","email":"","url":"","countryIso2":"AT","countryName":"Austria","hotelRating":"4","latitude":"47.0334","longitude":"10.748","state_id":null,"state_name":null,"country_id":null},{"active":false,"Giataid":"15524","cityId":null,"cityName":"Baden by Vienna","hotelId":15524,"hotelName":"Krainerhutte","address":"Helenental 41,2500 Baden,Wien,Austria","phones":"+43225244511","fax":"+43225244514","email":"office@krainerhuette.at","url":"http://www.krainerhuette.at/","countryIso2":"AT","countryName":"Austria","hotelRating":"4","latitude":"48.0228","longitude":"16.1657","state_id":null,"state_name":null,"country_id":null},{"active":false,"Giataid":"15845","cityId":null,"cityName":"Lermos","hotelId":15845,"hotelName":"Larchenhof","address":"Gries 16,6631 Lermoos,Nordtirol,Austria","phones":"+4356732197","fax":"+43567321975","email":"info@laerchenhof-lermoos.at","url":"http://www.laerchenhof-lermoos.at/","countryIso2":"AT","countryName":"Austria","hotelRating":"4","latitude":"47.407","longitude":"10.8692","state_id":null,"state_name":null,"country_id":null},{"active":false,"Giataid":"16816","cityId":null,"cityName":"S?lden","hotelId":16816,"hotelName":"Marcell","address":"Lochlehnstra?e 11,6450 S?lden,Austria","phones":"+4352542122","fax":"+43525421225","email":"info@marcell.at","url":"http://www.marcell.at","countryIso2":"AT","countryName":"Austria","hotelRating":"3","latitude":"46.978","longitude":"11.008","state_id":null,"state_name":null,"country_id":null},{"active":false,"Giataid":"16878","cityId":null,"cityName":"Kitzb?hel","hotelId":16878,"hotelName":"Q! Hotel Maria Theresia","address":"Bichlstra?e 15,6370 Kitzb?hel,Austria","phones":"+43535664711","fax":"+43535674440","email":"q-kitzbuehel@loock-hotels.com","url":"http://www.hotel-maria-theresia.at","countryIso2":"AT","countryName":"Austria","hotelRating":"4","latitude":"47.4445","longitude":"12.3938","state_id":null,"state_name":null,"country_id":null},{"active":false,"Giataid":"17090","cityId":null,"cityName":"Dombim","hotelId":17090,"hotelName":"Vienna House Martinspark Dornbirn","address":"Mozartstrasse 2,6850 Dornbirn,Austria","phones":"+4355723760","fax":"+4355723760376","email":"info@martinspark.at","url":"http://www.martinspark.at","countryIso2":"AT","countryName":"Austria","hotelRating":"4","latitude":"47.4134","longitude":"9.74","state_id":null,"state_name":null,"country_id":null},{"active":false,"Giataid":"17700","cityId":null,"cityName":"St. Anton (am Arlberg)","hotelId":17700,"hotelName":"Montjola","address":"Gastigweg 25/29,6580 St. Anton am Arlberg,Tirol,Austria","phones":"+4354462302","fax":"+43544623029","email":"info@montjola.com","url":"http://www.montjola.com/","countryIso2":"AT","countryName":"Austria","hotelRating":"4","latitude":"47.1259","longitude":"10.2577","state_id":null,"state_name":null,"country_id":null},{"active":false,"Giataid":"17974","cityId":null,"cityName":"Maria Alm","hotelId":17974,"hotelName":"Niederreiter","address":"Oberdorf 6,5761 Maria Alm,Salzburger Land,Austria","phones":"+4365847754","fax":"+436584775456","email":"info@niederreiter.com","url":"http://www.niederreiter.com/pages/de/home.php","countryIso2":"AT","countryName":"Austria","hotelRating":"3","latitude":"47.407","longitude":"12.906","state_id":null,"state_name":null,"country_id":null},{"active":false,"Giataid":"18287","cityId":null,"cityName":"S?lden","hotelId":18287,"hotelName":"Regina's Apart","address":"Lochlehnstrasse 15,6450 S?lden,Nordtirol,Austria","phones":"+4352542301","fax":"+435254265370","email":"office@hotel-regina.com","url":"http://www.appartement-soelden.com/unterkunft.html","countryIso2":"AT","countryName":"Austria","hotelRating":"3","latitude":"46.978","longitude":"11.008","state_id":null,"state_name":null,"country_id":null},{"active":false,"Giataid":"18628","cityId":null,"cityName":"St. Stefan","hotelId":18628,"hotelName":"Panorama Binter","address":"Matschiedl 4,9623 St. Stefan im Gailtal,Austria","phones":"+43428321370","fax":"+4342822301","email":"binter@appartement-binter.at","url":"","countryIso2":"AT","countryName":"Austria","hotelRating":"1","latitude":"46.6291","longitude":"13.5365","state_id":null,"state_name":null,"country_id":null},{"active":false,"Giataid":"18936","cityId":null,"cityName":"St. Wolfgang","hotelId":18936,"hotelName":"Landhaus Gertrud","address":"Ried 43,5360 St. Wolfgang,Austria","phones":"+4361382273","fax":"+436138227330","email":"office@landhaus-gertrud.at","url":"http://www.landhaus-gertrud.at/index.htm","countryIso2":"AT","countryName":"Austria","hotelRating":"3","latitude":"47.7438","longitude":"13.4314","state_id":null,"state_name":null,"country_id":null},{"active":false,"Giataid":"19490","cityId":null,"cityName":"St. Kanzian","hotelId":19490,"hotelName":"Strandhotel Marolt","address":"Am See V/2,Klopeiner See,9122 Sankt Kanzian am Klopeiner See,K?rnten,Austria","phones":"+4342392236","fax":"+434239223510","email":"mail@hotel-marolt.at","url":"http://www.hotel-marolt.at","countryIso2":"AT","countryName":"Austria","hotelRating":"4","latitude":"46.6084","longitude":"14.5777","state_id":null,"state_name":null,"country_id":null},{"active":false,"Giataid":"19967","cityId":null,"cityName":"S?lden","hotelId":19967,"hotelName":"Rechenau","address":"Rechenaustra?e 1,6450 S?lden,Austria","phones":"+4352543192","fax":"+435254319230","email":"info@rechenau.at","url":"http://www.appartement-rechenau.at","countryIso2":"AT","countryName":"Austria","hotelRating":"3","latitude":"46.9768","longitude":"11.0123","state_id":null,"state_name":null,"country_id":null},{"active":false,"Giataid":"20160","cityId":null,"cityName":"St. Wolfgang","hotelId":20160,"hotelName":"Apparthotel St. Wolfgang","address":"Markt 4,5360 St. Wolfgang,Austria","phones":"+4361382329","fax":"","email":"info@apparthotel-stwolfgang.at","url":"http://www.apparthotel-stwolfgang.at","countryIso2":"AT","countryName":"Austria","hotelRating":"3","latitude":"47.7388","longitude":"13.4474","state_id":null,"state_name":null,"country_id":null},{"active":false,"Giataid":"20335","cityId":null,"cityName":"K?ssen","hotelId":20335,"hotelName":"Riedl","address":"Bichlach 10,6345 K?ssen,Tirol,Austria","phones":"+4353756268","fax":"+4353756040","email":"hotel@hotelriedl.at","url":"http://www.hotelriedl.at","countryIso2":"AT","countryName":"Austria","hotelRating":"4","latitude":"47.6503","longitude":"12.3733","state_id":null,"state_name":null,"country_id":null},{"active":false,"Giataid":"20574","cityId":null,"cityName":"St. Anton (am Arlberg)","hotelId":20574,"hotelName":"Roman Siess","address":"Landauerweg 5,6580 St. Anton am Arlberg,Austria","phones":"+4354462643","fax":"+43544626434","email":"","url":"","countryIso2":"AT","countryName":"Austria","hotelRating":"1","latitude":"47.1425","longitude":"10.302","state_id":null,"state_name":null,"country_id":null},{"active":false,"Giataid":"20631","cityId":null,"cityName":"S?lden","hotelId":20631,"hotelName":"Appartements Rosmarie / Haus Reinhard","address":"Sonnleithenweg 5,6450 S?lden,Austria","phones":"+4352543214","fax":"+435254321430","email":"info@rosmarie.com","url":"","countryIso2":"AT","countryName":"Austria","hotelRating":"3","latitude":"46.9789","longitude":"11.006","state_id":null,"state_name":null,"country_id":null},{"active":false,"Giataid":"20891","cityId":null,"cityName":"Dienten","hotelId":20891,"hotelName":"Salzburg","address":"B?rglalmweg 6,5652 Dienten am Hochk?nig,Salzburger Land,Austria","phones":"+436461434","fax":"+43646143415","email":"office@landhaus-salzburg.at","url":"http://www.landhaus-salzburg.at/","countryIso2":"AT","countryName":"Austria","hotelRating":"4","latitude":"47.3852","longitude":"13.0166","state_id":null,"state_name":null,"country_id":null},{"active":false,"Giataid":"20895","cityId":null,"cityName":"Dienten","hotelId":20895,"hotelName":"Hotel Salzburger Hof ","address":"Dorf 6,5652 Dienten am Hochk?nig,Austria","phones":"+4364612170","fax":"+43646121731","email":"hotel@salzburger-hof.at","url":"http://www.salzburger-hof.at/","countryIso2":"AT","countryName":"Austria","hotelRating":"3","latitude":"47.3792","longitude":"13.0021","state_id":null,"state_name":null,"country_id":null},{"active":false,"Giataid":"21352","cityId":null,"cityName":"St. Wolfgang","hotelId":21352,"hotelName":"Seebad","address":"Dr. Rais-Promenade 204,5360 St. Wolfgang,Austria","phones":"+4361388014","fax":"+43613880144","email":"linortner@EUnet.at","url":"","countryIso2":"AT","countryName":"Austria","hotelRating":"3","latitude":"47.7365","longitude":"13.4517","state_id":null,"state_name":null,"country_id":null},{"active":false,"Giataid":"21353","cityId":null,"cityName":"Seewiesen","hotelId":21353,"hotelName":"Seeberghof","address":"Seewiesen 45,8636 Seewiesen,Steiermark,Austria","phones":"+4338638115","fax":"","email":"office@seeberghof.at","url":"http://www.seeberghof.at","countryIso2":"AT","countryName":"Austria","hotelRating":"4","latitude":"47.6182","longitude":"15.2714","state_id":null,"state_name":null,"country_id":null},{"active":false,"Giataid":"21380","cityId":null,"cityName":"St. Wolfgang","hotelId":21380,"hotelName":"Seerose","address":"Markt 114,5360 St. Wolfgang,Austria","phones":"","fax":"","email":"","url":"","countryIso2":"AT","countryName":"Austria","hotelRating":"3","latitude":"47.7399","longitude":"13.443","state_id":null,"state_name":null,"country_id":null},{"active":false,"Giataid":"21936","cityId":null,"cityName":"Sankt Martin am Tennengebirge","hotelId":21936,"hotelName":"Sonnbichl","address":"Mesnerbauerweg 176,5522 St. Martin am Tennengebirge,Austria","phones":"+4364637337","fax":"","email":"","url":"http://sonnbichl.promotion3.com/component/option,com_frontpage/Itemid,1/lang,de/","countryIso2":"AT","countryName":"Austria","hotelRating":"3","latitude":"47.4641","longitude":"13.3829","state_id":null,"state_name":null,"country_id":null},{"active":false,"Giataid":"21956","cityId":null,"cityName":"Sattendorf","hotelId":21956,"hotelName":"Sonnenhugel","address":"Sonnenh?gel 1,Dorfstrasse 12,9520 Sattendorf,Ossiacher See,Austria","phones":"+43424823110","fax":"+43424823114","email":"hotel@sonnenhuegel.com","url":"http://www.tiscover.at/at/guide/57389at,de/objectId,ACC166895at/home.html","countryIso2":"AT","countryName":"Austria","hotelRating":"4","latitude":"46.6656","longitude":"13.9231","state_id":null,"state_name":null,"country_id":null},{"active":false,"Giataid":"21966","cityId":null,"cityName":"Maria Alm","hotelId":21966,"hotelName":"Sonnrain","address":"Maria Alm am Steinernen Meer,Salzburger Land,Austria","phones":"","fax":"","email":"info@sonnrain.net","url":"http://www.sonnrain.net/index_static_summer_en.html","countryIso2":"AT","countryName":"Austria","hotelRating":"3","latitude":"47.4053","longitude":"12.899","state_id":null,"state_name":null,"country_id":null},{"active":false,"Giataid":"22043","cityId":null,"cityName":"S?lden","hotelId":22043,"hotelName":"Sportalm","address":"Oberwindaustra?e 1,6450 S?lden,Austria","phones":"+436505275111","fax":"","email":"info@sportalm-soelden.at","url":"http://www.sportalm-soelden.at","countryIso2":"AT","countryName":"Austria","hotelRating":"3","latitude":"46.9584","longitude":"11.0126","state_id":null,"state_name":null,"country_id":null},{"active":false,"Giataid":"22363","cityId":null,"cityName":"St. Johann","hotelId":22363,"hotelName":"Goldener Lowe","address":"Speckbacherstra?e 23,6380 St. Johann,Austria","phones":"+43535262251","fax":"+43535262981","email":"","url":"http://www.trivago.de/st.-johann-in-tirol-44116/hotel/goldener-loewe-101712","countryIso2":"AT","countryName":"Austria","hotelRating":"3","latitude":"47.5206","longitude":"12.4266","state_id":null,"state_name":null,"country_id":null},{"active":false,"Giataid":"22527","cityId":null,"cityName":"L?ngenfeld","hotelId":22527,"hotelName":"Appartementhaus Langenfeld","address":"Oberl?ngenfeld 101,6444 L?ngenfeld,Austria","phones":"+43525365055","fax":"","email":"info@tamerl.com","url":"http://www.tamerl.com","countryIso2":"AT","countryName":"Austria","hotelRating":"3","latitude":"47.0664","longitude":"10.9675","state_id":null,"state_name":null,"country_id":null},{"active":false,"Giataid":"23126","cityId":null,"cityName":"Feichten","hotelId":23126,"hotelName":"Hotel Tia Monte","address":"Grasse 226,6524 Feichten im Kaunertal,Austria","phones":"+435475371","fax":"+43547537150","email":"tiamonte@aon.at","url":"http://www.ferienhotels-tirol.at/de/hotel-tia-monte/sommer/hotel/willkommen.html","countryIso2":"AT","countryName":"Austria","hotelRating":"3","latitude":"47.0231","longitude":"10.7426","state_id":null,"state_name":null,"country_id":null},{"active":false,"Giataid":"23166","cityId":null,"cityName":"Erpendorf","hotelId":23166,"hotelName":"Tirolerhof","address":"Schleiffergasse 4,6383 Erpfendorf,Tirol,Austria","phones":"+4353528152","fax":"+435352815277","email":"tirolerhof@erpfendorf.com","url":"http://www.tirolerhof.erpfendorf.com","countryIso2":"AT","countryName":"Austria","hotelRating":"3","latitude":"47.5764","longitude":"12.4794","state_id":null,"state_name":null,"country_id":null},{"active":false,"Giataid":"23167","cityId":null,"cityName":"St. Johann","hotelId":23167,"hotelName":"Tirolerhof","address":"Hinterkaiserweg 29,6380 St. Johann,Tirol,Austria","phones":"+43535262151","fax":"+4353526215148","email":"","url":"http://www.familienhotel-tirolerhof.at","countryIso2":"AT","countryName":"Austria","hotelRating":"3","latitude":"47.5255","longitude":"12.4151","state_id":null,"state_name":null,"country_id":null},{"active":false,"Giataid":"23470","cityId":null,"cityName":"S?lden","hotelId":23470,"hotelName":"Tyrolerhof","address":"Dorfstra?e 70,6450 S?lden,Nordtirol,Austria","phones":"+4352542288","fax":"+4352542833","email":"info@tyrolerhof-soelden.at","url":"http://www.tyrolerhof-soelden.com/","countryIso2":"AT","countryName":"Austria","hotelRating":"4","latitude":"46.9699","longitude":"11.0081","state_id":null,"state_name":null,"country_id":null},{"active":false,"Giataid":"23479","cityId":null,"cityName":"S?lden","hotelId":23479,"hotelName":"Ulli's Ferienheim","address":"Alpenweg 4,6450 S?lden,Austria","phones":"+4352542252","fax":"+4352542846","email":"info@hotel-enzian.at","url":"http://www.hotel-enzian.at/de/appartement.phphttp://www.tiscover.com/at/guide/5,de/objectId,STP486462at,parentId,ACC9199at,season,at1,selectedEntry,holiapart,serviceId,STS124891FEat/intern.html","countryIso2":"AT","countryName":"Austria","hotelRating":"1","latitude":"46.9742","longitude":"11.0102","state_id":null,"state_name":null,"country_id":null},{"active":false,"Giataid":"23604","cityId":null,"cityName":"S?lden","hotelId":23604,"hotelName":"Gasteheim Veit Fiegl","address":"Rettenbachlweg 1,6450 S?lden,Austria","phones":"+4352542463","fax":"+4352542463","email":"info@veit-fiegl.at","url":"http://gaesteheim-veit-fiegl-soelden-tirol.hotelwebseite.at/","countryIso2":"AT","countryName":"Austria","hotelRating":"2","latitude":"46.9657","longitude":"11.0022","state_id":null,"state_name":null,"country_id":null},{"active":false,"Giataid":"24213","cityId":null,"cityName":"Geinberg","hotelId":24213,"hotelName":"Therme Geinberg Spa Resort ","address":"Thermenplatz 1,4943 Geinberg,Austria","phones":"+4377238500","fax":"+4377238500999","email":"reservierung@therme-geinberg.at","url":"http://www.therme-geinberg.at/de/vitalhotel/index.aspx","countryIso2":"AT","countryName":"Austria","hotelRating":"4","latitude":"48.2631","longitude":"13.2981","state_id":null,"state_name":null,"country_id":null},{"active":false,"Giataid":"24302","cityId":null,"cityName":"G?stling/Ybbs","hotelId":24302,"hotelName":"Waldesruh","address":"Steinbachmauer 5,3345 G?stling,Ybbs,Austria","phones":"+43748422750","fax":"+437484227540","email":"info@hotel-waldesruh.at","url":"http://www.hotel-waldesruh.at","countryIso2":"AT","countryName":"Austria","hotelRating":"4","latitude":"47.8184","longitude":"14.9771","state_id":null,"state_name":null,"country_id":null},{"active":false,"Giataid":"24305","cityId":null,"cityName":"Scheffau","hotelId":24305,"hotelName":"Waldhof","address":"6351 Scheffau am Wilder Kaiser,Nordtirol,Austria","phones":"+4353588122","fax":"+43535884345","email":"office@waldhof.info","url":"http://www.waldhof.info","countryIso2":"AT","countryName":"Austria","hotelRating":"3","latitude":"47.5202","longitude":"12.2526","state_id":null,"state_name":null,"country_id":null},{"active":false,"Giataid":"24318","cityId":null,"cityName":"P?rtschach","hotelId":24318,"hotelName":"Wallerwirt","address":"T?schling 96,9212 Techelsberg am W?rthersee,Austria","phones":"+4342722316","fax":"+434272231676","email":"wallerwirt@werzers.at","url":"http://werzers.at/de-werzers-seehotel-wallerwirt.htm","countryIso2":"AT","countryName":"Austria","hotelRating":"4","latitude":"46.6326","longitude":"14.1118","state_id":null,"state_name":null,"country_id":null},{"active":false,"Giataid":"24364","cityId":null,"cityName":"Vent","hotelId":24364,"hotelName":"Weisskugel","address":"Venterstra?e 36,6458 Vent,Austria","phones":"+4352548194","fax":"+435254816644","email":"info@weisskugel.com","url":"http://www.weisskugel.com","countryIso2":"AT","countryName":"Austria","hotelRating":"3","latitude":"46.8616","longitude":"10.9152","state_id":null,"state_name":null,"country_id":null},{"active":false,"Giataid":"24444","cityId":null,"cityName":"S?lden","hotelId":24444,"hotelName":"Wieser Apart Hotel Garni","address":"Panoramstra?e 33,6450 S?lden,Austria","phones":"+4352542598","fax":"+43525425984","email":"info@hotel-wieser.com","url":"http://www.hotel-wieser.com/","countryIso2":"AT","countryName":"Austria","hotelRating":"3","latitude":"46.9726","longitude":"11.004","state_id":null,"state_name":null,"country_id":null},{"active":false,"Giataid":"24490","cityId":null,"cityName":"Galt?r","hotelId":24490,"hotelName":"Wirlerhof","address":"Hausnr 8A,6563 Galt?r,Tirol,Austria","phones":"+4354438231","fax":"+435443823159","email":"wirlerhof@huber-hotels.at","url":"http://www.huber-hotels.at/de/die-huber-hotels/hotel-wirler-hof/der-wirler-hof.html","countryIso2":"AT","countryName":"Austria","hotelRating":"4","latitude":"46.9654","longitude":"10.1634","state_id":null,"state_name":null,"country_id":null},{"active":false,"Giataid":"24791","cityId":null,"cityName":"Afritz am See","hotelId":24791,"hotelName":"Berghof","address":"Schwarzseeweg 1,9542 Verditz-Afritz am See,Austria","phones":"+4342472181","fax":"+4369917163322","email":"info@vitalhotel-berghof.at","url":"http://www.vitalhotel-berghof.at","countryIso2":"AT","countryName":"Austria","hotelRating":"3","latitude":"46.7212","longitude":"13.8018","state_id":null,"state_name":null,"country_id":null},{"active":false,"Giataid":"24809","cityId":null,"cityName":"Bruck an der Glocknerstrasse","hotelId":24809,"hotelName":"Lukasmayr","address":"Zeller Stra?e 1,5671 Bruck,Salzburger Land,Austria","phones":"+4365457317","fax":"+4365457317444","email":"hotel@lukasmayr.at","url":"http://www.lukasmayr.at","countryIso2":"AT","countryName":"Austria","hotelRating":"3","latitude":"47.2875","longitude":"12.8242","state_id":null,"state_name":null,"country_id":null},{"active":false,"Giataid":"24810","cityId":null,"cityName":"D?briach","hotelId":24810,"hotelName":"Burgstaller","address":"Seestrasse 6,9873 D?briach,K?rnten,Austria","phones":"+4342467126","fax":"+434246712650","email":"info@familiengut.at","url":"http://www.familiengut.at","countryIso2":"AT","countryName":"Austria","hotelRating":"4","latitude":"46.7816","longitude":"13.6568","state_id":null,"state_name":null,"country_id":null},{"active":false,"Giataid":"24811","cityId":null,"cityName":"D?briach","hotelId":24811,"hotelName":"Hotel zur Post & Appartementhaus Kern","address":"Hauptstra?e 58,9873 D?briach,K?rnten,Austria","phones":"+43424677130","fax":"+43424670279","email":"info@hotelzurpost.co.at","url":"http://www.hotelzurpost.co.at","countryIso2":"AT","countryName":"Austria","hotelRating":"3","latitude":"46.7824","longitude":"13.6575","state_id":null,"state_name":null,"country_id":null},{"active":false,"Giataid":"24822","cityId":null,"cityName":"Kaunertal","hotelId":24822,"hotelName":"Bergland","address":"Nufels 8,6524 Kaunertal,Austria","phones":"+4354752280","fax":"+4354752283","email":"hotel-bergland@hafele.info","url":"http://www.hafele.info/","countryIso2":"AT","countryName":"Austria","hotelRating":"3","latitude":"47.0604","longitude":"10.7515","state_id":null,"state_name":null,"country_id":null},{"active":false,"Giataid":"24823","cityId":null,"cityName":"Kaunertal","hotelId":24823,"hotelName":"Kirchenwirt","address":"Feichten 140,6524 Feichten im Kaunertal,Austria","phones":"+435475381","fax":"+43547538150","email":"info@kirchenwirt.com","url":"http://www.kirchenwirt.com","countryIso2":"AT","countryName":"Austria","hotelRating":"3","latitude":"47.0296","longitude":"10.7475","state_id":null,"state_name":null,"country_id":null},{"active":false,"Giataid":"24890","cityId":null,"cityName":"F?gen","hotelId":24890,"hotelName":"Gartenhotel Crystal beauty & spa","address":"Hochf?gener Stra?e 63,6263 F?gen,Austria","phones":"+43528862425","fax":"+43528862426","email":"info@gartenhotel-crystal.at","url":"http://www.gartenhotel-crystal.at/","countryIso2":"AT","countryName":"Austria","hotelRating":"4","latitude":"47.341","longitude":"11.845","state_id":null,"state_name":null,"country_id":null},{"active":false,"Giataid":"24891","cityId":null,"cityName":"F?gen","hotelId":24891,"hotelName":"Bruno","address":"Haidach 23,6263 F?gen im Zillertal,Nordtirol,Austria","phones":"+43528862460","fax":"+43528863035","email":"info@hotelbruno.at","url":"http://www.hotelbruno.at/e_index.htm","countryIso2":"AT","countryName":"Austria","hotelRating":"4","latitude":"47.3421","longitude":"11.8421","state_id":null,"state_name":null,"country_id":null},{"active":false,"Giataid":"24892","cityId":null,"cityName":"F?gen","hotelId":24892,"hotelName":"SCOL Hotel Zillertal","address":"Dorfplatz 14,6263 F?gen im Zillertal,Tirol,Austria","phones":"+43528863212","fax":"+4352886321414","email":"info@hotelpostfuegen.at","url":"http://hotelpostfuegen.at","countryIso2":"AT","countryName":"Austria","hotelRating":"4","latitude":"47.3462","longitude":"11.8481","state_id":null,"state_name":null,"country_id":null},{"active":false,"Giataid":"24893","cityId":null,"cityName":"F?gen","hotelId":24893,"hotelName":"Malerhaus","address":"Bahnhofstrasse 2,6263 F?gen im Zillertal,Austria","phones":"+43528862278","fax":"+4352886227822","email":"hotel@malerhaus.at","url":"http://www.malerhaus.at","countryIso2":"AT","countryName":"Austria","hotelRating":"4","latitude":"47.3447","longitude":"11.8525","state_id":null,"state_name":null,"country_id":null},{"active":false,"Giataid":"24894","cityId":null,"cityName":"F?gen","hotelId":24894,"hotelName":"Hotel Kohlerhof","address":"Hochf?gener Stra?e 84,6263 F?gen,Nordtirol,Austria","phones":"+43528862962","fax":"+43528864130","email":"info@kohlerhof.com","url":"http://www.kohlerhof.at","countryIso2":"AT","countryName":"Austria","hotelRating":"4","latitude":"47.3396","longitude":"11.8434","state_id":null,"state_name":null,"country_id":null},{"active":false,"Giataid":"24895","cityId":null,"cityName":"F?genberg","hotelId":24895,"hotelName":"Hotel Hubertus","address":"Hochf?generstra?e 135,6264 F?genberg im Zillertal,Austria","phones":"+43528862494","fax":"+43528863660","email":"info@hubertus-zillertal.com","url":"http://www.hubertus-zillertal.com","countryIso2":"AT","countryName":"Austria","hotelRating":"3","latitude":"47.3396","longitude":"11.8437","state_id":null,"state_name":null,"country_id":null},{"active":false,"Giataid":"24898","cityId":null,"cityName":"Fusch an der Grossglocknerstrasse","hotelId":24898,"hotelName":"Hotel Romerhof","address":"Zeller Fusch 77,5672 Fusch,Austria","phones":"+4365462180","fax":"+43654621816","email":"hotel@roemerhof-fusch.at","url":"http://www.roemerhof-fusch.at","countryIso2":"AT","countryName":"Austria","hotelRating":"3","latitude":"47.2274","longitude":"12.8266","state_id":null,"state_name":null,"country_id":null},{"active":false,"Giataid":"24902","cityId":null,"cityName":"Galt?r","hotelId":24902,"hotelName":"Alpenrose","address":"Galt?r 76,6563 Galt?r,Austria","phones":"+4354438201","fax":"+4354438325","email":"alpenrose@clubdorf.at","url":"http://www.alpenrose-galtuer.at","countryIso2":"AT","countryName":"Austria","hotelRating":"3","latitude":"46.9701","longitude":"10.1917","state_id":null,"state_name":null,"country_id":null},{"active":false,"Giataid":"24899","cityId":null,"cityName":"Galt?r","hotelId":24899,"hotelName":"Fluchthorn","address":"6563 Galt?r,Nordtirol,Austria","phones":"+4354438202","fax":"+43544383005","email":"fluchthorn@huber-hotels.at","url":"http://www.huber-hotels.at/de/fluchthorn/willkommen/im-neuen-fluchthorn/","countryIso2":"AT","countryName":"Austria","hotelRating":"4","latitude":"46.9687","longitude":"10.188","state_id":null,"state_name":null,"country_id":null},{"active":false,"Giataid":"24901","cityId":null,"cityName":"Galt?r","hotelId":24901,"hotelName":"Tirol","address":"Galt?r 68,6563 Galt?r,Tirol,Austria","phones":"+4354438206","fax":"+4354438506","email":"alpenhotel-tirol@netway.at","url":"http://www.alpenhotel-tirol.com/","countryIso2":"AT","countryName":"Austria","hotelRating":"4","latitude":"46.9686","longitude":"10.1893","state_id":null,"state_name":null,"country_id":null},{"active":false,"Giataid":"24907","cityId":null,"cityName":"Hinterthal","hotelId":24907,"hotelName":"Marco Polo Alpina","address":"Kreidenbachweg 6,Maria Alm,5761 Hinterthal,Salzburger Land,Austria","phones":"+43658481810","fax":"+436584818155","email":"office@alpina-hinterthal.at","url":"http://www.alpina-hinterthal.at","countryIso2":"AT","countryName":"Austria","hotelRating":"4","latitude":"47.4092","longitude":"12.9801","state_id":null,"state_name":null,"country_id":null},{"active":false,"Giataid":"24916","cityId":null,"cityName":"Heiligenblut am Gro?glockner","hotelId":24916,"hotelName":"Hotel Post","address":"Hof 1,9844 Heiligenblut,Austria","phones":"+4348242245","fax":"+434824224581","email":"info@landhotel-post.com","url":"http://www.landhotel-post.com","countryIso2":"AT","countryName":"Austria","hotelRating":"4","latitude":"47.0403","longitude":"12.8405","state_id":null,"state_name":null,"country_id":null},{"active":false,"Giataid":"24918","cityId":null,"cityName":"Heiligenblut am Gro?glockner","hotelId":24918,"hotelName":"Gletscherblick","address":"Hof 28,9844 Heiligenblut,K?rnten,Austria","phones":"+4348242056","fax":"+43482424615","email":"gletscherblick@heiligenblut.at","url":"http://www.gletscherblick.info","countryIso2":"AT","countryName":"Austria","hotelRating":"3","latitude":"47.0361","longitude":"12.8505","state_id":null,"state_name":null,"country_id":null},{"active":false,"Giataid":"24919","cityId":null,"cityName":"Heiligenblut am Gro?glockner","hotelId":24919,"hotelName":"Nationalpark Lodge Grossglockner","address":"Hof 6,9844 Heiligenblut,K?rnten,Austria","phones":"+4348242244","fax":"+4348242244166","email":"glocknerhof@pichlers.at","url":"http://www.glocknerhof.info/","countryIso2":"AT","countryName":"Austria","hotelRating":"4","latitude":"47.0399","longitude":"12.8415","state_id":null,"state_name":null,"country_id":null},{"active":false,"Giataid":"24958","cityId":null,"cityName":"Hinterthal","hotelId":24958,"hotelName":"Selbhorn","address":"NULL","phones":"","fax":"","email":"","url":"","countryIso2":"AT","countryName":"Austria","hotelRating":"1","latitude":"47.4105","longitude":"12.9772","state_id":null,"state_name":null,"country_id":null},{"active":false,"Giataid":"24972","cityId":null,"cityName":"Hochpillberg","hotelId":24972,"hotelName":"Frieden","address":"Pillbergstrasse 200,6130 Hochpillberg,Nordtirol,Austria","phones":"+43524262329","fax":"+4352426232929","email":"info@hotel-frieden.at","url":"http://www.hotel-frieden.at/","countryIso2":"AT","countryName":"Austria","hotelRating":"3","latitude":"47.3188","longitude":"11.7202","state_id":null,"state_name":null,"country_id":null},{"active":false,"Giataid":"24973","cityId":null,"cityName":"Hochs?lden","hotelId":24973,"hotelName":"Alpenfriede","address":"6450 Hochs?lden,Austria","phones":"+4352542227","fax":"+435254230856","email":"alpenfriede@hochsoelden.at","url":"http://www.hochsoelden.at","countryIso2":"AT","countryName":"Austria","hotelRating":"4","latitude":"46.9777","longitude":"10.9828","state_id":null,"state_name":null,"country_id":null},{"active":false,"Giataid":"24974","cityId":null,"cityName":"Hochs?lden","hotelId":24974,"hotelName":"Hotel Schone AuSSicht","address":"Hochs?ldenstra?e 3,6450 Hochs?lden,Austria","phones":"+4352542221","fax":"+435254274852","email":"info@schoeneaussicht.at","url":"http://www.schoeneaussicht.at/de/","countryIso2":"AT","countryName":"Austria","hotelRating":"4","latitude":"46.9773","longitude":"10.9849","state_id":null,"state_name":null,"country_id":null},{"active":false,"Giataid":"24975","cityId":null,"cityName":"Hochs?lden","hotelId":24975,"hotelName":"Edelweiss","address":"Hochs?ldenstra?e 9,6452 Hochs?lden,Austria","phones":"+4352542298","fax":"+435254229867","email":"info@skihotel-edelweiss.at","url":"http://www.skihotel-edelweiss.at","countryIso2":"AT","countryName":"Austria","hotelRating":"4","latitude":"46.9775","longitude":"10.9834","state_id":null,"state_name":null,"country_id":null},{"active":false,"Giataid":"24989","cityId":null,"cityName":"Kals","hotelId":24989,"hotelName":"Taurerwirt","address":"Burg 12,9981 Kals am Gro?glockner,Austria","phones":"+4348768226","fax":"+434876822611","email":"info@taurerwirt.at","url":"http://www.taurerwirt.at","countryIso2":"AT","countryName":"Austria","hotelRating":"4","latitude":"47.0251","longitude":"12.6345","state_id":null,"state_name":null,"country_id":null},{"active":false,"Giataid":"25003","cityId":null,"cityName":"L?ngenfeld","hotelId":25003,"hotelName":"Bergwelt","address":"Au 135,6444 L?ngenfeld,?tztal,Austria","phones":"+4352535301","fax":"","email":"","url":"","countryIso2":"AT","countryName":"Austria","hotelRating":"4","latitude":"47.1001","longitude":"10.9537","state_id":null,"state_name":null,"country_id":null},{"active":false,"Giataid":"25045","cityId":null,"cityName":"Kitzb?hel","hotelId":25045,"hotelName":"Schweizerhof","address":"Hahnenkammstrasse 4,6370 Kitzb?hel,Austria","phones":"+43535662735","fax":"+4353566273557","email":"info@hotel-schweizerhof.at","url":"http://www.hotel-schweizerhof.at/","countryIso2":"AT","countryName":"Austria","hotelRating":"4","latitude":"47.4433","longitude":"12.3885","state_id":null,"state_name":null,"country_id":null},{"active":false,"Giataid":"25046","cityId":null,"cityName":"Kitzb?hel","hotelId":25046,"hotelName":"Tiefenbrunner","address":"Vorderstadt 3,6370 Kitzb?hel,Austria","phones":"+43535666680","fax":"+4353566668080","email":"hotel.tiefenbrunner@kitz.net","url":"http://www.hotel-tiefenbrunner.at","countryIso2":"AT","countryName":"Austria","hotelRating":"4","latitude":"47.4475","longitude":"12.3908","state_id":null,"state_name":null,"country_id":null},{"active":false,"Giataid":"25048","cityId":null,"cityName":"Kitzb?hel","hotelId":25048,"hotelName":"Kitzhof Mountain Design Resort","address":"Schwarzseestra?e 8-10,6370 Kitzb?hel,Austria","phones":"+435356632110","fax":"+4353566321115","email":"info@hotel-kitzhof.com","url":"http://www.hotel-kitzhof.com/das-hotel/ueberblick/","countryIso2":"AT","countryName":"Austria","hotelRating":"4","latitude":"47.4483","longitude":"12.3853","state_id":null,"state_name":null,"country_id":null},{"active":false,"Giataid":"25049","cityId":null,"cityName":"Kitzb?hel","hotelId":25049,"hotelName":"Vordergrub","address":"Walsenbachweg 14,6370 Kitzb?hel,Nordtirol,Austria","phones":"+43535662306","fax":"+435356623067","email":"info@vordergrub.at","url":"http://www.vordergrub.at/en/default.asp","countryIso2":"AT","countryName":"Austria","hotelRating":"3","latitude":"47.4663","longitude":"12.3874","state_id":null,"state_name":null,"country_id":null},{"active":false,"Giataid":"25050","cityId":null,"cityName":"Kitzb?hel","hotelId":25050,"hotelName":"Kitz Garni","address":"Bichlnweg 44,6370 Kitzb?hel,Austria","phones":"+43535662767","fax":"","email":"office@kitz-garni.at","url":"http://www.daslandhotel.at","countryIso2":"AT","countryName":"Austria","hotelRating":"4","latitude":"47.4363","longitude":"12.4108","state_id":null,"state_name":null,"country_id":null},{"active":false,"Giataid":"25052","cityId":null,"cityName":"Kitzb?hel","hotelId":25052,"hotelName":"Wallner","address":"Unterleitenweg 8,6370 Kitzb?hel,Austria","phones":"+43535663287","fax":"","email":"pension.wallner@kitz.net","url":"http://www.kitzbueheler-pension.at/","countryIso2":"AT","countryName":"Austria","hotelRating":"1","latitude":"47.4469","longitude":"12.3991","state_id":null,"state_name":null,"country_id":null},{"active":false,"Giataid":"25053","cityId":null,"cityName":"Kitzb?hel","hotelId":25053,"hotelName":"Reisch","address":"Franz-Reisch-Stra?e 3,6370 Kitzb?hel,Austria","phones":"+435356633660","fax":"+43535663291","email":"sporthotel-reisch@kitz.net","url":"http://www.sporthotelreisch.at","countryIso2":"AT","countryName":"Austria","hotelRating":"4","latitude":"47.446","longitude":"12.3897","state_id":null,"state_name":null,"country_id":null},{"active":false,"Giataid":"25054","cityId":null,"cityName":"Kitzb?hel","hotelId":25054,"hotelName":"Austria Trend Hotel Schloss Lebenberg","address":"Lebenbergstrasse 17,6370 Kitzb?hel,Austria","phones":"+4353566901","fax":"+435356690188","email":"schloss.lebenberg@austria-trend.at","url":"http://www.austria-trend.at/de/?id=LEB","countryIso2":"AT","countryName":"Austria","hotelRating":"4","latitude":"47.453","longitude":"12.3812","state_id":null,"state_name":null,"country_id":null},{"active":false,"Giataid":"25055","cityId":null,"cityName":"Kitzb?hel","hotelId":25055,"hotelName":"Zur Tenne","address":"Vorderstadt 8-10,6370 Kitzb?hel,Austria","phones":"+435356644440","fax":"+4353566480356","email":"info@hotelzurtanne.com","url":"http://www.hotelzurtenne.com/de/hotel/index.php","countryIso2":"AT","countryName":"Austria","hotelRating":"4","latitude":"47.447","longitude":"12.3908","state_id":null,"state_name":null,"country_id":null},{"active":false,"Giataid":"25060","cityId":null,"cityName":"L?ngenfeld","hotelId":25060,"hotelName":"EdelweiSS","address":"Unterl?ngenfeld 22,6444 Unterl?ngenfeld,Austria","phones":"+4352535206","fax":"+4352535917","email":"info@edelweiss-tirol.at","url":"http://www.edelweiss-tirol.at/de/","countryIso2":"AT","countryName":"Austria","hotelRating":"3","latitude":"47.0753","longitude":"10.9701","state_id":null,"state_name":null,"country_id":null},{"active":false,"Giataid":"25150","cityId":null,"cityName":"Neustift","hotelId":25150,"hotelName":"Alpensporthotel Neustifterhof","address":"Wiesenweg 5,6167 Neustift,Neder,Austria","phones":"+4352262711","fax":"+4352262711308","email":"info@neustifterhof.com","url":"http://www.neustifterhof.at/winter.htm","countryIso2":"AT","countryName":"Austria","hotelRating":"4","latitude":"47.1183","longitude":"11.3253","state_id":null,"state_name":null,"country_id":null},{"active":false,"Giataid":"25151","cityId":null,"cityName":"Neustift","hotelId":25151,"hotelName":"Spa Hotel Jagdhof","address":"Scheibe 44,6167 Neustift im Stubaital,Nordtirol,Austria","phones":"+4352262666","fax":"+4352262666503","email":"jagdhoftyrol@relaischateaux.com","url":"http://www.relaischateaux.com/en/search-book/hotel-restaurant/jagdhoftyrol/","countryIso2":"AT","countryName":"Austria","hotelRating":"5","latitude":"47.108","longitude":"11.2996","state_id":null,"state_name":null,"country_id":null},{"active":false,"Giataid":"25152","cityId":null,"cityName":"Neustift","hotelId":25152,"hotelName":"Happy Stubai","address":"Wiesenweg 16,6167 Neustift im Stubaital,Nordtirol,Austria","phones":"+4352262611","fax":"+4352262611180","email":"hotel@happy-stubai.at","url":"http://www.happy-stubai.at/","countryIso2":"AT","countryName":"Austria","hotelRating":"4","latitude":"47.1172","longitude":"11.3251","state_id":null,"state_name":null,"country_id":null},{"active":false,"Giataid":"25153","cityId":null,"cityName":"Neustift","hotelId":25153,"hotelName":"Burgstall","address":"Serlesstrasse 3,6167 Neustift,Nordtirol,Austria","phones":"+4352262246","fax":"+43522622388","email":"hotel@burgstall.com","url":"http://www.burgstall.com/en/welcome.html","countryIso2":"AT","countryName":"Austria","hotelRating":"4","latitude":"47.1248","longitude":"11.334","state_id":null,"state_name":null,"country_id":null},{"active":false,"Giataid":"25154","cityId":null,"cityName":"Neustift","hotelId":25154,"hotelName":"Almhof Danler","address":"M?hlenweg 39,6167 Neustift,Milders,Austria","phones":"+4352262626","fax":"+435226262677","email":"info@almhof.com","url":"http://almhof.com/","countryIso2":"AT","countryName":"Austria","hotelRating":"4","latitude":"47.1013","longitude":"11.281","state_id":null,"state_name":null,"country_id":null},{"active":false,"Giataid":"25156","cityId":null,"cityName":"Neustift","hotelId":25156,"hotelName":"Steuxner","address":"Feldgasse 3,6167 Neustift im Stubaital,Austria","phones":"+4352262831","fax":"+43522628317","email":"hotel@steuxner.at","url":"http://www.steuxner.at","countryIso2":"AT","countryName":"Austria","hotelRating":"3","latitude":"47.1239","longitude":"11.3344","state_id":null,"state_name":null,"country_id":null},{"active":false,"Giataid":"25157","cityId":null,"cityName":"Neustift","hotelId":25157,"hotelName":"Berghof","address":"Moos 11,6167 Neustift im Stubaital,Austria","phones":"+4352262350","fax":"+4352262342","email":"info@berghof-tirol.com","url":"http://www.berghof-tirol.com","countryIso2":"AT","countryName":"Austria","hotelRating":"4","latitude":"47.1117","longitude":"11.3127","state_id":null,"state_name":null,"country_id":null},{"active":false,"Giataid":"25158","cityId":null,"cityName":"Neustift","hotelId":25158,"hotelName":"Bergkonig","address":"Schulweg 9,6167 Neustift,Nordtirol,Austria","phones":"+4352262558","fax":"+4352262643","email":"info@activehotel.at","url":"http://www.activehotel-bergkoenig.at/de/wellnesshotel/bergidyll/urlaub-in-tirol/neustift.html","countryIso2":"AT","countryName":"Austria","hotelRating":"4","latitude":"47.1131","longitude":"11.3099","state_id":null,"state_name":null,"country_id":null},{"active":false,"Giataid":"25159","cityId":null,"cityName":"Neustift","hotelId":25159,"hotelName":"Almrausch-Danler","address":"M?hlenweg 39,6167 Neustift / Milders,Nordtirol,Austria","phones":"+4352262626","fax":"+435226262677","email":"info@almhof.com","url":"http://almhof.com/index.php?option=com_content&amp;view=article&amp;id=47&amp;Itemid=148&amp;lang=de","countryIso2":"AT","countryName":"Austria","hotelRating":"3","latitude":"47.1013","longitude":"11.2808","state_id":null,"state_name":null,"country_id":null},{"active":false,"Giataid":"25161","cityId":null,"cityName":"Neustift","hotelId":25161,"hotelName":"Mildererhof","address":"Franz-Senn-Stra?e 166,6167 Neustift-Milders,Nordtirol,Austria","phones":"+4352262219","fax":"+4352262819211","email":"office@mildererhof.at","url":"http://www.mildererhof.at/","countryIso2":"AT","countryName":"Austria","hotelRating":"4","latitude":"47.0994","longitude":"11.2815","state_id":null,"state_name":null,"country_id":null},{"active":false,"Giataid":"25162","cityId":null,"cityName":"Neustift","hotelId":25162,"hotelName":"Familotel Alpenhotel Kindl","address":"Franz-Senn-Stra?e 66,6167 Neustift im Stubaital,Austria","phones":"+4352262241","fax":"+4352262643","email":"info@hotel-kindl.at","url":"http://www.hotel-kindl.at/de/wellnesshotel/bergidyll/urlaub-in-tirol/neustift.html","countryIso2":"AT","countryName":"Austria","hotelRating":"4","latitude":"47.1004","longitude":"11.2842","state_id":null,"state_name":null,"country_id":null},{"active":false,"Giataid":"25163","cityId":null,"cityName":"Neustift","hotelId":25163,"hotelName":"Brennerspitz","address":"Franz-Senn-Str. 160,6167 Neustift,Milders,Nordtirol,Austria","phones":"+4352262263","fax":"+4352262263555","email":"office@brennerspitz.at","url":"http://www.brennerspitz.at/","countryIso2":"AT","countryName":"Austria","hotelRating":"4","latitude":"47.0994","longitude":"11.2828","state_id":null,"state_name":null,"country_id":null},{"active":false,"Giataid":"25164","cityId":null,"cityName":"Neustift","hotelId":25164,"hotelName":"Riese","address":"Omesberg 5,6167 Neustift im Stubaital,Austria","phones":"+4352262311","fax":"+4352262311","email":"gh.riese@aon.at","url":"http://www.gasthofriese.at","countryIso2":"AT","countryName":"Austria","hotelRating":"1","latitude":"47.1329","longitude":"11.3291","state_id":null,"state_name":null,"country_id":null},{"active":false,"Giataid":"25165","cityId":null,"cityName":"Neustift","hotelId":25165,"hotelName":"Cappella","address":"Au?errain 6,6167 Neustift im Stubaital,Nordtirol,Austria","phones":"+4352262515","fax":"+43522625155","email":"info@hotel-cappella.com","url":"http://www.hotel-cappella.com/de/natura-vitalis-hotel-in-neustift/index.html","countryIso2":"AT","countryName":"Austria","hotelRating":"4","latitude":"47.1226","longitude":"11.3259","state_id":null,"state_name":null,"country_id":null},{"active":false,"Giataid":"25166","cityId":null,"cityName":"Neustift","hotelId":25166,"hotelName":"Alpenresidenz Viktoria","address":"Moos 5,6167 Neustift im Stubaital,Austria","phones":"+4352263899","fax":"+435226389955","email":"info@hotel-viktoria.at","url":"http://www.hotel-viktoria.at","countryIso2":"AT","countryName":"Austria","hotelRating":"4","latitude":"47.1114","longitude":"11.3111","state_id":null,"state_name":null,"country_id":null},{"active":false,"Giataid":"25169","cityId":null,"cityName":"Obergurgl","hotelId":25169,"hotelName":"Olympia","address":"Kressbrunnenweg 14,6456 Obergurgl,Nordtirol,Austria","phones":"+4352566288","fax":"+43525663927","email":"info@hotel-olympia.at","url":"http://www.hotel-olympia.at/","countryIso2":"AT","countryName":"Austria","hotelRating":"4","latitude":"46.8719","longitude":"11.0297","state_id":null,"state_name":null,"country_id":null},{"active":false,"Giataid":"25172","cityId":null,"cityName":"Obergurgl","hotelId":25172,"hotelName":"Bellevue & Austria","address":"Kressbrunnenweg 3/4,6456 Obergurgl,Austria","phones":"+4352566289","fax":"+4352566413","email":"info@austria-bellevue.com","url":"http://www.austria-bellevue.com","countryIso2":"AT","countryName":"Austria","hotelRating":"4","latitude":"46.8709","longitude":"11.0287","state_id":null,"state_name":null,"country_id":null},{"active":false,"Giataid":"25174","cityId":null,"cityName":"Obergurgl","hotelId":25174,"hotelName":"Madeleine","address":"Gurgler Stra?e 116,6456 Obergurgl,Austria","phones":"+43525663550","fax":"+4352566401","email":"info@hotel-madeleine.com","url":"http://www.hotel-madeleine.com","countryIso2":"AT","countryName":"Austria","hotelRating":"4","latitude":"46.8713","longitude":"11.0278","state_id":null,"state_name":null,"country_id":null},{"active":false,"Giataid":"25176","cityId":null,"cityName":"Obergurgl","hotelId":25176,"hotelName":"Bergwelt","address":"Kressbrunnenweg 9,6456 Obergurgl,?tztal,Tirol,Austria","phones":"+4352566274","fax":"+435256638372","email":"office@hotelbergwelt.com","url":"http://www.hotelbergwelt.com/","countryIso2":"AT","countryName":"Austria","hotelRating":"4","latitude":"46.8717","longitude":"11.029","state_id":null,"state_name":null,"country_id":null},{"active":false,"Giataid":"25177","cityId":null,"cityName":"Obergurgl","hotelId":25177,"hotelName":"Muhle Resort 1900","address":"Gurgler Stra?e 87,6456 Obergurgl,Nordtirol,Austria","phones":"+4352566767","fax":"+435256676744","email":"info@muehle-resort.at","url":"http://www.hotel-muehle.at","countryIso2":"AT","countryName":"Austria","hotelRating":"4","latitude":"46.8848","longitude":"11.0378","state_id":null,"state_name":null,"country_id":null},{"active":false,"Giataid":"25180","cityId":null,"cityName":"Obertraun","hotelId":25180,"hotelName":"Krippenstein","address":"NULL","phones":"+4350140","fax":"","email":"info@krippenstein.com","url":"http://www.krippenstein.com/winter/unterkunft/unterkuenfte/","countryIso2":"AT","countryName":"Austria","hotelRating":"3","latitude":"47.5578","longitude":"13.6862","state_id":null,"state_name":null,"country_id":null},{"active":false,"Giataid":"25181","cityId":null,"cityName":"Pertisau","hotelId":25181,"hotelName":"Christina","address":"Pertisau 61,6213 Pertisau,Austria","phones":"+4352435361","fax":"+43524353618","email":"info@hotel-christina.at","url":"http://www.hotel-christina.at","countryIso2":"AT","countryName":"Austria","hotelRating":"4","latitude":"47.4424","longitude":"11.7022","state_id":null,"state_name":null,"country_id":null},{"active":false,"Giataid":"25182","cityId":null,"cityName":"Pertisau","hotelId":25182,"hotelName":"Kristall","address":"Seebergstra?e 10,6213 Pertisau am Achensee,Austria","phones":"+4352435490","fax":"+435243537419","email":"info@kristall-pertisau.at","url":"http://www.kristall-pertisau.at","countryIso2":"AT","countryName":"Austria","hotelRating":"4","latitude":"47.4421","longitude":"11.6962","state_id":null,"state_name":null,"country_id":null},{"active":false,"Giataid":"25183","cityId":null,"cityName":"Pertisau","hotelId":25183,"hotelName":"Das Rieser Aktiv & Spa Resort","address":"6213 Pertisau am Achensee,Tirol,Austria","phones":"+4352435251","fax":"+4352435251611","email":"info@hotel-rieser.com","url":"http://www.hotel-rieser.com/","countryIso2":"AT","countryName":"Austria","hotelRating":"4","latitude":"47.4412","longitude":"11.6973","state_id":null,"state_name":null,"country_id":null},{"active":false,"Giataid":"25188","cityId":null,"cityName":"St. Anton (am Arlberg)","hotelId":25188,"hotelName":"Mooserkreuz","address":"Mooserkreuzweg 1,6580 St. Anton am Arlberg,Austria","phones":"+4354462230","fax":"+4354463306","email":"info@mooserkreuz.com","url":"http://www.mooserkreuz.com/","countryIso2":"AT","countryName":"Austria","hotelRating":"3","latitude":"47.1243","longitude":"10.2484","state_id":null,"state_name":null,"country_id":null},{"active":false,"Giataid":"25205","cityId":null,"cityName":"St. Wolfgang","hotelId":25205,"hotelName":"Hubertushof","address":"Markt 133,5360 St. Wolfgang im Salzkammergut,Austria","phones":"+4361382435","fax":"+43613824354","email":"","url":"","countryIso2":"AT","countryName":"Austria","hotelRating":"3","latitude":"47.7396","longitude":"13.4452","state_id":null,"state_name":null,"country_id":null},{"active":false,"Giataid":"25224","cityId":null,"cityName":"Edlbach","hotelId":25224,"hotelName":"Bischofsberg","address":"Edlbach 31,4580 Edlbach,Austria","phones":"","fax":"","email":"","url":"http://www.trivago.de/windischgarsten-43608/hotel/bischofsberg-1599867","countryIso2":"AT","countryName":"Austria","hotelRating":"4","latitude":"47.7114","longitude":"14.3569","state_id":null,"state_name":null,"country_id":null},{"active":false,"Giataid":"25225","cityId":null,"cityName":"S?lden","hotelId":25225,"hotelName":"Bergheim","address":"Granbichlstra?e 29,6450 S?lden,Nordtirol,Austria","phones":"+4352542944","fax":"","email":"info@bergheim-soelden.at","url":"http://www.bergheim-soelden.at/en/top/home.html","countryIso2":"AT","countryName":"Austria","hotelRating":"4","latitude":"46.9679","longitude":"11.0102","state_id":null,"state_name":null,"country_id":null},{"active":false,"Giataid":"25226","cityId":null,"cityName":"S?lden","hotelId":25226,"hotelName":"Schonblick","address":"Rechenaustrasse 19,6450 S?lden,Austria","phones":"+4352542391","fax":"","email":"info@haus-schoenblick.com","url":"http://www.haus-schoenblick.com","countryIso2":"AT","countryName":"Austria","hotelRating":"3","latitude":"46.9765","longitude":"11.0131","state_id":null,"state_name":null,"country_id":null},{"active":false,"Giataid":"25227","cityId":null,"cityName":"S?lden","hotelId":25227,"hotelName":"Klaus","address":"Au?erwaldstr. 17,6450 S?lden,Austria","phones":"+4352542530","fax":"","email":"info@pension-klaus.at","url":"http://www.pension-klaus.at","countryIso2":"AT","countryName":"Austria","hotelRating":"3","latitude":"46.9648","longitude":"11.0039","state_id":null,"state_name":null,"country_id":null},{"active":false,"Giataid":"25228","cityId":null,"cityName":"S?lden","hotelId":25228,"hotelName":"Pension Alpenruhe","address":"Talweg 2,6450 S?lden,Austria","phones":"+4352542293","fax":"","email":"info@alpenruhe.at","url":"http://www.alpenruhe.at/","countryIso2":"AT","countryName":"Austria","hotelRating":"3","latitude":"46.9855","longitude":"11.0126","state_id":null,"state_name":null,"country_id":null},{"active":false,"Giataid":"25229","cityId":null,"cityName":"S?lden","hotelId":25229,"hotelName":"Alpenflora","address":"Dorfstra?e 31,6450 S?lden,Austria","phones":"","fax":"","email":"","url":"","countryIso2":"AT","countryName":"Austria","hotelRating":"2","latitude":"46.9666","longitude":"11.0073","state_id":null,"state_name":null,"country_id":null},{"active":false,"Giataid":"25230","cityId":null,"cityName":"S?lden","hotelId":25230,"hotelName":"Wilhelm","address":"Windaustra?e 23,6450 S?lden,Austria","phones":"+4352543562","fax":"+4352543562","email":"info@wilhelm-soelden.at","url":"http://www.wilhelm-soelden.at/","countryIso2":"AT","countryName":"Austria","hotelRating":"1","latitude":"46.9627","longitude":"11.0116","state_id":null,"state_name":null,"country_id":null},{"active":false,"Giataid":"25231","cityId":null,"cityName":"S?lden","hotelId":25231,"hotelName":"Haus Bergblick","address":"Windaustra?e 31,6450 S?lden,Nordtirol,?sterreich,Austria","phones":"+4352542378","fax":"+4352543592","email":"e.sch@soelden.at","url":"http://www.bergblick-soelden.at","countryIso2":"AT","countryName":"Austria","hotelRating":"3","latitude":"46.9623","longitude":"11.0112","state_id":null,"state_name":null,"country_id":null},{"active":false,"Giataid":"25232","cityId":null,"cityName":"S?lden","hotelId":25232,"hotelName":"Franz Riml","address":"Rechenaustra?e 56,6450 S?lden,Austria","phones":"+4352542581","fax":"+435254258140","email":"info@riml-soelden.com","url":"http://www.riml-soelden.com/","countryIso2":"AT","countryName":"Austria","hotelRating":"3","latitude":"46.974","longitude":"11.0117","state_id":null,"state_name":null,"country_id":null},{"active":false,"Giataid":"25233","cityId":null,"cityName":"S?lden","hotelId":25233,"hotelName":"Morandell","address":"Sandstrasse 6,6450 S?lden,Austria","phones":"+4352542349","fax":"+4352542349","email":"morandell.soelden@aon.at","url":"http://www.morandell-soelden.at","countryIso2":"AT","countryName":"Austria","hotelRating":"1","latitude":"46.9753","longitude":"11.0101","state_id":null,"state_name":null,"country_id":null},{"active":false,"Giataid":"25234","cityId":null,"cityName":"S?lden","hotelId":25234,"hotelName":"Sieglinde","address":"Dorfstr. 100,6450 S?lden,Austria","phones":"+4352542307","fax":"+4352566302","email":"info@sieglinde.at","url":"http://www.sieglinde.at/willkommen.html","countryIso2":"AT","countryName":"Austria","hotelRating":"4","latitude":"46.9665","longitude":"11.0073","state_id":null,"state_name":null,"country_id":null},{"active":false,"Giataid":"25235","cityId":null,"cityName":"S?lden","hotelId":25235,"hotelName":"Liebe Sonne","address":"Dorfstrasse 58,6450 S?lden,?tztal,Austria","phones":"+4352542203","fax":"+4352542203599","email":"liebe.sonne@sonnenhotels.at","url":"http://www.sonnenhotels.at","countryIso2":"AT","countryName":"Austria","hotelRating":"4","latitude":"46.9715","longitude":"11.0089","state_id":null,"state_name":null,"country_id":null},{"active":false,"Giataid":"25236","cityId":null,"cityName":"S?lden","hotelId":25236,"hotelName":"Landhaus Fiegl","address":"Oberwindaustra?e 57,6450 S?lden,Austria","phones":"+4352542374","fax":"+4352542374","email":"info@landhaus-fiegl.at","url":"http://www.landhaus-fiegl.at/","countryIso2":"AT","countryName":"Austria","hotelRating":"3","latitude":"46.9618","longitude":"11.0115","state_id":null,"state_name":null,"country_id":null},{"active":false,"Giataid":"25237","cityId":null,"cityName":"S?lden","hotelId":25237,"hotelName":"Waldheim","address":"Dorfstra?e 174,6450 S?lden,Austria","phones":"+4352542284","fax":"+4352542284","email":"info@waldheim.at","url":"http://www.waldheim.at","countryIso2":"AT","countryName":"Austria","hotelRating":"3","latitude":"46.9572","longitude":"11.0101","state_id":null,"state_name":null,"country_id":null},{"active":false,"Giataid":"25239","cityId":null,"cityName":"S?lden","hotelId":25239,"hotelName":"Parkhotel","address":"Achweg 2,6450 S?lden,Austria","phones":"+4352542250","fax":"+435254225090","email":"info@parkhotel-soelden.at","url":"http://www.parkhotel-soelden.at","countryIso2":"AT","countryName":"Austria","hotelRating":"3","latitude":"46.9688","longitude":"11.0091","state_id":null,"state_name":null,"country_id":null},{"active":false,"Giataid":"25240","cityId":null,"cityName":"S?lden","hotelId":25240,"hotelName":"Fender","address":"Dorfstrasse 11,6450 S?lden,Austria","phones":"+4352542497","fax":"+43525424970","email":"","url":"http://www.fender-soelden.at/","countryIso2":"AT","countryName":"Austria","hotelRating":"1","latitude":"46.9702","longitude":"11.0088","state_id":null,"state_name":null,"country_id":null},{"active":false,"Giataid":"25241","cityId":null,"cityName":"S?lden","hotelId":25241,"hotelName":"Jorgele","address":"Windaustra?e 30,6450 S?lden,Nordtirol,Austria","phones":"+4352542047","fax":"","email":"info@alpenheim-joergele.at","url":"http://www.alpenheim-joergele.at","countryIso2":"AT","countryName":"Austria","hotelRating":"3","latitude":"46.9631","longitude":"11.0105","state_id":null,"state_name":null,"country_id":null},{"active":false,"Giataid":"25242","cityId":null,"cityName":"S?lden","hotelId":25242,"hotelName":"Agnes Gstrein","address":"Dorfstra?e 7,6450 S?lden,Nordtirol,Austria","phones":"+4352542708","fax":"+4352542708","email":"","url":"","countryIso2":"AT","countryName":"Austria","hotelRating":"2","latitude":"46.971","longitude":"11.0089","state_id":null,"state_name":null,"country_id":null},{"active":false,"Giataid":"25243","cityId":null,"cityName":"S?lden","hotelId":25243,"hotelName":"Alpengasthof Gruner","address":"Au?erwaldstra?e 19,6450 S?lden,Nordtirol,Austria","phones":"+4352542214","fax":"","email":"info@gruener-soelden.com","url":"http://www.gruener-soelden.com/de/willkommen/index.php","countryIso2":"AT","countryName":"Austria","hotelRating":"3","latitude":"46.9655","longitude":"11.0075","state_id":null,"state_name":null,"country_id":null},{"active":false,"Giataid":"25244","cityId":null,"cityName":"S?lden","hotelId":25244,"hotelName":"Tyrol","address":"Dorfstrasse 92,6450 S?lden,Nordtirol,Austria","phones":"+4352542218","fax":"+435254221860","email":"tyrol@tyrolhotels.at","url":"http://www.tyrol-soelden.at/","countryIso2":"AT","countryName":"Austria","hotelRating":"3","latitude":"46.9672","longitude":"11.0074","state_id":null,"state_name":null,"country_id":null},{"active":false,"Giataid":"25246","cityId":null,"cityName":"S?lden","hotelId":25246,"hotelName":"Postwirt","address":"NULL","phones":"","fax":"","email":"","url":"","countryIso2":"AT","countryName":"Austria","hotelRating":"1","latitude":"46.9681","longitude":"11.0087","state_id":null,"state_name":null,"country_id":null},{"active":false,"Giataid":"25247","cityId":null,"cityName":"St. Anton (am Arlberg)","hotelId":25247,"hotelName":"Arlberg","address":"Dorfstrasse 90,6580 St. Anton am Arlberg,Austria","phones":"+43544622100","fax":"+435446221055","email":"info@hotelarlberg.com","url":"http://www.hotelarlberg.com/","countryIso2":"AT","countryName":"Austria","hotelRating":"4","latitude":"47.1324","longitude":"10.2706","state_id":null,"state_name":null,"country_id":null},{"active":false,"Giataid":"25249","cityId":null,"cityName":"St. Anton (am Arlberg)","hotelId":25249,"hotelName":"Hotel Post","address":"Walter-Schuler-Weg 2,6580 Sankt Anton am Arlberg,Austria","phones":"+43544622130","fax":"+4354462343","email":"info@hotel-post.co.at","url":"http://www.hotel-post.co.at","countryIso2":"AT","countryName":"Austria","hotelRating":"4","latitude":"47.1289","longitude":"10.2656","state_id":null,"state_name":null,"country_id":null},{"active":false,"Giataid":"25250","cityId":null,"cityName":"St. Anton (am Arlberg)","hotelId":25250,"hotelName":"Ludwig Strolz","address":"Alte Arlbergstrasse 54,6580 St. Anton am Arlberg,Austria","phones":"+4354462753","fax":"+43544627537","email":"haus.ludwig.strolz@st-anton.at","url":"","countryIso2":"AT","countryName":"Austria","hotelRating":"1","latitude":"47.1253","longitude":"10.2587","state_id":null,"state_name":null,"country_id":null},{"active":false,"Giataid":"25252","cityId":null,"cityName":"St. Anton (am Arlberg)","hotelId":25252,"hotelName":"Gertrud","address":"Gastigweg 28,6580 St. Anton am Arlberg,Tirol,Austria","phones":"+4354462303","fax":"+4354462303","email":"haus-gertrud@st-anton.at","url":"","countryIso2":"AT","countryName":"Austria","hotelRating":"1","latitude":"47.1255","longitude":"10.2581","state_id":null,"state_name":null,"country_id":null},{"active":false,"Giataid":"25253","cityId":null,"cityName":"St. Anton (am Arlberg)","hotelId":25253,"hotelName":"Gerda","address":"Untere Nassereinerstrasse 41,6580 St. Anton am Arlberg,Tirol,Austria","phones":"+4354462862","fax":"+4354462862","email":"haus.gerda@arlberg.com","url":"","countryIso2":"AT","countryName":"Austria","hotelRating":"1","latitude":"47.1371","longitude":"10.2794","state_id":null,"state_name":null,"country_id":null},{"active":false,"Giataid":"25254","cityId":null,"cityName":"St. Anton (am Arlberg)","hotelId":25254,"hotelName":"Kertess","address":"Alte Arlbergstra?e 39,6580 St. Anton am Arlberg,Nordtirol,Austria","phones":"+43544620050","fax":"+43544620056","email":"kertess@st-anton.at","url":"http://www.kertess.com","countryIso2":"AT","countryName":"Austria","hotelRating":"4","latitude":"47.1244","longitude":"10.2555","state_id":null,"state_name":null,"country_id":null},{"active":false,"Giataid":"25257","cityId":null,"cityName":"St. Johann","hotelId":25257,"hotelName":"Pension Renate","address":"Pass-Thurn-Stra?e 5,6380 St. Johann in Tirol,Austria","phones":"+43535262472","fax":"+43535262472","email":"","url":"","countryIso2":"AT","countryName":"Austria","hotelRating":"1","latitude":"47.52","longitude":"12.4198","state_id":null,"state_name":null,"country_id":null},{"active":false,"Giataid":"25260","cityId":null,"cityName":"St. Michael","hotelId":25260,"hotelName":"Eggerwirt","address":"Kaltbachstra?e 5,5582 St. Michael im Lungau,Austria","phones":"+43647782240","fax":"+436477822455","email":"office@eggerwirt.at","url":"http://www.eggerwirt.com","countryIso2":"AT","countryName":"Austria","hotelRating":"4","latitude":"47.0978","longitude":"13.6369","state_id":null,"state_name":null,"country_id":null},{"active":false,"Giataid":"25262","cityId":null,"cityName":"St. Wolfgang","hotelId":25262,"hotelName":"Romantikhotel im WeiSSen RoSSl","address":"Markt 74,5360 St. Wolfgang,Austria","phones":"+43613823060","fax":"+436138230641","email":"welcome@weissesroessl.at","url":"http://www.weissesroessl.at/","countryIso2":"AT","countryName":"Austria","hotelRating":"4","latitude":"47.7374","longitude":"13.4481","state_id":null,"state_name":null,"country_id":null},{"active":false,"Giataid":"25263","cityId":null,"cityName":"St. Wolfgang","hotelId":25263,"hotelName":"Cortisen Am See","address":"Pilger Strasse 15,5360 St. Wolfgang,Salzburg,Austria","phones":"+43613823760","fax":"+436138236744","email":"hotel@cortisen.at","url":"http://www.cortisen.at","countryIso2":"AT","countryName":"Austria","hotelRating":"4","latitude":"47.74","longitude":"13.4444","state_id":null,"state_name":null,"country_id":null},{"active":false,"Giataid":"25264","cityId":null,"cityName":"St. Wolfgang","hotelId":25264,"hotelName":"Forsterhof","address":"Ried 14,5360 St. Wolfgang,Salzburgerland,Austria","phones":"+4361382535","fax":"+436138253546","email":"office@foersterhof.at","url":"http://www.foersterhof.at/","countryIso2":"AT","countryName":"Austria","hotelRating":"4","latitude":"47.7422","longitude":"13.437","state_id":null,"state_name":null,"country_id":null},{"active":false,"Giataid":"25269","cityId":null,"cityName":"Vent","hotelId":25269,"hotelName":"Post","address":"Venterstr. 47,6458 Vent,Austria","phones":"+4352548119","fax":"+43525481194","email":"info@vent-hotel-post.com","url":"http://www.vent-hotel-post.com","countryIso2":"AT","countryName":"Austria","hotelRating":"4","latitude":"46.8611","longitude":"10.915","state_id":null,"state_name":null,"country_id":null},{"active":false,"Giataid":"25270","cityId":null,"cityName":"Vent","hotelId":25270,"hotelName":"Similaun","address":"Marzellweg 15,6458 Vent,Austria","phones":"+4352548104","fax":"+4352548104480","email":"hotel@similaun.com","url":"http://www.similaun.com","countryIso2":"AT","countryName":"Austria","hotelRating":"4","latitude":"46.8576","longitude":"10.9135","state_id":null,"state_name":null,"country_id":null},{"active":false,"Giataid":"25271","cityId":null,"cityName":"Vent","hotelId":25271,"hotelName":"Familienhotel Vent","address":"Marzellweg 2,Gemeinde S?lden,6458 Vent,Tirol,Austria","phones":"+4352548130","fax":"+435254813050","email":"info@hotel-vent.at","url":"http://www.hotel-vent.at/familienhotel/familienhotelframe.html","countryIso2":"AT","countryName":"Austria","hotelRating":"4","latitude":"46.8586","longitude":"10.9135","state_id":null,"state_name":null,"country_id":null},{"active":false,"Giataid":"25290","cityId":null,"cityName":"Zams bei Landeck","hotelId":25290,"hotelName":"Jagerhof","address":"Hauptstrasse 52,6511 Zams,Tirol,Austria","phones":"+43544262642","fax":"+43544262642199","email":"info@jaegerhof-zams.at","url":"http://www.jaegerhof-zams.at","countryIso2":"AT","countryName":"Austria","hotelRating":"4","latitude":"47.1544","longitude":"10.586","state_id":null,"state_name":null,"country_id":null},{"active":false,"Giataid":"25295","cityId":null,"cityName":"Zauchensee","hotelId":25295,"hotelName":"Sportclub Zauchensee","address":"NULL","phones":"","fax":"","email":"","url":"","countryIso2":"AT","countryName":"Austria","hotelRating":"1","latitude":"47.2923","longitude":"13.4555","state_id":null,"state_name":null,"country_id":null},{"active":false,"Giataid":"25345","cityId":null,"cityName":"Z?rs","hotelId":25345,"hotelName":"Arlberghaus","address":"Z?rs 126,6763 Z?rs,Vorarlberg,Austria","phones":"+4355832258","fax":"+435583225855","email":"skihotel@arlberghaus.com","url":"http://www.arlberghaus.com/","countryIso2":"AT","countryName":"Austria","hotelRating":"4","latitude":"47.1691","longitude":"10.1636","state_id":null,"state_name":null,"country_id":null},{"active":false,"Giataid":"25371","cityId":null,"cityName":"Reith bei (by) Seefeld","hotelId":25371,"hotelName":"Kristal","address":"Reith bei Seefeld,Tirol,Austria","phones":"","fax":"","email":"","url":"","countryIso2":"AT","countryName":"Austria","hotelRating":"3","latitude":"47.2986","longitude":"11.2032","state_id":null,"state_name":null,"country_id":null},{"active":false,"Giataid":"25375","cityId":null,"cityName":"Scheffau","hotelId":25375,"hotelName":"Kaiser In Tirol","address":"Scheffau 11,6351 Scheffau,Austria","phones":"+43535880000","fax":"+4353588000340","email":"welcome@hotelkaiser.at","url":"http://www.hotelkaiser.at/de/scheffau/home/home/home.html","countryIso2":"AT","countryName":"Austria","hotelRating":"4","latitude":"47.5264","longitude":"12.2502","state_id":null,"state_name":null,"country_id":null},{"active":false,"Giataid":"25385","cityId":null,"cityName":"Sch?nberg","hotelId":25385,"hotelName":"Bayerischer Hof","address":"Sch?nberg im Stubaital,Austria","phones":"","fax":"","email":"","url":"","countryIso2":"AT","countryName":"Austria","hotelRating":"3","latitude":"47.1863","longitude":"11.4038","state_id":null,"state_name":null,"country_id":null},{"active":false,"Giataid":"25418","cityId":null,"cityName":"M?sern bei Seefeld","hotelId":25418,"hotelName":"Klaus","address":"Pfarrer-Prieth-Weg 1,6100 M?sern bei Seefeld,Austria","phones":"+4352124726","fax":"+43521247264","email":"klaus@moesern.net","url":"http://www.hotel-klaus.info/moesern.html","countryIso2":"AT","countryName":"Austria","hotelRating":"3","latitude":"47.3122","longitude":"11.1454","state_id":null,"state_name":null,"country_id":null},{"active":false,"Giataid":"25438","cityId":null,"cityName":"S?lden","hotelId":25438,"hotelName":"Alphof","address":"Dorfstra?e 202,6450 S?lden,Austria","phones":"+4352542559","fax":"+435254210944","email":"info@alphofsoelden.com","url":"http://www.alphofsoelden.com/","countryIso2":"AT","countryName":"Austria","hotelRating":"4","latitude":"46.954","longitude":"11.0108","state_id":null,"state_name":null,"country_id":null},{"active":false,"Giataid":"25440","cityId":null,"cityName":"S?lden","hotelId":25440,"hotelName":"Hotel Regina","address":"Dorfstra?e 101,6450 S?lden,?tztal,Tirol,Austria","phones":"+4352542301","fax":"+435254265370","email":"office@hotel-regina.com","url":"http://www.hotel-regina.com","countryIso2":"AT","countryName":"Austria","hotelRating":"4","latitude":"46.961","longitude":"11.0085","state_id":null,"state_name":null,"country_id":null},{"active":false,"Giataid":"25441","cityId":null,"cityName":"S?lden","hotelId":25441,"hotelName":"Erhart","address":"Windaustrasse 24,6450 S?lden im ?tztal,Nordtirol,Austria","phones":"+4352542020","fax":"+43525420205","email":"info@hotel-erhart.at","url":"http://www.hotel-erhart.at/at/index.php#navigationAdditional","countryIso2":"AT","countryName":"Austria","hotelRating":"4","latitude":"46.9635","longitude":"11.0106","state_id":null,"state_name":null,"country_id":null},{"active":false,"Giataid":"25443","cityId":null,"cityName":"S?lden","hotelId":25443,"hotelName":"Bergland Design- & Wellnesshotel","address":"Dorfstra?e 114,6450 S?lden,?tztal,Austria","phones":"+43525422400","fax":"+4352542240510","email":"info@bergland-soelden.at","url":"http://www.bergland-soelden.at","countryIso2":"AT","countryName":"Austria","hotelRating":"4","latitude":"46.9652","longitude":"11.0073","state_id":null,"state_name":null,"country_id":null},{"active":false,"Giataid":"25445","cityId":null,"cityName":"S?lden","hotelId":25445,"hotelName":"Alpina","address":"Rettenbachstra?e 4,6450 S?lden,Tirol,Austria","phones":"+43525450120","fax":"+435254501260","email":"alpina@riml.com","url":"http://alpina.riml.com/","countryIso2":"AT","countryName":"Austria","hotelRating":"4","latitude":"46.9684","longitude":"11.007","state_id":null,"state_name":null,"country_id":null},{"active":false,"Giataid":"25449","cityId":null,"cityName":"S?lden","hotelId":25449,"hotelName":"Stefan","address":"Dorfstr. 50,6450 S?lden,?tztal,Austria","phones":"+4352542237","fax":"+435254223725","email":"info@hotel-stefan.at","url":"http://www.hotel-stefan.at","countryIso2":"AT","countryName":"Austria","hotelRating":"4","latitude":"46.972","longitude":"11.0093","state_id":null,"state_name":null,"country_id":null},{"active":false,"Giataid":"25450","cityId":null,"cityName":"S?lden","hotelId":25450,"hotelName":"Alte Post Zwieselstein Dependance","address":"Gurglerstra?e 2,6450 Zwieselstein,?tztal/ Tirol,Austria","phones":"+4352542910","fax":"+433452542056","email":"info@post-soelden.at","url":"http://www.pension-soelden.at/","countryIso2":"AT","countryName":"Austria","hotelRating":"4","latitude":"46.9395","longitude":"11.0279","state_id":null,"state_name":null,"country_id":null},{"active":false,"Giataid":"25452","cityId":null,"cityName":"S?lden","hotelId":25452,"hotelName":"Bruno","address":"Au?erwaldstra?e 15,6450 S?lden,Austria","phones":"+4352542529","fax":"+43525427785","email":"info@hotel-bruno.com","url":"http://www.hotel-bruno.com/","countryIso2":"AT","countryName":"Austria","hotelRating":"3","latitude":"46.9652","longitude":"11.0033","state_id":null,"state_name":null,"country_id":null},{"active":false,"Giataid":"25454","cityId":null,"cityName":"S?lden","hotelId":25454,"hotelName":"Silbertal","address":"Gaislach 7,6450 S?lden,Austria","phones":"+4352542987","fax":"+4352543144","email":"info@almhuette.net","url":"http://www.almhuette.net","countryIso2":"AT","countryName":"Austria","hotelRating":"4","latitude":"46.9336","longitude":"10.9952","state_id":null,"state_name":null,"country_id":null},{"active":false,"Giataid":"25456","cityId":null,"cityName":"S?lden","hotelId":25456,"hotelName":"Sonnenheim","address":"Hainbachweg 11,6450 S?lden,Austria","phones":"+4352542276","fax":"+43525422765","email":"info@sonnenheim-soelden.at","url":"http://www.sonnenheim-soelden.at","countryIso2":"AT","countryName":"Austria","hotelRating":"3","latitude":"46.9755","longitude":"11.0091","state_id":null,"state_name":null,"country_id":null},{"active":false,"Giataid":"25457","cityId":null,"cityName":"S?lden","hotelId":25457,"hotelName":"Grunwald Resort","address":"Panoramastra?e 43,6450 S?lden,Austria","phones":"+4352542257","fax":"+4352542257","email":"info@gruenwald-resort.com","url":"http://www.gruenwald-resort.com","countryIso2":"AT","countryName":"Austria","hotelRating":"3","latitude":"46.9735","longitude":"11.0026","state_id":null,"state_name":null,"country_id":null},{"active":false,"Giataid":"25468","cityId":null,"cityName":"Puchberg","hotelId":25468,"hotelName":"Schneeberghof","address":"Wiener Neust?dter Str. 24,2734 Puchberg am Schneeberg,Austria","phones":"+4326363500","fax":"+4326363233","email":"info@schneeberghof.at","url":"http://www.schneeberghof.com","countryIso2":"AT","countryName":"Austria","hotelRating":"4","latitude":"47.7909","longitude":"15.9134","state_id":null,"state_name":null,"country_id":null},{"active":false,"Giataid":"25501","cityId":null,"cityName":"Hochgurgl","hotelId":25501,"hotelName":"Angerer Alm","address":"Hochgurgler Strasse 3,6456 Hochgurgl,Tirol,?tztal,Austria","phones":"+4352566241","fax":"+435256624124","email":"info@hotel-angereralm.at","url":"http://www.hotel-angereralm.at","countryIso2":"AT","countryName":"Austria","hotelRating":"4","latitude":"46.9003","longitude":"11.051","state_id":null,"state_name":null,"country_id":null},{"active":false,"Giataid":"25502","cityId":null,"cityName":"Hochgurgl","hotelId":25502,"hotelName":"Ski- & Golfresort Hotel Riml","address":"Hochgurglerstr. 16,6456 Obergurgl-Hochgurgl,?tztal,Austria","phones":"+4352566261","fax":"+4352566310","email":"info@hotel-riml.com","url":"http://www.hotel-riml.com","countryIso2":"AT","countryName":"Austria","hotelRating":"4","latitude":"46.901","longitude":"11.0514","state_id":null,"state_name":null,"country_id":null},{"active":false,"Giataid":"25505","cityId":null,"cityName":"Hochf?gen","hotelId":25505,"hotelName":"Berghotel Hochfugen","address":"Hochf?gen 27,6264 Hochf?gen,Austria","phones":"+4352805312","fax":"+435280531250","email":"info@berghotel-hochfuegen.at","url":"http://www.berghotel-hochfuegen.at/","countryIso2":"AT","countryName":"Austria","hotelRating":"3","latitude":"47.2682","longitude":"11.7764","state_id":null,"state_name":null,"country_id":null},{"active":false,"Giataid":"25508","cityId":null,"cityName":"M?sern bei Seefeld","hotelId":25508,"hotelName":"Inntalerhof","address":"6100 M?sern bei Seefeld,Tirol,Austria","phones":"+4352124747","fax":"+435212474747","email":"info@inntalerhof.com.","url":"http://www.inntalerhof.com","countryIso2":"AT","countryName":"Austria","hotelRating":"4","latitude":"47.3114","longitude":"11.1441","state_id":null,"state_name":null,"country_id":null},{"active":false,"Giataid":"25533","cityId":null,"cityName":"Eisentratten","hotelId":25533,"hotelName":"Lindenhof","address":"Eisentratten 15,9861 Eisentratten,K?rnten,Austria","phones":"+4347322780","fax":"+434732278040","email":"info@linden-hof.at","url":"http://www.linden-hof.at/","countryIso2":"AT","countryName":"Austria","hotelRating":"3","latitude":"46.9229","longitude":"13.5769","state_id":null,"state_name":null,"country_id":null},{"active":false,"Giataid":"25541","cityId":null,"cityName":"Lermos","hotelId":25541,"hotelName":"Loisach","address":"Unterdorf 6,6631 Lermoos,Austria","phones":"+4356732394","fax":"+435673239484","email":"sporthotel.loisach@gmx.at","url":"http://www.sporthotel-loisach.com/de/","countryIso2":"AT","countryName":"Austria","hotelRating":"4","latitude":"47.4008","longitude":"10.8832","state_id":null,"state_name":null,"country_id":null},{"active":false,"Giataid":"25542","cityId":null,"cityName":"Lermos","hotelId":25542,"hotelName":"Familotel das Bellevue Family & Relax","address":"M?sle 7,6631 Lermoos,Austria","phones":"+43567321510","fax":"+4356732151150","email":"info@hotel-bellevue.at","url":"http://www.hotel-bellevue.at","countryIso2":"AT","countryName":"Austria","hotelRating":"4","latitude":"47.397","longitude":"10.886","state_id":null,"state_name":null,"country_id":null},{"active":false,"Giataid":"25543","cityId":null,"cityName":"Lermos","hotelId":25543,"hotelName":"Hubertushof","address":"Kirchplatz 7,6631 Lermoos,Tirol,Austria","phones":"+4356732161","fax":"+435673216115","email":"info@hotel-hubertushof.com","url":"http://www.hotel-hubertushof.com/","countryIso2":"AT","countryName":"Austria","hotelRating":"3","latitude":"47.3986","longitude":"10.8879","state_id":null,"state_name":null,"country_id":null},{"active":false,"Giataid":"25545","cityId":null,"cityName":"Lermos","hotelId":25545,"hotelName":"Edelweiss","address":"Danielstrasse 7,6631 Lermoos,Nordtirol,Austria","phones":"+4356732214","fax":"+4356732214130","email":"hotel@edelweiss.at","url":"http://www.edelweiss.at","countryIso2":"AT","countryName":"Austria","hotelRating":"4","latitude":"47.4035","longitude":"10.8808","state_id":null,"state_name":null,"country_id":null},{"active":false,"Giataid":"25572","cityId":null,"cityName":"Hopfgarten","hotelId":25572,"hotelName":"Unterbrau","address":"Br?ugassl 6,6361 Hopfgarten im Brixental,Austria","phones":"+4353352243","fax":"+43533522434","email":"unterbreu@tirol.com","url":"http://www.unterbraeu.com","countryIso2":"AT","countryName":"Austria","hotelRating":"3","latitude":"47.4492","longitude":"12.1582","state_id":null,"state_name":null,"country_id":null},{"active":false,"Giataid":"25578","cityId":null,"cityName":"Hochgurgl","hotelId":25578,"hotelName":"Wurmkogel","address":"Timmelsjochstr. 1,6456 Hochgurgl,Nordtirol,Austria","phones":"+4352566246","fax":"+4352566307","email":"hotel@wurmkogel.com","url":"http://www.wurmkogel.com/de/","countryIso2":"AT","countryName":"Austria","hotelRating":"3","latitude":"46.8947","longitude":"11.046","state_id":null,"state_name":null,"country_id":null},{"active":false,"Giataid":"25582","cityId":null,"cityName":"Hochgurgl","hotelId":25582,"hotelName":"Laurin","address":"Timmelsjochstrasse 6,6456 Hochgurgl,Nordtirol,Austria","phones":"+4352566227","fax":"+4352566402","email":"hotel@laurin.at","url":"http://www.laurin.at","countryIso2":"AT","countryName":"Austria","hotelRating":"3","latitude":"46.9008","longitude":"11.0501","state_id":null,"state_name":null,"country_id":null},{"active":false,"Giataid":"25583","cityId":null,"cityName":"Hochgurgl","hotelId":25583,"hotelName":"Olymp","address":"Hochgurglerstr. 1,6456 Hochgurgl,Austria","phones":"+4352566491","fax":"+435256638065","email":"office@olymphotel.at","url":"http://www.olymphotel.at","countryIso2":"AT","countryName":"Austria","hotelRating":"4","latitude":"46.8997","longitude":"11.0508","state_id":null,"state_name":null,"country_id":null},{"active":false,"Giataid":"25586","cityId":null,"cityName":"Hinterthiersee","hotelId":25586,"hotelName":"Thaler Hotel Hinterthiersee","address":"Hinterthiersee 93,6335 Hinterthiersee,Austria","phones":"+4353765512","fax":"+4353765787130","email":"thiersee@thaler-hotels.at","url":"http://www.thaler-hotels.at/","countryIso2":"AT","countryName":"Austria","hotelRating":"1","latitude":"47.584","longitude":"12.0643","state_id":null,"state_name":null,"country_id":null},{"active":false,"Giataid":"25587","cityId":null,"cityName":"Hinterthiersee","hotelId":25587,"hotelName":"Ayurveda Resort Sonnhof","address":"Hinterthiersee 16,6335 Thiersee,Austria","phones":"+4353765502","fax":"+4353765902","email":"sonnhof@thierseetal.com","url":"http://www.sonnhof-ayurveda.at","countryIso2":"AT","countryName":"Austria","hotelRating":"4","latitude":"47.5837","longitude":"12.0683","state_id":null,"state_name":null,"country_id":null},{"active":false,"Giataid":"25588","cityId":null,"cityName":"Hinterriss","hotelId":25588,"hotelName":"Herzoglicher Alpenhof","address":"6215 Hinterriss/Eng,Tirol,Austria","phones":"+4352452070","fax":"+4352452078","email":"","url":"","countryIso2":"AT","countryName":"Austria","hotelRating":"3","latitude":"47.4721","longitude":"11.4673","state_id":null,"state_name":null,"country_id":null},{"active":false,"Giataid":"25594","cityId":null,"cityName":"Gro?kirchenheim","hotelId":25594,"hotelName":"Hotel Post","address":"D?llach 83,9843 Gro?kirchheim,Austria","phones":"+43482526736","fax":"+43482520519","email":"hotel.sauper@peak.at","url":"http://www.hotel-post-sauper.at/","countryIso2":"AT","countryName":"Austria","hotelRating":"3","latitude":"46.9733","longitude":"12.8949","state_id":null,"state_name":null,"country_id":null},{"active":false,"Giataid":"25601","cityId":null,"cityName":"Gleins","hotelId":25601,"hotelName":"Gleinserhof","address":"Gleins 10,6141 Sch?nberg,Austria","phones":"+43522562100","fax":"+4352256210014","email":"gleinserhof@stubaital.at","url":"","countryIso2":"AT","countryName":"Austria","hotelRating":"3","latitude":"47.1697","longitude":"11.4039","state_id":null,"state_name":null,"country_id":null},{"active":false,"Giataid":"25615","cityId":null,"cityName":"Ellb?gen","hotelId":25615,"hotelName":"Neuwirt","address":"Niederstra?e 119,6082 Ellb?gen,Tirol,Austria","phones":"","fax":"","email":"","url":"","countryIso2":"AT","countryName":"Austria","hotelRating":"2","latitude":"47.1781","longitude":"11.4383","state_id":null,"state_name":null,"country_id":null},{"active":false,"Giataid":"25621","cityId":null,"cityName":"M?hlbach im Pinzgau","hotelId":25621,"hotelName":"Kirchner","address":"M?hlbach 46,5732 M?hlbach im Pinzgau,Austria","phones":"+4365667208","fax":"+436566720822","email":"info@wanderhotel.at","url":"http://www.wanderhotel.at/hotel-kirchner_winter.htm","countryIso2":"AT","countryName":"Austria","hotelRating":"4","latitude":"47.2738","longitude":"12.3751","state_id":null,"state_name":null,"country_id":null},{"active":false,"Giataid":"25624","cityId":null,"cityName":"Bad H?ring","hotelId":25624,"hotelName":"Thaler","address":"Dorfstra?e 19,6323 Bad H?ring,Tirol,Austria","phones":"+43533274772","fax":"+4353325461262","email":"info@hotel-thaler.at","url":"http://www.hotel-thaler.at","countryIso2":"AT","countryName":"Austria","hotelRating":"3","latitude":"47.5098","longitude":"12.1172","state_id":null,"state_name":null,"country_id":null},{"active":false,"Giataid":"25635","cityId":null,"cityName":"Annaberg","hotelId":25635,"hotelName":"Dachstein West Sporthotel","address":"Annaberg 72,5524 Annaberg im Lammertal,Salzburger Land,Austria","phones":"+4364638466","fax":"+436463846653","email":"hotel@hotel-annaberg.at","url":"http://www.sporthotel-dachsteinwest.eu/de/","countryIso2":"AT","countryName":"Austria","hotelRating":"3","latitude":"47.514","longitude":"13.4309","state_id":null,"state_name":null,"country_id":null},{"active":false,"Giataid":"25637","cityId":null,"cityName":"Annaberg","hotelId":25637,"hotelName":"Alpenpension Unterschlag","address":"Salfelden 12,5524 Annaberg,Austria","phones":"+4364638132","fax":"+436463813232","email":"info@salzburg-abtenau.at","url":"http://www.salzburg-abtenau.at","countryIso2":"AT","countryName":"Austria","hotelRating":"3","latitude":"47.5482","longitude":"13.4349","state_id":null,"state_name":null,"country_id":null},{"active":false,"Giataid":"25638","cityId":null,"cityName":"Lung?tz","hotelId":25638,"hotelName":"Lungotzer Hof","address":"Gappen 16,5523 Lung?tz,Lammertal,Austria","phones":"+43646370120","fax":"+436463701213","email":"info@lungoetzerhof.at","url":"http://www.lungoetzerhof.at/","countryIso2":"AT","countryName":"Austria","hotelRating":"4","latitude":"47.494","longitude":"13.399","state_id":null,"state_name":null,"country_id":null},{"active":false,"Giataid":"25781","cityId":null,"cityName":"Kaunertal","hotelId":25781,"hotelName":"Weisseespitze","address":"Platz 30,6524 Kaunertal,Nordtirol,Austria","phones":"+435475316","fax":"+43547531665","email":"info@weisseespitze.com","url":"http://www.weisseespitze.com/","countryIso2":"AT","countryName":"Austria","hotelRating":"4","latitude":"47.053","longitude":"10.7511","state_id":null,"state_name":null,"country_id":null},{"active":false,"Giataid":"25828","cityId":null,"cityName":"Neustift","hotelId":25828,"hotelName":"Bergcristall","address":"Volderau 5,6167 Neustift im Stubaital,Austria","phones":"+43522630099","fax":"+4352263009990","email":"hotel@bergcristall.at","url":"http://www.bergcristall.at/","countryIso2":"AT","countryName":"Austria","hotelRating":"4","latitude":"47.0684","longitude":"11.2556","state_id":null,"state_name":null,"country_id":null},