[{"active":false,"Giataid":"15934","cityId":65927,"cityName":"Vientiane","hotelId":15934,"hotelName":"Lao Plaza","address":"63 Samsenethai Road,Vientiane,Laos","phones":"+85621218800","fax":"+85621218808","email":"lph@laoplazahotel.com","url":"http://www.laoplazahotel.com/","countryIso2":"LA","countryName":"Laos","hotelRating":"4","latitude":"17.9664","longitude":"102.609","state_id":979,"state_name":"Vientiane Prefecture","country_id":119},{"active":false,"Giataid":"18066","cityId":65927,"cityName":"Vientiane","hotelId":18066,"hotelName":"Mercure Vientiane","address":"Unit 10,Samsenthai Road,P.O. Box 585,Vientiane,Laos","phones":"+85621213571","fax":"+85621213572","email":"resvn@mercurevte.com","url":"http://www.accorhotels.com/de/hotel-1828-mercure-vientiane/index.shtml","countryIso2":"LA","countryName":"Laos","hotelRating":"4","latitude":"17.9688","longitude":"102.594","state_id":979,"state_name":"Vientiane Prefecture","country_id":119},{"active":false,"Giataid":"19021","cityId":65865,"cityName":"Luang Prabang","hotelId":19021,"hotelName":"Phousi Hotel","address":"Setthathirath Road,Luang Prabang,Laos","phones":"+85671212192","fax":"","email":"","url":"","countryIso2":"LA","countryName":"Laos","hotelRating":"3","latitude":"19.8884","longitude":"102.133","state_id":978,"state_name":"Luang Prabang Province","country_id":119},{"active":false,"Giataid":"19022","cityId":65865,"cityName":"Luang Prabang","hotelId":19022,"hotelName":"Belmond La Residence Phou Vao","address":"3 PO Box 50,84330 Luang Prabang,Laos","phones":"+85671212530","fax":"+85671212534","email":"reservations@residencephouvao.com","url":"http://www.residencephouvao.com","countryIso2":"LA","countryName":"Laos","hotelRating":"5","latitude":"19.8772","longitude":"102.137","state_id":978,"state_name":"Luang Prabang Province","country_id":119},{"active":false,"Giataid":"21448","cityId":65927,"cityName":"Vientiane","hotelId":21448,"hotelName":"Settha Palace","address":"6 Pang Kham Street,Vientiane,Laos","phones":"+85621217581","fax":"+85621217583","email":"reservations@setthapalace.com","url":"http://www.setthapalace.com/","countryIso2":"LA","countryName":"Laos","hotelRating":"4","latitude":"17.9682","longitude":"102.61","state_id":979,"state_name":"Vientiane Prefecture","country_id":119},{"active":false,"Giataid":"24004","cityId":65865,"cityName":"Luang Prabang","hotelId":24004,"hotelName":"Villa Santi","address":"Sakarine Road,90 Unit 01,Ban Wat Sen,Laos","phones":"+85671252157","fax":"+85671252158","email":"reservations@villasantihotel.com","url":"http://www.villasantihotel.com","countryIso2":"LA","countryName":"Laos","hotelRating":"4","latitude":"19.8957","longitude":"102.142","state_id":978,"state_name":"Luang Prabang Province","country_id":119},{"active":false,"Giataid":"132668","cityId":65865,"cityName":"Luang Prabang","hotelId":132668,"hotelName":"Chanthavinh Resort","address":"Ban Chan Neu,Luang Prabang,Laos","phones":"+8562055571551","fax":"","email":"reservations@chanthavinhresortandspa.com","url":"http://www.chanthavinhresortandspa.com","countryIso2":"LA","countryName":"Laos","hotelRating":"4","latitude":"19.8972","longitude":"102.132","state_id":978,"state_name":"Luang Prabang Province","country_id":119},{"active":false,"Giataid":"132669","cityId":65927,"cityName":"Vientiane","hotelId":132669,"hotelName":"Cosmo","address":"No.  13  Road,01000 Vientiane,Laos","phones":"+85621711175","fax":"+85621710036","email":"cosmo@hotelcosmolaos.com","url":"http://www.hotelcosmolaos.com/","countryIso2":"LA","countryName":"Laos","hotelRating":"3","latitude":"18.0142","longitude":"102.65","state_id":979,"state_name":"Vientiane Prefecture","country_id":119},{"active":false,"Giataid":"134327","cityId":null,"cityName":"Don Daeng","hotelId":134327,"hotelName":"La Folie Lodge","address":"Pathoumphone district,BP 668,01000 Champasak,Done Daeng,Laos,Laos","phones":"+8562055532004","fax":"","email":"","url":"","countryIso2":"LA","countryName":"Laos","hotelRating":"4","latitude":"14.8781","longitude":"105.893","state_id":null,"state_name":null,"country_id":null},{"active":false,"Giataid":"135076","cityId":65865,"cityName":"Luang Prabang","hotelId":135076,"hotelName":"Vang Thong","address":"Ban Nong Kham,Luang Prabang District,Luang Prabang Province,Laos","phones":"+85671260300","fax":"+85671254350","email":"res_vilaykone@live.com","url":"http://www.vangthonghotel.com/accommodation.htm","countryIso2":"LA","countryName":"Laos","hotelRating":"3","latitude":"19.8799","longitude":"102.127","state_id":978,"state_name":"Luang Prabang Province","country_id":119},{"active":false,"Giataid":"136101","cityId":65865,"cityName":"Luang Prabang","hotelId":136101,"hotelName":"Villa Maly","address":"75 Oupalath Khamboua Road,Ban That Luang Village,84330 Luang Prabang,Laos","phones":"+85671253902","fax":"+85671254912","email":"resa@villa-maly.com","url":"http://www.villa-maly.com/","countryIso2":"LA","countryName":"Laos","hotelRating":"4","latitude":"19.8858","longitude":"102.132","state_id":978,"state_name":"Luang Prabang Province","country_id":119},{"active":false,"Giataid":"139639","cityId":65865,"cityName":"Luang Prabang","hotelId":139639,"hotelName":"Au Fil du Mekong","address":"Oukham Rd,Unit 04,Ban Vat Nong,Luang Prabang,Laos","phones":"+85671260410","fax":"+85671260412","email":"alex.chitdara-mrh@orange.fr","url":"http://www.mekong-riverside.com","countryIso2":"LA","countryName":"Laos","hotelRating":"3","latitude":"19.8946","longitude":"102.138","state_id":978,"state_name":"Luang Prabang Province","country_id":119},{"active":false,"Giataid":"139840","cityId":65865,"cityName":"Luang Prabang","hotelId":139840,"hotelName":"Villa Senesouk","address":"Sakkarine Road,opposite Wat Sene Temple,Luang Prabang,Laos","phones":"","fax":"","email":"","url":"","countryIso2":"LA","countryName":"Laos","hotelRating":"3","latitude":"19.8952","longitude":"102.142","state_id":978,"state_name":"Luang Prabang Province","country_id":119},{"active":false,"Giataid":"139841","cityId":65865,"cityName":"Luang Prabang","hotelId":139841,"hotelName":"Treasure Hotel Laos","address":"Ban That Luang,Norasan Road,Luang Prabang,Laos","phones":"+85671260661","fax":"+85671260662","email":"info@villatreasure.com","url":"http://www.villatreasure.com/home-page.htm","countryIso2":"LA","countryName":"Laos","hotelRating":"2","latitude":"19.8839","longitude":"102.131","state_id":978,"state_name":"Luang Prabang Province","country_id":119},{"active":false,"Giataid":"139919","cityId":65865,"cityName":"Luang Prabang","hotelId":139919,"hotelName":"Le Calao Inn","address":"","phones":"","fax":"","email":"","url":"","countryIso2":"LA","countryName":"Laos","hotelRating":"2","latitude":"19.8968","longitude":"102.141","state_id":978,"state_name":"Luang Prabang Province","country_id":119},{"active":false,"Giataid":"139920","cityId":65927,"cityName":"Vientiane","hotelId":139920,"hotelName":"City Inn Vientiane","address":"Rue Pangkham,Vientiane,Laos","phones":"+85621218333","fax":"+85621218444","email":"info@CityInnVientiane.com","url":"http://www.cityinnvientiane.com/","countryIso2":"LA","countryName":"Laos","hotelRating":"3","latitude":"17.9671","longitude":"102.61","state_id":979,"state_name":"Vientiane Prefecture","country_id":119},{"active":false,"Giataid":"142225","cityId":65865,"cityName":"Luang Prabang","hotelId":142225,"hotelName":"Le Bel Air Boutique Resort","address":"1 Old Bridge,Ban Muang Nga,Luang Prabang,Laos","phones":"+85671254699","fax":"+85671410488","email":"info@lebelairhotels.com","url":"http://www.lebelairhotels.com","countryIso2":"LA","countryName":"Laos","hotelRating":"3","latitude":"19.8875","longitude":"102.143","state_id":978,"state_name":"Luang Prabang Province","country_id":119},{"active":false,"Giataid":"182791","cityId":65865,"cityName":"Luang Prabang","hotelId":182791,"hotelName":"Amantaka","address":"55/53 Kingkitsarath Road,Ban Thongchaleun,Luang Prabang,Laos","phones":"+85671860333","fax":"+85671860335","email":"amantaka@amanresorts.com","url":"http://www.amanresorts.com/amantaka/home.aspx","countryIso2":"LA","countryName":"Laos","hotelRating":"5","latitude":"19.8879","longitude":"102.136","state_id":978,"state_name":"Luang Prabang Province","country_id":119},{"active":false,"Giataid":"202114","cityId":65865,"cityName":"Luang Prabang","hotelId":202114,"hotelName":"Sunset Villa by Burasari","address":"Ban Saylom 1,P.O.Box: 983,06000 Luang Prabang,Laos","phones":"+856712550312","fax":"","email":"","url":"","countryIso2":"LA","countryName":"Laos","hotelRating":"4","latitude":"19.8811","longitude":"102.123","state_id":978,"state_name":"Luang Prabang Province","country_id":119},{"active":false,"Giataid":"226506","cityId":65865,"cityName":"Luang Prabang","hotelId":226506,"hotelName":"Rama","address":"Visounnarath Road,Ban Visoun,Luang Prabang,Laos,Laos","phones":"+85671212247","fax":"+85671253266","email":"rama_hotel@yahoo.com","url":"http://www.ramahotellaos.com/","countryIso2":"LA","countryName":"Laos","hotelRating":"3","latitude":"19.8865","longitude":"102.138","state_id":978,"state_name":"Luang Prabang Province","country_id":119},{"active":false,"Giataid":"227332","cityId":65865,"cityName":"Luang Prabang","hotelId":227332,"hotelName":"The Luang Say Residence","address":"4-5, Ban Phonepheng,Luang Prabang,Laos","phones":"+85671260891","fax":"+85671260892","email":"info@luangsayresidence.com","url":"http://www.luangsayresidence.com","countryIso2":"LA","countryName":"Laos","hotelRating":"5","latitude":"19.8784","longitude":"102.13","state_id":978,"state_name":"Luang Prabang Province","country_id":119},{"active":false,"Giataid":"229252","cityId":65927,"cityName":"Vientiane","hotelId":229252,"hotelName":"Ansara Hotel","address":"PO Box 622,Quai Fa Ngum,Ban Vat Chan Tha, Hom 5,Vientiane,Muang Chanthabury,Laos","phones":"+856212135148","fax":"","email":"","url":"","countryIso2":"LA","countryName":"Laos","hotelRating":"4","latitude":"17.9628","longitude":"102.614","state_id":979,"state_name":"Vientiane Prefecture","country_id":119},{"active":false,"Giataid":"229260","cityId":65865,"cityName":"Luang Prabang","hotelId":229260,"hotelName":"Satri House","address":"57 Photisarath Road,Ban That Luang,Luang Prabang,Prabang,Laos","phones":"+85671253491","fax":"+85671253418","email":"info@satrihouse.com","url":"http://www.satrihouse.com/","countryIso2":"LA","countryName":"Laos","hotelRating":"4","latitude":"19.8853","longitude":"102.141","state_id":978,"state_name":"Luang Prabang Province","country_id":119},{"active":false,"Giataid":"230107","cityId":65865,"cityName":"Luang Prabang","hotelId":230107,"hotelName":"Villa Deux Rivieres","address":"Kingkitsalath Road,Ban Khily,Luang Prabang,Laos","phones":"+8562077378575","fax":"","email":"info@villadeuxrivieres.com","url":"http://www.villadeuxrivieres.com/","countryIso2":"LA","countryName":"Laos","hotelRating":"4","latitude":"19.8963","longitude":"102.144","state_id":978,"state_name":"Luang Prabang Province","country_id":119},{"active":false,"Giataid":"232174","cityId":65865,"cityName":"Luang Prabang","hotelId":232174,"hotelName":"Le Palais Juliana","address":"Tcho Phetsalath Street,Luang Prabang,Laos,Laos","phones":"+85671260417","fax":"+85671254542","email":"info@lepalaisjuliana.com/","url":"http://www.lepalaisjuliana.com/","countryIso2":"LA","countryName":"Laos","hotelRating":"4","latitude":"19.8856","longitude":"102.141","state_id":978,"state_name":"Luang Prabang Province","country_id":119},{"active":false,"Giataid":"232643","cityId":null,"cityName":"Vang Vieng","hotelId":232643,"hotelName":"The Elephant Crossing Hotel","address":"Ban Viengkeo,P.O. Box 5512,Vang Vieng,Vientiane Province,Laos","phones":"+85623511232","fax":"+85623511232","email":"info@theelephantcrossinghotel.com","url":"http://www.theelephantcrossinghotel.com","countryIso2":"LA","countryName":"Laos","hotelRating":"3","latitude":"18.9227","longitude":"102.445","state_id":null,"state_name":null,"country_id":null},{"active":false,"Giataid":"234470","cityId":65865,"cityName":"Luang Prabang","hotelId":234470,"hotelName":"Villa Chitdara","address":"Khounsua Road,Luang Prabang,Laos","phones":"+85671254949","fax":"+85671254949","email":"villachitdara@yahoo.com","url":"http://www.villachitdara.com/","countryIso2":"LA","countryName":"Laos","hotelRating":"3","latitude":"19.8938","longitude":"102.137","state_id":978,"state_name":"Luang Prabang Province","country_id":119},{"active":false,"Giataid":"234508","cityId":65865,"cityName":"Luang Prabang","hotelId":234508,"hotelName":"Cafe de Laos Inn","address":"93/3 Phoneheuang Village,Sakharin Road,Luang Prabang,Laos","phones":"+85671253553","fax":"+85671253553","email":"info@the-chang.com","url":"http://www.the-chang-inn.com/","countryIso2":"LA","countryName":"Laos","hotelRating":"3","latitude":"19.8952","longitude":"102.142","state_id":978,"state_name":"Luang Prabang Province","country_id":119},{"active":false,"Giataid":"234509","cityId":65927,"cityName":"Vientiane","hotelId":234509,"hotelName":"Sabaidee at Lao Hotel","address":"Pangkham Road,Sisaket Village,Chanthabouly District,Vientiane,Laos","phones":"+85621265141","fax":"+85621265143","email":"rsvn@sabaideeatlaohotel.com","url":"http://www.sabaideeatlaohotel.com","countryIso2":"LA","countryName":"Laos","hotelRating":"3","latitude":"17.9667","longitude":"102.61","state_id":979,"state_name":"Vientiane Prefecture","country_id":119},{"active":false,"Giataid":"236810","cityId":null,"cityName":"Pakbeng","hotelId":236810,"hotelName":"Sanctuary Pakbeng Lodge","address":"Ban Done Khame,Pakbeng District,Oudomxay Province,Laos","phones":"+85681212304","fax":"+85681212304","email":"sofimek@etllao.com","url":"http://www.pakbenglodge.com/","countryIso2":"LA","countryName":"Laos","hotelRating":"3","latitude":"19.8922","longitude":"101.127","state_id":null,"state_name":null,"country_id":null},{"active":false,"Giataid":"236979","cityId":65874,"cityName":"Muang Khong","hotelId":236979,"hotelName":"Senesothxeune Hotel","address":"Muang Kong,Ban Khang Khong,Don Khong Island,Province Champassak,Laos","phones":"+85631515021","fax":"+85631251459","email":"","url":"http://www.ssx-hotel.com","countryIso2":"LA","countryName":"Laos","hotelRating":"3","latitude":"14.115","longitude":"105.855","state_id":996,"state_name":"Champasak Province","country_id":119},{"active":false,"Giataid":"238192","cityId":65865,"cityName":"Luang Prabang","hotelId":238192,"hotelName":"Zen Namkhan Boutique Resort","address":"Ban Xieng Lom,Luang Prabang,Laos","phones":"+856305142411","fax":"+8562055571120","email":"info@zennamkhanresort.com","url":"http://www.zennamkhanresort.com/index.shtml","countryIso2":"LA","countryName":"Laos","hotelRating":"4","latitude":"19.8857","longitude":"102.141","state_id":978,"state_name":"Luang Prabang Province","country_id":119},{"active":false,"Giataid":"238596","cityId":65865,"cityName":"Luang Prabang","hotelId":238596,"hotelName":"Ban Lao","address":"Thammamikalath Rd,P.O.Box 888,Ban Mano,Luang Prabang,Laos","phones":"+85671252078","fax":"+85671212438","email":"info@banlaohotel.com","url":"http://www.banlaohotel.com/","countryIso2":"LA","countryName":"Laos","hotelRating":"2","latitude":"19.884","longitude":"102.133","state_id":978,"state_name":"Luang Prabang Province","country_id":119},{"active":false,"Giataid":"238599","cityId":65865,"cityName":"Luang Prabang","hotelId":238599,"hotelName":"Santi Resort & Spa","address":"Nadeung Road,Ban Nadeuy,PO Box 681,Luang Prabang,Laos","phones":"+85671253470","fax":"+85671253471","email":"reservations@villasantihotel.com","url":"http://www.villasantihotel.com","countryIso2":"LA","countryName":"Laos","hotelRating":"4","latitude":"19.8665","longitude":"102.133","state_id":978,"state_name":"Luang Prabang Province","country_id":119},{"active":false,"Giataid":"238602","cityId":65865,"cityName":"Luang Prabang","hotelId":238602,"hotelName":"Villa Saykham","address":"Sisavang Wattana Rd,Xiengmouane Village,Luang Prabang,Laos","phones":"","fax":"","email":"","url":"","countryIso2":"LA","countryName":"Laos","hotelRating":"2","latitude":"19.8943","longitude":"102.139","state_id":978,"state_name":"Luang Prabang Province","country_id":119},{"active":false,"Giataid":"239190","cityId":65865,"cityName":"Luang Prabang","hotelId":239190,"hotelName":"Luang Prabang View Hotel","address":"Thai Lao Friendship Road,Phou Meo,Luang Prabang,Laos","phones":"+85671260560","fax":"+85671260560","email":"","url":"http://www.shintamani.com/luang-prabang/","countryIso2":"LA","countryName":"Laos","hotelRating":"4","latitude":"19.8766","longitude":"102.133","state_id":978,"state_name":"Luang Prabang Province","country_id":119},{"active":false,"Giataid":"239921","cityId":65927,"cityName":"Vientiane","hotelId":239921,"hotelName":"Ramayana Gallery Hotel","address":"Lanexang Avenue,Vientiane,Laos","phones":"+85621214457","fax":"+85621214454","email":"galleryhotel@ramayana-laos.com","url":"http://www.ramayana-laos.com/vte","countryIso2":"LA","countryName":"Laos","hotelRating":"3","latitude":"17.9688","longitude":"102.617","state_id":979,"state_name":"Vientiane Prefecture","country_id":119},{"active":false,"Giataid":"241781","cityId":65865,"cityName":"Luang Prabang","hotelId":241781,"hotelName":"Sofitel Luang Prabang","address":"Ban Mano Road,0600 Luang Prabang,Democratic Republic Lao,Laos","phones":"+85671260777","fax":"+85671260776","email":"book@hoteldelapaixlp.com","url":"http://hoteldelapaixlp.com","countryIso2":"LA","countryName":"Laos","hotelRating":"5","latitude":"19.8819","longitude":"102.135","state_id":978,"state_name":"Luang Prabang Province","country_id":119},{"active":false,"Giataid":"244151","cityId":65927,"cityName":"Vientiane","hotelId":244151,"hotelName":"Best Western Vientiane","address":"2-12 Francois Nginn Street,Mixai Village,Chanthaboury District,P.O. Box 4148,01000 Vientiane,Laos","phones":"+85621216906","fax":"+85621216223","email":"","url":"http://book.bestwestern.com/bestwestern/LA/Vientiane-Capital-hotels/BEST-WESTERN-Vientiane-Hotel/Hotel-Overview.do?propertyCode=79060","countryIso2":"LA","countryName":"Laos","hotelRating":"3","latitude":"17.964","longitude":"102.604","state_id":979,"state_name":"Vientiane Prefecture","country_id":119},{"active":false,"Giataid":"245803","cityId":65865,"cityName":"Luang Prabang","hotelId":245803,"hotelName":"My Dream Boutique Resort and Hotel","address":"Meung Nga Street,Ban Meung Nga Village,Luang Prabang,Laos","phones":"+85671252853","fax":"+85671212986","email":"info@mydreamresort.com","url":"http://www.mydreamresort.com","countryIso2":"LA","countryName":"Laos","hotelRating":"3","latitude":"19.8876","longitude":"102.142","state_id":978,"state_name":"Luang Prabang Province","country_id":119},{"active":false,"Giataid":"246196","cityId":65927,"cityName":"Vientiane","hotelId":246196,"hotelName":"Salana Boutique Hote","address":"Chao Anou Rd 112,Wat Chan Village,Chanthabouly,Vientiane,Laos","phones":"+85621254254","fax":"+85621254250","email":"wecare@salanaboutique.com","url":"http://www.salanaboutique.com/home.php","countryIso2":"LA","countryName":"Laos","hotelRating":"4","latitude":"17.9659","longitude":"102.603","state_id":979,"state_name":"Vientiane Prefecture","country_id":119},{"active":false,"Giataid":"247844","cityId":65865,"cityName":"Luang Prabang","hotelId":247844,"hotelName":"Kiridara Hotel & Villas","address":"22/13 North Road,Ban Naviengkham,Luang Prabang,Laos","phones":"+85671261888","fax":"+85671260935","email":"stay@kiridara.com","url":"http://www.snhcollection.com/kiridara/accommodation/kiridara-villas/kiridara-villa-ban-visoun/","countryIso2":"LA","countryName":"Laos","hotelRating":"4","latitude":"19.8777","longitude":"102.141","state_id":978,"state_name":"Luang Prabang Province","country_id":119},{"active":false,"Giataid":"247845","cityId":65927,"cityName":"Vientiane","hotelId":247845,"hotelName":"Asian Pavilion","address":"379, Samsenthai Road,Vientiane,Laos","phones":"","fax":"","email":"","url":"","countryIso2":"LA","countryName":"Laos","hotelRating":"2","latitude":"17.9656","longitude":"102.61","state_id":979,"state_name":"Vientiane Prefecture","country_id":119},{"active":false,"Giataid":"247846","cityId":65927,"cityName":"Vientiane","hotelId":247846,"hotelName":"Samxay","address":"162 Thadeua Road,Vientiane,Laos","phones":"","fax":"","email":"","url":"http://www.samxay-hotel.com/","countryIso2":"LA","countryName":"Laos","hotelRating":"1","latitude":"17.9516","longitude":"102.619","state_id":979,"state_name":"Vientiane Prefecture","country_id":119},{"active":false,"Giataid":"249553","cityId":65865,"cityName":"Luang Prabang","hotelId":249553,"hotelName":"Villa Pumalin","address":"Ban Hoxieng,0600 Luang prabang,Laos","phones":"+85671212777","fax":"+85671212777","email":"info@villapumalin.com","url":"http://www.villapumalin.com/contactus.html","countryIso2":"LA","countryName":"Laos","hotelRating":"2","latitude":"19.8841","longitude":"102.142","state_id":978,"state_name":"Luang Prabang Province","country_id":119},{"active":false,"Giataid":"321395","cityId":null,"cityName":"Xieng Khouang","hotelId":321395,"hotelName":"Auberge Phouphadeng","address":"Ban Phonsavang,Peak District,Xieng Khouang City Center,Xieng Khouang,Laos","phones":"","fax":"","email":"","url":"","countryIso2":"LA","countryName":"Laos","hotelRating":"1","latitude":"19.4427","longitude":"103.221","state_id":null,"state_name":null,"country_id":null},{"active":false,"Giataid":"321396","cityId":65927,"cityName":"Vientiane","hotelId":321396,"hotelName":"Tai Pan","address":"","phones":"","fax":"","email":"","url":"","countryIso2":"LA","countryName":"Laos","hotelRating":"1","latitude":"17.9655","longitude":"102.609","state_id":979,"state_name":"Vientiane Prefecture","country_id":119},{"active":false,"Giataid":"321397","cityId":65927,"cityName":"Vientiane","hotelId":321397,"hotelName":"Khamvongsa Guesthouse","address":"","phones":"","fax":"","email":"","url":"","countryIso2":"LA","countryName":"Laos","hotelRating":"3","latitude":"17.9661","longitude":"102.602","state_id":979,"state_name":"Vientiane Prefecture","country_id":119},{"active":false,"Giataid":"321398","cityId":65927,"cityName":"Vientiane","hotelId":321398,"hotelName":"Youth Inn","address":"","phones":"","fax":"","email":"","url":"","countryIso2":"LA","countryName":"Laos","hotelRating":"1","latitude":"17.9655","longitude":"102.609","state_id":979,"state_name":"Vientiane Prefecture","country_id":119},{"active":false,"Giataid":"321399","cityId":65927,"cityName":"Vientiane","hotelId":321399,"hotelName":"Dragon Lodge","address":"","phones":"","fax":"","email":"","url":"","countryIso2":"LA","countryName":"Laos","hotelRating":"2","latitude":"17.9655","longitude":"102.609","state_id":979,"state_name":"Vientiane Prefecture","country_id":119},{"active":false,"Giataid":"321400","cityId":65927,"cityName":"Vientiane","hotelId":321400,"hotelName":"Ban Sufa Garden Resort","address":"","phones":"","fax":"","email":"","url":"","countryIso2":"LA","countryName":"Laos","hotelRating":"2","latitude":"17.9655","longitude":"102.609","state_id":979,"state_name":"Vientiane Prefecture","country_id":119},{"active":false,"Giataid":"321401","cityId":65927,"cityName":"Vientiane","hotelId":321401,"hotelName":"Sinnakhone Hotel","address":"Francois Ngin Road,Ban Mixay,Vientiane,Laos","phones":"","fax":"","email":"","url":"","countryIso2":"LA","countryName":"Laos","hotelRating":"2","latitude":"17.965","longitude":"102.605","state_id":979,"state_name":"Vientiane Prefecture","country_id":119},{"active":false,"Giataid":"321402","cityId":65927,"cityName":"Vientiane","hotelId":321402,"hotelName":"Thawee Guest House","address":"Rue Hengboun","phones":"","fax":"","email":"","url":"","countryIso2":"LA","countryName":"Laos","hotelRating":"2","latitude":"17.9679","longitude":"102.603","state_id":979,"state_name":"Vientiane Prefecture","country_id":119},{"active":false,"Giataid":"321403","cityId":65865,"cityName":"Luang Prabang","hotelId":321403,"hotelName":"Mouang Sua Hotel","address":"","phones":"","fax":"","email":"","url":"","countryIso2":"LA","countryName":"Laos","hotelRating":"1","latitude":"19.887","longitude":"102.138","state_id":978,"state_name":"Luang Prabang Province","country_id":119},{"active":false,"Giataid":"321405","cityId":65865,"cityName":"Luang Prabang","hotelId":321405,"hotelName":"Sanakeo Hotel","address":"Phu Vao Road,Ban Phongkham,Phu Meo,Luang Prabang,Laos","phones":"+85671252992","fax":"","email":"","url":"","countryIso2":"LA","countryName":"Laos","hotelRating":"3","latitude":"19.887","longitude":"102.138","state_id":978,"state_name":"Luang Prabang Province","country_id":119},{"active":false,"Giataid":"321406","cityId":65865,"cityName":"Luang Prabang","hotelId":321406,"hotelName":"HeuanSopha","address":"52 Ban Vat Sene,06000 Luang Prabang,Laos","phones":"","fax":"","email":"","url":"","countryIso2":"LA","countryName":"Laos","hotelRating":"1","latitude":"19.8937","longitude":"102.14","state_id":978,"state_name":"Luang Prabang Province","country_id":119},{"active":false,"Giataid":"321407","cityId":65865,"cityName":"Luang Prabang","hotelId":321407,"hotelName":"Elephant Lodge","address":"","phones":"","fax":"","email":"","url":"","countryIso2":"LA","countryName":"Laos","hotelRating":"1","latitude":"19.887","longitude":"102.138","state_id":978,"state_name":"Luang Prabang Province","country_id":119},{"active":false,"Giataid":"354512","cityId":65865,"cityName":"Luang Prabang","hotelId":354512,"hotelName":"Sanctuary Hotel Luang Prabang","address":"Kitsalat Road,Ban Aham,Luang Prabang,Laos","phones":"+85671213777","fax":"","email":"","url":"","countryIso2":"LA","countryName":"Laos","hotelRating":"3","latitude":"19.8869","longitude":"102.136","state_id":978,"state_name":"Luang Prabang Province","country_id":119},{"active":false,"Giataid":"365558","cityId":null,"cityName":"Ban Khiet Ngong","hotelId":365558,"hotelName":"Kingfisher Ecolodge","address":"Pathoumphone,16000 Ban Khiet Ngong,Champasak,Laos","phones":"+8562055726315","fax":"","email":"info@kingfisherecolodge.com","url":"http://www.kingfisherecolodge.com/","countryIso2":"LA","countryName":"Laos","hotelRating":"2","latitude":"14.7713","longitude":"106.041","state_id":null,"state_name":null,"country_id":null},{"active":false,"Giataid":"372739","cityId":65865,"cityName":"Luang Prabang","hotelId":372739,"hotelName":"Mekong Riverview Hotel","address":"Mekong Riverside Road,Xieng Thong Village,PO Box 183,Luang Prabang,Laos","phones":"+85671254900","fax":"","email":"","url":"","countryIso2":"LA","countryName":"Laos","hotelRating":"3","latitude":"19.898","longitude":"102.144","state_id":978,"state_name":"Luang Prabang Province","country_id":119},{"active":false,"Giataid":"378613","cityId":65927,"cityName":"Vientiane","hotelId":378613,"hotelName":"Rashmi's The Plaza Vientiane","address":"Thadeua Road,Ban Beungkhayong-Tai,Sisattanak District,Vientiane,Laos","phones":"+85621315088","fax":"","email":"","url":"","countryIso2":"LA","countryName":"Laos","hotelRating":"5","latitude":"17.9428","longitude":"102.619","state_id":979,"state_name":"Vientiane Prefecture","country_id":119},{"active":false,"Giataid":"532127","cityId":65927,"cityName":"Vientiane","hotelId":378614,"hotelName":"Parkview Executive Suites","address":"Souphanouvong Avenue,Sikhotabong District,P.O.Box: 4793,Vientiane,Laos","phones":"","fax":"","email":"","url":"","countryIso2":"LA","countryName":"Laos","hotelRating":"3","latitude":"17.9683","longitude":"102.597","state_id":979,"state_name":"Vientiane Prefecture","country_id":119},{"active":false,"Giataid":"378615","cityId":65927,"cityName":"Vientiane","hotelId":378615,"hotelName":"Naphavong","address":"","phones":"","fax":"","email":"","url":"","countryIso2":"LA","countryName":"Laos","hotelRating":"2","latitude":"17.9655","longitude":"102.609","state_id":979,"state_name":"Vientiane Prefecture","country_id":119},{"active":false,"Giataid":"391212","cityId":65865,"cityName":"Luang Prabang","hotelId":391212,"hotelName":"Luangprabang Inn","address":"25/2 Bounkhong Road,Thad Luang Village,Luang Prabang 06000,Laos","phones":"","fax":"","email":"","url":"","countryIso2":"LA","countryName":"Laos","hotelRating":"3","latitude":"19.8854","longitude":"102.133","state_id":978,"state_name":"Luang Prabang Province","country_id":119},{"active":false,"Giataid":"400761","cityId":65865,"cityName":"Luang Prabang","hotelId":400761,"hotelName":"Ancient Luang Prabang Ban Phoneheuang","address":"Khunsour Road,near by Xiengthong Temple,Ban Phonheuang,Luang Prabang,Laos","phones":"+85671260804","fax":"+85671260804","email":"ph_info@ancientluangprabang.com","url":"http://www.ancientluangprabang.com/ph/index.php","countryIso2":"LA","countryName":"Laos","hotelRating":"3","latitude":"19.8963","longitude":"102.141","state_id":978,"state_name":"Luang Prabang Province","country_id":119},{"active":false,"Giataid":"400788","cityId":65865,"cityName":"Luang Prabang","hotelId":400788,"hotelName":"Kiridara Villa Visoun","address":"Ban Visoun,Luang Prabang,Laos","phones":"+85671261888","fax":"+85671261888","email":"stay@kiridara.com","url":"http://www.snhcollection.com/kiridara/accommodation/kiridara-villas/kiridara-villa-ban-visoun/","countryIso2":"LA","countryName":"Laos","hotelRating":"5","latitude":"19.8859","longitude":"102.139","state_id":978,"state_name":"Luang Prabang Province","country_id":119},{"active":false,"Giataid":"400789","cityId":65865,"cityName":"Luang Prabang","hotelId":400789,"hotelName":"Kiridara Villa Ban Kili","address":"No 45 Ban Kili,Luang Prabang,Laos","phones":"+85671261888","fax":"+85671260935","email":"info@kiridara.com","url":"http://www.snhcollection.com/kiridara/accommodation/kiridara-villas/kiridara-villa-ban-kili/","countryIso2":"LA","countryName":"Laos","hotelRating":"4","latitude":"19.8838","longitude":"102.138","state_id":978,"state_name":"Luang Prabang Province","country_id":119},{"active":false,"Giataid":"409072","cityId":null,"cityName":"Huay Xai","hotelId":409072,"hotelName":"Houay Xai Riverside Hotel","address":"R3A Road,Ban Khonekeo,Houay Xai,Bokeo Province,Laos,Laos","phones":"+85684211765","fax":"+85684211765","email":"houayxairiverside@hotmail.com","url":"http://houayxairiverside.com","countryIso2":"LA","countryName":"Laos","hotelRating":"1","latitude":"20.276","longitude":"100.412","state_id":null,"state_name":null,"country_id":null},{"active":false,"Giataid":"412312","cityId":65865,"cityName":"Luang Prabang","hotelId":412312,"hotelName":"The Apsara","address":"Kingkitsarath Rd,Ban Wat Sene,Luang Prabang,Laos","phones":"+85671254252","fax":"","email":"info@theapsara.com","url":"http://www.theapsara.com/the-apsara.html","countryIso2":"LA","countryName":"Laos","hotelRating":"3","latitude":"19.8948","longitude":"102.142","state_id":978,"state_name":"Luang Prabang Province","country_id":119},{"active":false,"Giataid":"454321","cityId":65917,"cityName":"Pakse","hotelId":454321,"hotelName":"Arawan Riverside Hotel","address":"Salakiew Street,Phonesavanh Village,06000 Pakse,Laos","phones":"","fax":"","email":"","url":"","countryIso2":"LA","countryName":"Laos","hotelRating":"4","latitude":"15.1083","longitude":"105.821","state_id":996,"state_name":"Champasak Province","country_id":119},{"active":false,"Giataid":"454563","cityId":65927,"cityName":"Vientiane","hotelId":454563,"hotelName":"Leuxay Hotel","address":"","phones":"","fax":"","email":"","url":"","countryIso2":"LA","countryName":"Laos","hotelRating":"4","latitude":"17.9759","longitude":"102.604","state_id":979,"state_name":"Vientiane Prefecture","country_id":119},{"active":false,"Giataid":"454761","cityId":65923,"cityName":"Savannakhet","hotelId":454761,"hotelName":"Phoumesay Hotel","address":"Nongdeun Road,Savannakhet,Laos","phones":"","fax":"","email":"","url":"","countryIso2":"LA","countryName":"Laos","hotelRating":"2","latitude":"16.6048","longitude":"104.779","state_id":990,"state_name":"Savannakhet Province","country_id":119},{"active":false,"Giataid":"454773","cityId":65923,"cityName":"Savannakhet","hotelId":454773,"hotelName":"Sai Ngeun Hotel","address":"Ban Udomvilay,Mueng Kaisong,Savannakhet,Laos","phones":"","fax":"","email":"","url":"","countryIso2":"LA","countryName":"Laos","hotelRating":"2","latitude":"16.6127","longitude":"104.777","state_id":990,"state_name":"Savannakhet Province","country_id":119},{"active":false,"Giataid":"454807","cityId":65927,"cityName":"Vientiane","hotelId":454807,"hotelName":"Sengphachanh Boutique Hotel","address":"Lanexang Avenue,Ban Hatsady Tai,Vientiane,Laos","phones":"","fax":"","email":"","url":"","countryIso2":"LA","countryName":"Laos","hotelRating":"2","latitude":"18.0261","longitude":"102.669","state_id":979,"state_name":"Vientiane Prefecture","country_id":119},{"active":false,"Giataid":"454865","cityId":65927,"cityName":"Vientiane","hotelId":454865,"hotelName":"Lily Hotel","address":"Ban Khoualuang,Chanthabuly District,Vientiane,Laos","phones":"","fax":"","email":"","url":"","countryIso2":"LA","countryName":"Laos","hotelRating":"4","latitude":"17.9752","longitude":"102.6","state_id":979,"state_name":"Vientiane Prefecture","country_id":119},{"active":false,"Giataid":"454899","cityId":65865,"cityName":"Luang Prabang","hotelId":454899,"hotelName":"Sunway Hotel","address":"","phones":"","fax":"","email":"","url":"","countryIso2":"LA","countryName":"Laos","hotelRating":"3","latitude":"19.8843","longitude":"102.141","state_id":978,"state_name":"Luang Prabang Province","country_id":119},{"active":false,"Giataid":"454903","cityId":65927,"cityName":"Vientiane","hotelId":454903,"hotelName":"Sanjiang Grand Hotel","address":"T2 Road,San Jiang International Market,Vientiane,Laos","phones":"","fax":"","email":"","url":"","countryIso2":"LA","countryName":"Laos","hotelRating":"1","latitude":"17.9716","longitude":"102.583","state_id":979,"state_name":"Vientiane Prefecture","country_id":119},{"active":false,"Giataid":"454911","cityId":65927,"cityName":"Vientiane","hotelId":454911,"hotelName":"Nakhonesack Hotel 3","address":"Thongsangnang Road,Ban Sisavat,Chanthabury District,01000 Vientiane,Laos","phones":"+85621265133","fax":"","email":"","url":"","countryIso2":"LA","countryName":"Laos","hotelRating":"3","latitude":"17.9784","longitude":"102.615","state_id":979,"state_name":"Vientiane Prefecture","country_id":119},{"active":false,"Giataid":"454966","cityId":65927,"cityName":"Vientiane","hotelId":454966,"hotelName":"Vientiane SP Hotel","address":"Phanomphenh Road,Ban Anou Vientiane,01000 Vientiane,Laos","phones":"+85621240068","fax":"","email":"vientianesp@yahoo.com","url":"http://www.vientianesphotel.com/","countryIso2":"LA","countryName":"Laos","hotelRating":"3","latitude":"17.9686","longitude":"102.605","state_id":979,"state_name":"Vientiane Prefecture","country_id":119},{"active":false,"Giataid":"455229","cityId":65917,"cityName":"Pakse","hotelId":455229,"hotelName":"Somvang Hotel","address":"","phones":"","fax":"","email":"","url":"","countryIso2":"LA","countryName":"Laos","hotelRating":"2","latitude":"15.1105","longitude":"105.821","state_id":996,"state_name":"Champasak Province","country_id":119},{"active":false,"Giataid":"455232","cityId":65917,"cityName":"Pakse","hotelId":455232,"hotelName":"Lankham Hotel","address":"133 13 Southern Road,Lakmeaung Village,01000 Pakse,Champasak,Laos","phones":"+8562055533699","fax":"","email":"lankhamhotel@yahoo.com","url":"http://www.lankhamhotel-pakse.com/","countryIso2":"LA","countryName":"Laos","hotelRating":"2","latitude":"15.1219","longitude":"105.8","state_id":996,"state_name":"Champasak Province","country_id":119},{"active":false,"Giataid":"455253","cityId":65917,"cityName":"Pakse","hotelId":455253,"hotelName":"Saylomyen Hotel","address":"","phones":"","fax":"","email":"","url":"","countryIso2":"LA","countryName":"Laos","hotelRating":"2","latitude":"15.1195","longitude":"105.803","state_id":996,"state_name":"Champasak Province","country_id":119},{"active":false,"Giataid":"455321","cityId":65927,"cityName":"Vientiane","hotelId":455321,"hotelName":"Savankham Hotel","address":"","phones":"","fax":"","email":"","url":"","countryIso2":"LA","countryName":"Laos","hotelRating":"2","latitude":"17.985","longitude":"102.639","state_id":979,"state_name":"Vientiane Prefecture","country_id":119},{"active":false,"Giataid":"455322","cityId":65927,"cityName":"Vientiane","hotelId":455322,"hotelName":"Bouasavanh Hotel","address":"","phones":"","fax":"","email":"","url":"","countryIso2":"LA","countryName":"Laos","hotelRating":"2","latitude":"17.9905","longitude":"102.593","state_id":979,"state_name":"Vientiane Prefecture","country_id":119},{"active":false,"Giataid":"455363","cityId":65917,"cityName":"Pakse","hotelId":455363,"hotelName":"Phi Dao Hotel","address":"No. 125, 13 Southern Road","phones":"","fax":"","email":"","url":"","countryIso2":"LA","countryName":"Laos","hotelRating":"2","latitude":"15.1219","longitude":"105.8","state_id":996,"state_name":"Champasak Province","country_id":119},{"active":false,"Giataid":"455603","cityId":65927,"cityName":"Vientiane","hotelId":455603,"hotelName":"Hongkham Hotel","address":"","phones":"","fax":"","email":"","url":"","countryIso2":"LA","countryName":"Laos","hotelRating":"2","latitude":"17.9795","longitude":"102.642","state_id":979,"state_name":"Vientiane Prefecture","country_id":119},{"active":false,"Giataid":"455628","cityId":65927,"cityName":"Vientiane","hotelId":455628,"hotelName":"Mekong Breeze Hotel","address":"Ban Sisomsuen Kaulieu Road,Sikhottabong District,Vientiane,Laos","phones":"","fax":"","email":"","url":"","countryIso2":"LA","countryName":"Laos","hotelRating":"2","latitude":"17.9757","longitude":"102.545","state_id":979,"state_name":"Vientiane Prefecture","country_id":119},{"active":false,"Giataid":"455798","cityId":65874,"cityName":"Muang Khong","hotelId":455798,"hotelName":"Rattanasing Hotel","address":"Bann Meungkhong,01000 Muang Kh?ng,Khong District,Laos","phones":"","fax":"","email":"","url":"","countryIso2":"LA","countryName":"Laos","hotelRating":"2","latitude":"14.0471","longitude":"105.889","state_id":996,"state_name":"Champasak Province","country_id":119},{"active":false,"Giataid":"455844","cityId":65927,"cityName":"Vientiane","hotelId":455844,"hotelName":"Phetmanixay Hotel","address":"","phones":"","fax":"","email":"","url":"","countryIso2":"LA","countryName":"Laos","hotelRating":"1","latitude":"17.9655","longitude":"102.609","state_id":979,"state_name":"Vientiane Prefecture","country_id":119},{"active":false,"Giataid":"455848","cityId":65874,"cityName":"Muang Khong","hotelId":455848,"hotelName":"Souksabay Guesthouse","address":"Ban Kangkhong,01000 Muang Kh?ng,Khong District,Laos","phones":"","fax":"","email":"","url":"","countryIso2":"LA","countryName":"Laos","hotelRating":"1","latitude":"14.1191","longitude":"105.856","state_id":996,"state_name":"Champasak Province","country_id":119},{"active":false,"Giataid":"455999","cityId":65927,"cityName":"Vientiane","hotelId":455999,"hotelName":"Phonebandith Hotel","address":"Phontong Dongdok Road,Vientiane,Laos","phones":"","fax":"","email":"","url":"","countryIso2":"LA","countryName":"Laos","hotelRating":"2","latitude":"18.0052","longitude":"102.628","state_id":979,"state_name":"Vientiane Prefecture","country_id":119},{"active":false,"Giataid":"456221","cityId":65927,"cityName":"Vientiane","hotelId":456221,"hotelName":"Hotel Lao","address":"43/7 Hengboun Road,Ban Haisok,Vientiane,Laos","phones":"","fax":"","email":"","url":"","countryIso2":"LA","countryName":"Laos","hotelRating":"3","latitude":"17.9677","longitude":"102.604","state_id":979,"state_name":"Vientiane Prefecture","country_id":119},{"active":false,"Giataid":"456266","cityId":65927,"cityName":"Vientiane","hotelId":456266,"hotelName":"Xaysavang Hotel","address":"","phones":"","fax":"","email":"","url":"","countryIso2":"LA","countryName":"Laos","hotelRating":"1","latitude":"18.0571","longitude":"102.672","state_id":979,"state_name":"Vientiane Prefecture","country_id":119},{"active":false,"Giataid":"456267","cityId":65927,"cityName":"Vientiane","hotelId":456267,"hotelName":"Vilaysouk Hotel","address":"","phones":"","fax":"","email":"","url":"","countryIso2":"LA","countryName":"Laos","hotelRating":"1","latitude":"17.9881","longitude":"102.636","state_id":979,"state_name":"Vientiane Prefecture","country_id":119},{"active":false,"Giataid":"456463","cityId":65927,"cityName":"Vientiane","hotelId":456463,"hotelName":"Daokham Hotel","address":"","phones":"","fax":"","email":"","url":"","countryIso2":"LA","countryName":"Laos","hotelRating":"3","latitude":"17.9733","longitude":"102.589","state_id":979,"state_name":"Vientiane Prefecture","country_id":119},{"active":false,"Giataid":"456464","cityId":65927,"cityName":"Vientiane","hotelId":456464,"hotelName":"Thipphavan Hotel","address":"","phones":"","fax":"","email":"","url":"","countryIso2":"LA","countryName":"Laos","hotelRating":"1","latitude":"17.9655","longitude":"102.609","state_id":979,"state_name":"Vientiane Prefecture","country_id":119},{"active":false,"Giataid":"456465","cityId":65927,"cityName":"Vientiane","hotelId":456465,"hotelName":"Davien Hotel","address":"","phones":"","fax":"","email":"","url":"","countryIso2":"LA","countryName":"Laos","hotelRating":"1","latitude":"18.05","longitude":"102.66","state_id":979,"state_name":"Vientiane Prefecture","country_id":119},{"active":false,"Giataid":"456466","cityId":65927,"cityName":"Vientiane","hotelId":456466,"hotelName":"Chaleunxay Hotel","address":"","phones":"","fax":"","email":"","url":"","countryIso2":"LA","countryName":"Laos","hotelRating":"2","latitude":"17.967","longitude":"102.613","state_id":979,"state_name":"Vientiane Prefecture","country_id":119},{"active":false,"Giataid":"456468","cityId":65923,"cityName":"Savannakhet","hotelId":456468,"hotelName":"Lattanaphone Phasouk Hotel","address":"Ban Xayoudom,13 Northern road,Savannakhet,Laos","phones":"","fax":"","email":"","url":"","countryIso2":"LA","countryName":"Laos","hotelRating":"1","latitude":"16.6871","longitude":"104.954","state_id":990,"state_name":"Savannakhet Province","country_id":119},{"active":false,"Giataid":"456594","cityId":65923,"cityName":"Savannakhet","hotelId":456594,"hotelName":"Boualuang Hotel","address":"","phones":"","fax":"","email":"","url":"","countryIso2":"LA","countryName":"Laos","hotelRating":"1","latitude":"16.5786","longitude":"104.773","state_id":990,"state_name":"Savannakhet Province","country_id":119},{"active":false,"Giataid":"456633","cityId":65923,"cityName":"Savannakhet","hotelId":456633,"hotelName":"Pasithviengxay Hotel","address":"","phones":"","fax":"","email":"","url":"","countryIso2":"LA","countryName":"Laos","hotelRating":"2","latitude":"16.5332","longitude":"104.764","state_id":990,"state_name":"Savannakhet Province","country_id":119},{"active":false,"Giataid":"457608","cityId":65927,"cityName":"Vientiane","hotelId":457608,"hotelName":"Satsada Hotel","address":"","phones":"","fax":"","email":"","url":"","countryIso2":"LA","countryName":"Laos","hotelRating":"3","latitude":"18.0425","longitude":"102.616","state_id":979,"state_name":"Vientiane Prefecture","country_id":119},{"active":false,"Giataid":"459242","cityId":65923,"cityName":"Savannakhet","hotelId":459242,"hotelName":"Hunghuang Hotel","address":"Sanna Road,Xaiyaphoum Village,Kaysone Phomvihan District,01000 Savannakhet,Savannakhet,Laos","phones":"","fax":"","email":"","url":"","countryIso2":"LA","countryName":"Laos","hotelRating":"2","latitude":"16.5619","longitude":"104.749","state_id":990,"state_name":"Savannakhet Province","country_id":119},{"active":false,"Giataid":"464654","cityId":null,"cityName":"Phonsavan","hotelId":464654,"hotelName":"The Hillside Residence","address":"Ban Phonesavanh Tai,Peak District,Xieng Khouang,Phonsavan,Laos","phones":"","fax":"","email":"","url":"","countryIso2":"LA","countryName":"Laos","hotelRating":"2","latitude":"19.455","longitude":"103.211","state_id":null,"state_name":null,"country_id":null},{"active":false,"Giataid":"465198","cityId":null,"cityName":"Vang Vieng","hotelId":465198,"hotelName":"Hotel Vilayvong","address":"Ban Viengkeo","phones":"","fax":"","email":"","url":"","countryIso2":"LA","countryName":"Laos","hotelRating":"3","latitude":"18.9214","longitude":"102.445","state_id":null,"state_name":null,"country_id":null},{"active":false,"Giataid":"467272","cityId":null,"cityName":"Vang Vieng","hotelId":467272,"hotelName":"Bountang Hotel","address":"","phones":"","fax":"","email":"","url":"","countryIso2":"LA","countryName":"Laos","hotelRating":"1","latitude":"18.9285","longitude":"102.448","state_id":null,"state_name":null,"country_id":null},{"active":false,"Giataid":"467288","cityId":null,"cityName":"Vang Vieng","hotelId":467288,"hotelName":"Pany Hotel","address":"Ban Viengkeo,01000 Vang Vieng,Laos","phones":"","fax":"","email":"","url":"","countryIso2":"LA","countryName":"Laos","hotelRating":"2","latitude":"18.9217","longitude":"102.449","state_id":null,"state_name":null,"country_id":null},{"active":false,"Giataid":"467292","cityId":null,"cityName":"Vang Vieng","hotelId":467292,"hotelName":"Khamphone Hotel","address":"Ban viengkeo,Vangvieng,District Lao,Laos","phones":"+8566685623511062","fax":"","email":"info@khamphonehotel.com","url":"http://khamphonehotel.com/","countryIso2":"LA","countryName":"Laos","hotelRating":"2","latitude":"18.921","longitude":"102.448","state_id":null,"state_name":null,"country_id":null},{"active":false,"Giataid":"467475","cityId":null,"cityName":"Phonsavan","hotelId":467475,"hotelName":"Chittavanh Hotel","address":"#7 Road,Phonsavan,Laos","phones":"","fax":"","email":"","url":"","countryIso2":"LA","countryName":"Laos","hotelRating":"2","latitude":"19.452","longitude":"103.216","state_id":null,"state_name":null,"country_id":null},{"active":false,"Giataid":"467703","cityId":65917,"cityName":"Pakse","hotelId":467703,"hotelName":"Daovieng 2 Hotel","address":"","phones":"","fax":"","email":"","url":"","countryIso2":"LA","countryName":"Laos","hotelRating":"1","latitude":"15.1215","longitude":"105.805","state_id":996,"state_name":"Champasak Province","country_id":119},{"active":false,"Giataid":"468329","cityId":null,"cityName":"Muang Pakxan","hotelId":468329,"hotelName":"Sang Hung Heuang Hotel","address":"13 South Road,4B Road,Anousonexay Village,Paksan District,01000 Muang Pakxan,Bolikhamxay,Laos","phones":"","fax":"","email":"","url":"","countryIso2":"LA","countryName":"Laos","hotelRating":"2","latitude":"18.4107","longitude":"103.643","state_id":null,"state_name":null,"country_id":null},{"active":false,"Giataid":"468332","cityId":null,"cityName":"Muang Pakxan","hotelId":468332,"hotelName":"Paksan Hotel","address":"Main Road,Highway 13 next to the bridge,Paksan district,Muang Pakxan,Bolikhamxay,Laos","phones":"","fax":"","email":"","url":"http://www.hotel.com.au/muang-pakxan/paksan-hotel.htm","countryIso2":"LA","countryName":"Laos","hotelRating":"2","latitude":"18.3961","longitude":"103.656","state_id":null,"state_name":null,"country_id":null},{"active":false,"Giataid":"468343","cityId":null,"cityName":"Muang Pakxan","hotelId":468343,"hotelName":"Vilaysack Hotel","address":"4B Road,Anousonexay Village,Paksan,Laos","phones":"","fax":"","email":"","url":"","countryIso2":"LA","countryName":"Laos","hotelRating":"2","latitude":"18.3987","longitude":"103.644","state_id":null,"state_name":null,"country_id":null},{"active":false,"Giataid":"468344","cityId":null,"cityName":"Muang Pakxan","hotelId":468344,"hotelName":"Sokbounma hotel","address":"Anousonexay Village,01000 Muang Pakxan,Bolikhamxay Province,Laos","phones":"","fax":"","email":"","url":"","countryIso2":"LA","countryName":"Laos","hotelRating":"2","latitude":"18.3929","longitude":"103.642","state_id":null,"state_name":null,"country_id":null},{"active":false,"Giataid":"469082","cityId":null,"cityName":"Paksong","hotelId":469082,"hotelName":"Phu Thevada Hotel","address":"Ban Bang Liang,Khum Nong Kieng Kham,01000 Muang Pakxong,Laos","phones":"","fax":"","email":"","url":"","countryIso2":"LA","countryName":"Laos","hotelRating":"2","latitude":"15.1778","longitude":"106.238","state_id":null,"state_name":null,"country_id":null},{"active":false,"Giataid":"470617","cityId":null,"cityName":"Ban Thangon","hotelId":470617,"hotelName":"Lien Kham Hotel","address":"","phones":"","fax":"","email":"","url":"","countryIso2":"LA","countryName":"Laos","hotelRating":"3","latitude":"18.1331","longitude":"102.619","state_id":null,"state_name":null,"country_id":null},{"active":false,"Giataid":"471091","cityId":65924,"cityName":"Thakhek","hotelId":471091,"hotelName":"Le Bouton D'or Boutique Hotel","address":"89 Singapore Road B,Thakhek kang,Thakhek,Khammoune Province,Laos","phones":"+85651250678","fax":"+85651212098","email":"boutondor-tk@hotmail.com","url":"http://boutondor-tk.wix.com/leboutondorthakhek","countryIso2":"LA","countryName":"Laos","hotelRating":"3","latitude":"17.3957","longitude":"104.803","state_id":986,"state_name":"Khammouane Province","country_id":119},{"active":false,"Giataid":"472377","cityId":65927,"cityName":"Vientiane","hotelId":472377,"hotelName":"Landmark Mekong Riverside Hotel","address":"Donchan Road,P.O. Box 2365,Thatkao Village,Sisattanak,10110 Vientiane,Laos","phones":"+85621266888","fax":"","email":"info@landmarkmekonghotel.com.la","url":"http://www.landmarkmekongriversidehotel.com","countryIso2":"LA","countryName":"Laos","hotelRating":"5","latitude":"17.9437","longitude":"102.618","state_id":979,"state_name":"Vientiane Prefecture","country_id":119},{"active":false,"Giataid":"473042","cityId":null,"cityName":"Huay Xai","hotelId":473042,"hotelName":"Nakaraj Princess Hotel","address":"Nakaraj Nakhon, Ban Viengmai & Ban Don,01000 Huayxai,Bokeo,Laos","phones":"+85684216000","fax":"","email":"nakarajhotel@gmail.com","url":"http://www.nakarajprincess.com/","countryIso2":"LA","countryName":"Laos","hotelRating":"5","latitude":"20.2187","longitude":"100.465","state_id":null,"state_name":null,"country_id":null},{"active":false,"Giataid":"476898","cityId":null,"cityName":"Huay Xai","hotelId":476898,"hotelName":"B2 Monethong Hotel","address":"Baan Udom,Huay Xai,Bokeo,Laos","phones":"+856622549673","fax":"","email":"","url":"https://www.b2hotel.com","countryIso2":"LA","countryName":"Laos","hotelRating":"1","latitude":"20.2691","longitude":"100.419","state_id":null,"state_name":null,"country_id":null},{"active":false,"Giataid":"488851","cityId":null,"cityName":"Vang Vieng","hotelId":488851,"hotelName":"Vang Vieng Boutique Resort","address":"Ban Viengkeo,PO Box 360,Vang Vieng,Vientiane Province,Laos","phones":"","fax":"","email":"","url":"https://www.booking.com/hotel/la/phongsavanh-resort.html?aid=356985","countryIso2":"LA","countryName":"Laos","hotelRating":"3","latitude":"18.9241","longitude":"102.453","state_id":null,"state_name":null,"country_id":null},{"active":false,"Giataid":"489679","cityId":65865,"cityName":"Luang Prabang","hotelId":489679,"hotelName":"Villa Mahasok Hotel","address":"Ban Visoun,Oupparath Xiengkong Road,06000 Luang Prabang,Laos","phones":"+8562055830302","fax":"","email":"","url":"","countryIso2":"LA","countryName":"Laos","hotelRating":"2","latitude":"19.8845","longitude":"102.138","state_id":978,"state_name":"Luang Prabang Province","country_id":119},{"active":false,"Giataid":"489746","cityId":65865,"cityName":"Luang Prabang","hotelId":489746,"hotelName":"Villa Sayada","address":"Ban Apay,Phommathat Road,Luang Prabang,Laos","phones":"","fax":"","email":"stayinlao@gmail.com","url":"http://www.stayinlaos.com/villa-sayada.html","countryIso2":"LA","countryName":"Laos","hotelRating":"2","latitude":"19.8835","longitude":"102.146","state_id":978,"state_name":"Luang Prabang Province","country_id":119},{"active":false,"Giataid":"490218","cityId":65927,"cityName":"Vientiane","hotelId":490218,"hotelName":"V Hotel","address":"Norkeokumman Road,Baan Mechai,01000 Vientiane,Laos","phones":"","fax":"","email":"","url":"","countryIso2":"LA","countryName":"Laos","hotelRating":"3","latitude":"17.9636","longitude":"102.605","state_id":979,"state_name":"Vientiane Prefecture","country_id":119},{"active":false,"Giataid":"490940","cityId":65865,"cityName":"Luang Prabang","hotelId":490940,"hotelName":"Villa Meuang Lao","address":"Ban Pakham,06000 Luang Prabang,Laos","phones":"+85671260871","fax":"","email":"","url":"http://villameuang-lao.com/","countryIso2":"LA","countryName":"Laos","hotelRating":"2","latitude":"19.8915","longitude":"102.134","state_id":978,"state_name":"Luang Prabang Province","country_id":119},{"active":false,"Giataid":"492061","cityId":65927,"cityName":"Vientiane","hotelId":492061,"hotelName":"Mixok Guesthouse","address":"188 Setthathirate Road Mixay Village, Vientiane , 01000, Laos","phones":"+856 21 254 781","fax":"","email":"","url":"","countryIso2":"LA","countryName":"Laos","hotelRating":"2","latitude":"17.9655","longitude":"102.605","state_id":979,"state_name":"Vientiane Prefecture","country_id":119},{"active":false,"Giataid":"492062","cityId":65927,"cityName":"Vientiane","hotelId":492062,"hotelName":"Mixok Inn","address":"188 Setthathirate Road,Mixay Village,01000 Vientiane,Laos","phones":"","fax":"","email":"","url":"","countryIso2":"LA","countryName":"Laos","hotelRating":"2","latitude":"17.9652","longitude":"102.606","state_id":979,"state_name":"Vientiane Prefecture","country_id":119},{"active":false,"Giataid":"507477","cityId":65865,"cityName":"Luang Prabang","hotelId":507477,"hotelName":"Villa Nagara","address":"","phones":"","fax":"","email":"","url":"","countryIso2":"LA","countryName":"Laos","hotelRating":"3","latitude":"19.8931","longitude":"102.14","state_id":978,"state_name":"Luang Prabang Province","country_id":119},{"active":false,"Giataid":"507907","cityId":65865,"cityName":"Luang Prabang","hotelId":507907,"hotelName":"Phounsab Guesthouse","address":"Sisavangvong Road,Choumkhong Village,06000 Luang Prabang,Laos","phones":"","fax":"","email":"","url":"","countryIso2":"LA","countryName":"Laos","hotelRating":"2","latitude":"19.892","longitude":"102.137","state_id":978,"state_name":"Luang Prabang Province","country_id":119},{"active":false,"Giataid":"515992","cityId":null,"cityName":"Vang Vieng","hotelId":515992,"hotelName":"Chillao Hostel","address":"100/1 Main Street,06000 Vang Vieng,Laos","phones":"","fax":"","email":"","url":"","countryIso2":"LA","countryName":"Laos","hotelRating":"2","latitude":"18.9278","longitude":"102.449","state_id":null,"state_name":null,"country_id":null},{"active":false,"Giataid":"529935","cityId":65865,"cityName":"Luang Prabang","hotelId":529935,"hotelName":"Luang Prabang River Lodge 2","address":"Khemkong Road,Ban Pakham,06000 Luang Prabang,Laos","phones":"","fax":"","email":"","url":"http://www.luangprabangriverlodge2.com/","countryIso2":"LA","countryName":"Laos","hotelRating":"3","latitude":"19.8898","longitude":"102.132","state_id":978,"state_name":"Luang Prabang Province","country_id":119},{"active":false,"Giataid":"530108","cityId":65864,"cityName":"Luang Namtha","hotelId":530108,"hotelName":"The Boat Landing","address":"PO Box 28,Ban Kone,Luang Namtha,Luang Namtha District,Laos","phones":"+85686312398","fax":"+85686312239","email":"theboatlanding@yahoo.com","url":"http://theboatlanding.laopdr.com/","countryIso2":"LA","countryName":"Laos","hotelRating":"1","latitude":"20.973","longitude":"101.408","state_id":992,"state_name":"Luang Namtha Province","country_id":119},{"active":false,"Giataid":"530193","cityId":65923,"cityName":"Savannakhet","hotelId":530193,"hotelName":"Sonsay Hotel","address":"9 Road,Sayamongkoun Village,Outhoumphone District,Savannakhet,Laos","phones":"","fax":"","email":"","url":"","countryIso2":"LA","countryName":"Laos","hotelRating":"2","latitude":"16.6784","longitude":"104.97","state_id":990,"state_name":"Savannakhet Province","country_id":119},{"active":false,"Giataid":"530271","cityId":null,"cityName":"Huay Xai","hotelId":530271,"hotelName":"Thaveesinh Hotel","address":"Ban Houei Sai Neua,01000 Ban Houayxay,Laos","phones":"+8562055683333","fax":"","email":"thaveesinh.info@gmail.com","url":"http://www.thaveesinhhotel.com/","countryIso2":"LA","countryName":"Laos","hotelRating":"1","latitude":"20.2777","longitude":"100.411","state_id":null,"state_name":null,"country_id":null},{"active":false,"Giataid":"530290","cityId":null,"cityName":"Xieng Khouang","hotelId":530290,"hotelName":"Jing Chaleun Guesthouse","address":"","phones":"","fax":"","email":"","url":"","countryIso2":"LA","countryName":"Laos","hotelRating":"1","latitude":"19.4494","longitude":"103.205","state_id":null,"state_name":null,"country_id":null},{"active":false,"Giataid":"530480","cityId":null,"cityName":"Xieng Khouang","hotelId":530480,"hotelName":"Ber 5 Guesthouse","address":"Ban Phonngam Nua  Peak District,Xieng Khouang,Laos","phones":"","fax":"","email":"","url":"","countryIso2":"LA","countryName":"Laos","hotelRating":"1","latitude":"19.4558","longitude":"103.205","state_id":null,"state_name":null,"country_id":null},{"active":false,"Giataid":"530635","cityId":null,"cityName":"Huay Xai","hotelId":530635,"hotelName":"Pheuankeo 1 Guesthouse","address":"","phones":"","fax":"","email":"","url":"","countryIso2":"LA","countryName":"Laos","hotelRating":"1","latitude":"20.2691","longitude":"100.419","state_id":null,"state_name":null,"country_id":null},{"active":false,"Giataid":"530895","cityId":65928,"cityName":"Xam Neua","hotelId":530895,"hotelName":"Phet Muangxam Hotel","address":"Phanxay Village,Xam Neua,Laos","phones":"","fax":"","email":"","url":"","countryIso2":"LA","countryName":"Laos","hotelRating":"2","latitude":"20.4172","longitude":"104.048","state_id":989,"state_name":"Houaphanh Province","country_id":119},{"active":false,"Giataid":"532792","cityId":null,"cityName":"Xieng Khouang","hotelId":532792,"hotelName":"Banna Plain Of Jars House","address":"7 Road,Xieng Khouang,Laos","phones":"","fax":"","email":"","url":"","countryIso2":"LA","countryName":"Laos","hotelRating":"2","latitude":"19.4549","longitude":"103.183","state_id":null,"state_name":null,"country_id":null},{"active":false,"Giataid":"534372","cityId":null,"cityName":"Phonsavan","hotelId":534372,"hotelName":"Dokkhoune Guesthouse","address":"Ban Phonsavanh Kang,Peak District,Xieng Khouang,Laos","phones":"","fax":"","email":"","url":"","countryIso2":"LA","countryName":"Laos","hotelRating":"2","latitude":"19.45","longitude":"103.22","state_id":null,"state_name":null,"country_id":null},{"active":false,"Giataid":"534376","cityId":null,"cityName":"Xieng Khouang","hotelId":534376,"hotelName":"Phouchan Resort","address":"Ban Phonsavanh,Peak District,Xieng Khouang,Laos","phones":"","fax":"","email":"","url":"","countryIso2":"LA","countryName":"Laos","hotelRating":"3","latitude":"19.4494","longitude":"103.205","state_id":null,"state_name":null,"country_id":null},{"active":false,"Giataid":"534383","cityId":null,"cityName":"Xieng Khouang","hotelId":534383,"hotelName":"Vai Vai Vong Guesthouse","address":"","phones":"","fax":"","email":"","url":"","countryIso2":"LA","countryName":"Laos","hotelRating":"1","latitude":"19.4494","longitude":"103.205","state_id":null,"state_name":null,"country_id":null},{"active":false,"Giataid":"534385","cityId":65928,"cityName":"Xam Neua","hotelId":534385,"hotelName":"Khemmen Guesthouse","address":"Phansai Village,Xam Neua,Laos","phones":"","fax":"","email":"","url":"http://www.hotelscombined.com/Hotel/Khemmen_Guesthouse.htm","countryIso2":"LA","countryName":"Laos","hotelRating":"1","latitude":"20.4168","longitude":"104.05","state_id":989,"state_name":"Houaphanh Province","country_id":119},{"active":false,"Giataid":"534394","cityId":null,"cityName":"Huay Xai","hotelId":534394,"hotelName":"Oudomphone 2 Guesthouse","address":"Ban Huaysay Neua,Houaixay,Laos","phones":"","fax":"","email":"","url":"http://www.hotelscombined.com/Hotel/Oudomphone_2_Guesthouse.htm","countryIso2":"LA","countryName":"Laos","hotelRating":"1","latitude":"20.2691","longitude":"100.419","state_id":null,"state_name":null,"country_id":null},{"active":false,"Giataid":"534396","cityId":null,"cityName":"Xieng Khouang","hotelId":534396,"hotelName":"Anoulack Khen Lao Hotel","address":"No. 059/4,Ban Phonsavanh xai,Peak District,Xieng Khouang,Laos","phones":"","fax":"","email":"","url":"http://www.hotelscombined.de/Hotel/Anoulak_Khen_Lao_Hotel.htm","countryIso2":"LA","countryName":"Laos","hotelRating":"3","latitude":"19.4508","longitude":"103.219","state_id":null,"state_name":null,"country_id":null},{"active":false,"Giataid":"534420","cityId":null,"cityName":"Vieng Xai","hotelId":534420,"hotelName":"Lattanaphone Guesthouse","address":"Ban Nakai,Vieng Xai,Laos","phones":"","fax":"","email":"","url":"","countryIso2":"LA","countryName":"Laos","hotelRating":"1","latitude":"20.4056","longitude":"104.227","state_id":null,"state_name":null,"country_id":null},{"active":false,"Giataid":"534425","cityId":null,"cityName":"Ban Khone","hotelId":534425,"hotelName":"Pan's Residence","address":"Mekong Road,Ban Don Khone,01000 Ban Khon,Muang Khong,Don Khong District,Laos","phones":"","fax":"","email":"","url":"","countryIso2":"LA","countryName":"Laos","hotelRating":"1","latitude":"13.965","longitude":"105.924","state_id":null,"state_name":null,"country_id":null},{"active":false,"Giataid":"534441","cityId":null,"cityName":"Thalat","hotelId":534441,"hotelName":"Leo Khampaseut Resort","address":"Phonmee Street,Thalat,Laos","phones":"","fax":"","email":"","url":"http://www.agoda.com/leo-khampaseut-resort/hotel/thalat-la.html","countryIso2":"LA","countryName":"Laos","hotelRating":"1","latitude":"18.5174","longitude":"102.506","state_id":null,"state_name":null,"country_id":null},{"active":false,"Giataid":"534457","cityId":65924,"cityName":"Thakhek","hotelId":534457,"hotelName":"Mekong Hotel","address":"Setthathilath Street,Thakhek,Laos","phones":"","fax":"","email":"","url":"","countryIso2":"LA","countryName":"Laos","hotelRating":"3","latitude":"17.3965","longitude":"104.803","state_id":986,"state_name":"Khammouane Province","country_id":119},{"active":false,"Giataid":"534476","cityId":null,"cityName":"Vieng Xai","hotelId":534476,"hotelName":"Naxai Guesthouse II","address":"Vieng Xay Village,Vieng Xai,Houaphan,Laos","phones":"","fax":"","email":"","url":"","countryIso2":"LA","countryName":"Laos","hotelRating":"1","latitude":"20.4056","longitude":"104.227","state_id":null,"state_name":null,"country_id":null},{"active":false,"Giataid":"534484","cityId":null,"cityName":"Huay Xai","hotelId":534484,"hotelName":"Khopchai Guesthhouse","address":"Ban Huaysay Neua,Houayxay,Laos","phones":"","fax":"","email":"","url":"","countryIso2":"LA","countryName":"Laos","hotelRating":"1","latitude":"20.2691","longitude":"100.419","state_id":null,"state_name":null,"country_id":null},{"active":false,"Giataid":"534650","cityId":null,"cityName":"Huay Xai","hotelId":534650,"hotelName":"Mittaphab Guesthouse","address":"Ban Huaysay Neua,Houayxay,Laos,Laos","phones":"","fax":"","email":"","url":"","countryIso2":"LA","countryName":"Laos","hotelRating":"1","latitude":"20.2691","longitude":"100.419","state_id":null,"state_name":null,"country_id":null},{"active":false,"Giataid":"468344","cityId":null,"cityName":"Muang Pakxan","hotelId":534662,"hotelName":"Sokbounma Hotel","address":"Anousonexay Village,01000 Muang Pakxan,Bolikhamxay Province,Laos","phones":"","fax":"","email":"","url":"","countryIso2":"LA","countryName":"Laos","hotelRating":"3","latitude":"18.3961","longitude":"103.643","state_id":null,"state_name":null,"country_id":null},{"active":false,"Giataid":"534666","cityId":65923,"cityName":"Savannakhet","hotelId":534666,"hotelName":"Leung Kham Hotel","address":"Ban Udom Vilaisin,01000 Savannakhet (Muang Kaysone),Laos,Laos","phones":"","fax":"","email":"","url":"","countryIso2":"LA","countryName":"Laos","hotelRating":"3","latitude":"16.5987","longitude":"104.78","state_id":990,"state_name":"Savannakhet Province","country_id":119},{"active":false,"Giataid":"534670","cityId":null,"cityName":"Vang Vieng","hotelId":534670,"hotelName":"KL Guesthouse","address":"Ban Huaysangao,Vang Vieng,Laos","phones":"","fax":"","email":"","url":"http://www.trivago.de/vang-vieng-443839/hotel/kl-guesthouse-2206288","countryIso2":"LA","countryName":"Laos","hotelRating":"1","latitude":"18.923","longitude":"102.446","state_id":null,"state_name":null,"country_id":null},{"active":false,"Giataid":"534682","cityId":null,"cityName":"Xieng Khouang","hotelId":534682,"hotelName":"Phonsa Ath Guesthouse","address":"Ban Phonsa Ath,Paek District,Xieng Khouang,Laos","phones":"","fax":"","email":"","url":"https://www.tripadvisor.de/Hotel_Review-g612364-d3310526-Reviews-Phonsa_Ath_Guesthouse-Phonsavan_Xiangkhouang_Province.html","countryIso2":"LA","countryName":"Laos","hotelRating":"2","latitude":"19.4462","longitude":"103.201","state_id":null,"state_name":null,"country_id":null},{"active":false,"Giataid":"534686","cityId":null,"cityName":"Huay Xai","hotelId":534686,"hotelName":"Sabaidee Guesthouse","address":"Ban Huayxay Neua,01000 Houayxay,Laos,Laos","phones":"","fax":"","email":"","url":"http://www.agoda.com/sabaidee-guesthouse/hotel/houayxay-la.html","countryIso2":"LA","countryName":"Laos","hotelRating":"1","latitude":"20.2726","longitude":"100.413","state_id":null,"state_name":null,"country_id":null},{"active":false,"Giataid":"534701","cityId":null,"cityName":"Phonsavan","hotelId":534701,"hotelName":"Nice Guest House","address":"209 Ban Phonsavanh,01000 Muang Ph?nsavan,Laos,Laos","phones":"","fax":"","email":"","url":"","countryIso2":"LA","countryName":"Laos","hotelRating":"1","latitude":"19.4502","longitude":"103.219","state_id":null,"state_name":null,"country_id":null},{"active":false,"Giataid":"536799","cityId":65865,"cityName":"Luang Prabang","hotelId":536799,"hotelName":"Hmong Thor Guesthouse","address":"","phones":"","fax":"","email":"","url":"","countryIso2":"LA","countryName":"Laos","hotelRating":"1","latitude":"19.887","longitude":"102.138","state_id":978,"state_name":"Luang Prabang Province","country_id":119},{"active":false,"Giataid":"547064","cityId":65917,"cityName":"Pakse","hotelId":547064,"hotelName":"Alisa Guesthouse","address":"13 Southern Road,Lukmueang village,Pakse,Laos","phones":"+85631251555","fax":"","email":"Alisa_guesthouse@hotmail.com","url":"http://alisa-guesthouse.com/","countryIso2":"LA","countryName":"Laos","hotelRating":"2","latitude":"15.1219","longitude":"105.8","state_id":996,"state_name":"Champasak Province","country_id":119},{"active":false,"Giataid":"573779","cityId":65865,"cityName":"Luang Prabang","hotelId":573779,"hotelName":"Pullman Luang Prabang","address":"Ban Pong Wanh,06000 Luang Prabang,Laos","phones":"+85671213065","fax":"+85671213065","email":"H9112@accor.com","url":"http://www.accorhotels.com/gb/hotel-9112-pullman-luang-prabang-opening-late-2017/index.shtml","countryIso2":"LA","countryName":"Laos","hotelRating":"5","latitude":"19.8625","longitude":"102.106","state_id":978,"state_name":"Luang Prabang Province","country_id":119},{"active":false,"Giataid":"592621","cityId":65924,"cityName":"Thakhek","hotelId":592621,"hotelName":"Sala Hinboun","address":"129 Kouvoravong Street,Ban Xayaphoum,Thakhek,Hinboun,Laos","phones":"+8562056283322","fax":"+85641252096","email":"sala_lao@hotmail.com","url":"http://www.salalao.com/Salalao/Content/Hinboun.htm","countryIso2":"LA","countryName":"Laos","hotelRating":"2","latitude":"17.3956","longitude":"104.804","state_id":986,"state_name":"Khammouane Province","country_id":119},{"active":false,"Giataid":"598724","cityId":65865,"cityName":"Luang Prabang","hotelId":598724,"hotelName":"Inthasak Guesthouse","address":"Manorom Road","phones":"","fax":"","email":"","url":"","countryIso2":"LA","countryName":"Laos","hotelRating":"2","latitude":"19.8823","longitude":"102.133","state_id":978,"state_name":"Luang Prabang Province","country_id":119},{"active":false,"Giataid":"598739","cityId":65927,"cityName":"Vientiane","hotelId":598739,"hotelName":"Muong Thanh Luxury Vientiane","address":"Bourichane Road, Phonsinouan","phones":"","fax":"","email":"","url":"","countryIso2":"LA","countryName":"Laos","hotelRating":"5","latitude":"17.9645","longitude":"102.627","state_id":979,"state_name":"Vientiane Prefecture","country_id":119},{"active":false,"Giataid":"602192","cityId":65865,"cityName":"Luang Prabang","hotelId":602192,"hotelName":"Xangkham Hotel","address":"Mano Mai Road,Ban Pongkham,Luang Prabang,Laos","phones":"+85671900999","fax":"","email":"","url":"","countryIso2":"LA","countryName":"Laos","hotelRating":"3","latitude":"19.8804","longitude":"102.132","state_id":978,"state_name":"Luang Prabang Province","country_id":119},{"active":false,"Giataid":"604927","cityId":65865,"cityName":"Luang Prabang","hotelId":604927,"hotelName":"Lakangthong 2 friendly House","address":"Noradeth Road,Ban Thuat Luang,10002 Luang Prabang,Laos","phones":"","fax":"","email":"","url":"","countryIso2":"LA","countryName":"Laos","hotelRating":"2","latitude":"19.8851","longitude":"102.133","state_id":978,"state_name":"Luang Prabang Province","country_id":119},{"active":false,"Giataid":"605221","cityId":65865,"cityName":"Luang Prabang","hotelId":605221,"hotelName":"Mekong Charm Guesthouse","address":"99 Souvannakhamphory Road,Unit 05,Ban Phonheuang,06000 Luang Prabang,Laos","phones":"+85671213086","fax":"","email":"taykeo1@hotmail.com","url":"http://www.mekongcharm.com","countryIso2":"LA","countryName":"Laos","hotelRating":"2","latitude":"19.8972","longitude":"102.142","state_id":978,"state_name":"Luang Prabang Province","country_id":119},{"active":false,"Giataid":"613000","cityId":65927,"cityName":"Vientiane","hotelId":613000,"hotelName":"Vientiane Star Hotel","address":"18 Manthatourath,Chanthabouly,01000 Vientiane,Laos","phones":"+856307775462","fax":"","email":"vientianestar@gmail.com","url":"http://www.vientianestar.com/","countryIso2":"LA","countryName":"Laos","hotelRating":"2","latitude":"17.964","longitude":"102.606","state_id":979,"state_name":"Vientiane Prefecture","country_id":119},{"active":false,"Giataid":"620294","cityId":65865,"cityName":"Luang Prabang","hotelId":620294,"hotelName":"Villa Suan Maak","address":"Kingkitsarath Road,Ban That Luang,06000  Luang Prabang,Laos","phones":"+85671252775","fax":"","email":"","url":"","countryIso2":"LA","countryName":"Laos","hotelRating":"2","latitude":"19.884","longitude":"102.132","state_id":978,"state_name":"Luang Prabang Province","country_id":119},{"active":false,"Giataid":"623305","cityId":65923,"cityName":"Savannakhet","hotelId":623305,"hotelName":"Philavanh hotel","address":"Ban Dongdomdeun,01000 Savannakhet,Laos","phones":"","fax":"","email":"","url":"","countryIso2":"LA","countryName":"Laos","hotelRating":"1","latitude":"16.5456","longitude":"104.766","state_id":990,"state_name":"Savannakhet Province","country_id":119},{"active":false,"Giataid":"623306","cityId":65923,"cityName":"Savannakhet","hotelId":623306,"hotelName":"Aksone Phamysouk Hotel","address":"Ban Phousavanh Tai,01000 Savannakhet,Laos","phones":"","fax":"","email":"","url":"","countryIso2":"LA","countryName":"Laos","hotelRating":"1","latitude":"16.5716","longitude":"104.769","state_id":990,"state_name":"Savannakhet Province","country_id":119},{"active":false,"Giataid":"623307","cityId":65923,"cityName":"Savannakhet","hotelId":623307,"hotelName":"Onamsay Hotel","address":"Phosavang Tai,01000 Savannakhet,Laos","phones":"","fax":"","email":"","url":"","countryIso2":"LA","countryName":"Laos","hotelRating":"1","latitude":"16.5835","longitude":"104.773","state_id":990,"state_name":"Savannakhet Province","country_id":119},{"active":false,"Giataid":"623308","cityId":65923,"cityName":"Savannakhet","hotelId":623308,"hotelName":"Khounxay Hotel","address":"Ban Phousavang Tai,01000 Savannakhet,Laos","phones":"","fax":"","email":"","url":"","countryIso2":"LA","countryName":"Laos","hotelRating":"1","latitude":"16.5741","longitude":"104.768","state_id":990,"state_name":"Savannakhet Province","country_id":119},{"active":false,"Giataid":"623309","cityId":65928,"cityName":"Xam Neua","hotelId":623309,"hotelName":"Phetmeuangsam Hotel","address":"Ban Phanhxai,Xumnuea,01000 Xam Nua,Laos","phones":"","fax":"","email":"","url":"","countryIso2":"LA","countryName":"Laos","hotelRating":"1","latitude":"20.4152","longitude":"104.045","state_id":989,"state_name":"Houaphanh Province","country_id":119},{"active":false,"Giataid":"623310","cityId":65928,"cityName":"Xam Neua","hotelId":623310,"hotelName":"Chittavanh Hotel","address":"Ban Phanhxai,Xamnuea,01000 Xam Nua,Laos","phones":"","fax":"","email":"","url":"","countryIso2":"LA","countryName":"Laos","hotelRating":"1","latitude":"20.414","longitude":"104.049","state_id":989,"state_name":"Houaphanh Province","country_id":119},{"active":false,"Giataid":"623312","cityId":65924,"cityName":"Thakhek","hotelId":623312,"hotelName":"Phonepadith Hotel","address":"Ban Na Boa,10110 Thakhek,Laos","phones":"","fax":"","email":"","url":"","countryIso2":"LA","countryName":"Laos","hotelRating":"1","latitude":"17.3998","longitude":"104.805","state_id":986,"state_name":"Khammouane Province","country_id":119},{"active":false,"Giataid":"623691","cityId":65923,"cityName":"Savannakhet","hotelId":623691,"hotelName":"Surasack Hotel","address":"9th Road,Ban ponsavang,Phonsavang Tai Village,01000 Savannakhet,Laos","phones":"","fax":"","email":"","url":"","countryIso2":"LA","countryName":"Laos","hotelRating":"1","latitude":"16.5786","longitude":"104.773","state_id":990,"state_name":"Savannakhet Province","country_id":119},{"active":false,"Giataid":"623732","cityId":null,"cityName":"Vieng Xai","hotelId":623732,"hotelName":"Chitchareune Hotel","address":"Viengxay,01000 Viangxai,Laos","phones":"","fax":"","email":"","url":"","countryIso2":"LA","countryName":"Laos","hotelRating":"1","latitude":"20.4056","longitude":"104.227","state_id":null,"state_name":null,"country_id":null},{"active":false,"Giataid":"623770","cityId":null,"cityName":"Huay Xai","hotelId":623770,"hotelName":"Riverside Huayxay","address":"Ban Houayxay Nua,Ban Houayxay 01000,Laos","phones":"","fax":"","email":"","url":"","countryIso2":"LA","countryName":"Laos","hotelRating":"1","latitude":"20.2766","longitude":"100.411","state_id":null,"state_name":null,"country_id":null},{"active":false,"Giataid":"623781","cityId":null,"cityName":"Sekong","hotelId":623781,"hotelName":"Phou Khankham","address":"Ban Mai Phuakhuang,Sekong,Laos","phones":"","fax":"","email":"","url":"","countryIso2":"LA","countryName":"Laos","hotelRating":"1","latitude":"15.3588","longitude":"106.734","state_id":null,"state_name":null,"country_id":null},{"active":false,"Giataid":"623815","cityId":65928,"cityName":"Xam Neua","hotelId":623815,"hotelName":"Misouk Hotel","address":"Ban Meesouk,Xamnuea,01000 Xam Nua,Laos","phones":"","fax":"","email":"","url":"","countryIso2":"LA","countryName":"Laos","hotelRating":"1","latitude":"20.4109","longitude":"104.051","state_id":989,"state_name":"Houaphanh Province","country_id":119},{"active":false,"Giataid":"623822","cityId":65928,"cityName":"Xam Neua","hotelId":623822,"hotelName":"Phonechalern Hotel","address":"Ban Phanhxai,Xamnua,01000 Xam Nua,Laos","phones":"","fax":"","email":"","url":"","countryIso2":"LA","countryName":"Laos","hotelRating":"1","latitude":"20.4138","longitude":"104.049","state_id":989,"state_name":"Houaphanh Province","country_id":119},{"active":false,"Giataid":"623916","cityId":65923,"cityName":"Savannakhet","hotelId":623916,"hotelName":"Daosavanh Resort & Spa Hotel","address":"Ban Thahea,Kaisonephonvihan District,Savannakhet,Laos","phones":"","fax":"","email":"","url":"","countryIso2":"LA","countryName":"Laos","hotelRating":"4","latitude":"16.5468","longitude":"104.747","state_id":990,"state_name":"Savannakhet Province","country_id":119},{"active":false,"Giataid":"624153","cityId":null,"cityName":"Sekong","hotelId":624153,"hotelName":"Vangxang Savanh Resort","address":"Riverside Road,01500 Sekong,Laos","phones":"","fax":"","email":"","url":"","countryIso2":"LA","countryName":"Laos","hotelRating":"1","latitude":"0","longitude":"0","state_id":null,"state_name":null,"country_id":null},{"active":false,"Giataid":"624589","cityId":null,"cityName":"Ban Thana","hotelId":624589,"hotelName":"Outhoumphone Hotel","address":"Simoungkhoun village,01000 Ban Thana,Laos","phones":"","fax":"","email":"","url":"","countryIso2":"LA","countryName":"Laos","hotelRating":"1","latitude":"19.2713","longitude":"101.703","state_id":null,"state_name":null,"country_id":null},{"active":false,"Giataid":"624977","cityId":null,"cityName":"Paksong","hotelId":624977,"hotelName":"Theo Khame Hotel","address":"Khongtayoun,15040 Ban Tayun,Champasak Province,Laos","phones":"","fax":"","email":"","url":"","countryIso2":"LA","countryName":"Laos","hotelRating":"1","latitude":"15.2432","longitude":"106.243","state_id":null,"state_name":null,"country_id":null},{"active":false,"Giataid":"628765","cityId":65860,"cityName":"Champasak","hotelId":628765,"hotelName":"Sinouk Coffee Resort","address":"Thateng-Pakxong Road,Lakkhao Village,Bolavens Plateau,01000 Champasak,Laos","phones":"","fax":"","email":"","url":"","countryIso2":"LA","countryName":"Laos","hotelRating":"3","latitude":"15.2432","longitude":"106.243","state_id":996,"state_name":"Champasak Province","country_id":119},{"active":false,"Giataid":"629764","cityId":65914,"cityName":"Muang Xay","hotelId":629764,"hotelName":"Dan Savanh Hotel","address":"13 Road,Vanghai Village,Muang Xai,Oudomxay,Laos","phones":"","fax":"","email":"","url":"","countryIso2":"LA","countryName":"Laos","hotelRating":"1","latitude":"20.6915","longitude":"101.982","state_id":988,"state_name":"Oudomxay Province","country_id":119},{"active":false,"Giataid":"653691","cityId":65865,"cityName":"Luang Prabang","hotelId":653691,"hotelName":"Channuane Guesthouse","address":"","phones":"","fax":"","email":"","url":"","countryIso2":"LA","countryName":"Laos","hotelRating":"1","latitude":"19.887","longitude":"102.138","state_id":978,"state_name":"Luang Prabang Province","country_id":119},{"active":false,"Giataid":"653696","cityId":65865,"cityName":"Luang Prabang","hotelId":653696,"hotelName":"Maniphone Guesthouse","address":"","phones":"","fax":"","email":"","url":"","countryIso2":"LA","countryName":"Laos","hotelRating":"1","latitude":"19.8791","longitude":"102.132","state_id":978,"state_name":"Luang Prabang Province","country_id":119},{"active":false,"Giataid":"653722","cityId":65865,"cityName":"Luang Prabang","hotelId":653722,"hotelName":"Hoxieng Guesthouse 1","address":"40 Ban Hoxieng,06000 Luang Prabang,Luang Prabang,Laos","phones":"+85671254703","fax":"","email":"hoxiengguesthouse@gmail.com","url":"http://www.hoxiangguesthouse1.com","countryIso2":"LA","countryName":"Laos","hotelRating":"1","latitude":"19.8892","longitude":"102.132","state_id":978,"state_name":"Luang Prabang Province","country_id":119},{"active":false,"Giataid":"654573","cityId":65865,"cityName":"Luang Prabang","hotelId":654573,"hotelName":"Malida Guesthouse","address":"122 Ban That Luang Thammikhalath Road,06000 Luang Prabang,Laos","phones":"","fax":"","email":"","url":"","countryIso2":"LA","countryName":"Laos","hotelRating":"2","latitude":"19.889","longitude":"102.134","state_id":978,"state_name":"Luang Prabang Province","country_id":119},{"active":false,"Giataid":"654582","cityId":65865,"cityName":"Luang Prabang","hotelId":654582,"hotelName":"Thongbay Guesthouses","address":"Ban Vieng May,Vat Sakem,Luang Prabang,Laos","phones":"+85671253234","fax":"+85671260764","email":"info@thongbay.com","url":"http://www.thongbay-guesthouses.com","countryIso2":"LA","countryName":"Laos","hotelRating":"1","latitude":"19.8844","longitude":"102.146","state_id":978,"state_name":"Luang Prabang Province","country_id":119},{"active":false,"Giataid":"662656","cityId":65865,"cityName":"Luang Prabang","hotelId":662656,"hotelName":"Khongsavath Guesthouse","address":"Vatnong Village,Ounkham Road,Riverfront,Luang Prabang,Laos","phones":"+85671212994","fax":"","email":"khongsavath@hotmail.com","url":"https://khongsavathguesthouse.shutterfly.com/","countryIso2":"LA","countryName":"Laos","hotelRating":"3","latitude":"19.896","longitude":"102.14","state_id":978,"state_name":"Luang Prabang Province","country_id":119},{"active":false,"Giataid":"666204","cityId":65927,"cityName":"Vientiane","hotelId":666204,"hotelName":"PVO Hostel","address":"12/125 Rue Pangkham,Xiengnheun Village,Chanthabury District,Vientiane,Laos","phones":"","fax":"","email":"","url":"","countryIso2":"LA","countryName":"Laos","hotelRating":"1","latitude":"17.9655","longitude":"102.609","state_id":979,"state_name":"Vientiane Prefecture","country_id":119},{"active":false,"Giataid":"676756","cityId":65923,"cityName":"Savannakhet","hotelId":676756,"hotelName":"Soulinsouk Hotel","address":"Makhasavanh Road,Sunnuntha village,01000 Savannakhet,Kaisone district,Laos","phones":"","fax":"","email":"","url":"","countryIso2":"LA","countryName":"Laos","hotelRating":"1","latitude":"16.5786","longitude":"104.773","state_id":990,"state_name":"Savannakhet Province","country_id":119},{"active":false,"Giataid":"676799","cityId":65927,"cityName":"Vientiane","hotelId":676799,"hotelName":"Thavikhoun Hotel","address":"150 Hospital Road,Phonesavanh Village,01000 Vientiane,Chanthabouli District,Laos","phones":"","fax":"","email":"","url":"","countryIso2":"LA","countryName":"Laos","hotelRating":"1","latitude":"17.9729","longitude":"102.606","state_id":979,"state_name":"Vientiane Prefecture","country_id":119},{"active":false,"Giataid":"676903","cityId":65924,"cityName":"Thakhek","hotelId":676903,"hotelName":"Thakhek Travel Lodge","address":"Ban Viengvila,Route 13 South Between km 2 and 3,01000 Thakhek,Khammouane,Laos","phones":"","fax":"","email":"","url":"","countryIso2":"LA","countryName":"Laos","hotelRating":"1","latitude":"17.3977","longitude":"104.825","state_id":986,"state_name":"Khammouane Province","country_id":119},{"active":false,"Giataid":"680134","cityId":null,"cityName":"Vieng Xai","hotelId":680134,"hotelName":"Naxai Guesthouse 1","address":"Viengxay Village,Houaphan,Laos","phones":"","fax":"","email":"","url":"","countryIso2":"LA","countryName":"Laos","hotelRating":"1","latitude":"20.4056","longitude":"104.227","state_id":null,"state_name":null,"country_id":null},{"active":false,"Giataid":"683421","cityId":65865,"cityName":"Luang Prabang","hotelId":683421,"hotelName":"Luangprabang River Lodge Resort","address":"Na Duey Road,Ban Na Duey,06000 Luang Prabang,Laos","phones":"","fax":"","email":"","url":"","countryIso2":"LA","countryName":"Laos","hotelRating":"3","latitude":"19.8892","longitude":"102.131","state_id":978,"state_name":"Luang Prabang Province","country_id":119},{"active":false,"Giataid":"686976","cityId":null,"cityName":"Ban Keun","hotelId":686976,"hotelName":"Dansavanh Namngum Resort","address":"168 Luang Prabang Road,Ban Muang Watha,01000 Ban Keun,Laos","phones":"+8562058275555","fax":"","email":"info@dansavanh.net","url":"http://www.dansavanh.net","countryIso2":"LA","countryName":"Laos","hotelRating":"1","latitude":"18.4317","longitude":"102.65","state_id":null,"state_name":null,"country_id":null},{"active":false,"Giataid":"709316","cityId":65865,"cityName":"Luang Prabang","hotelId":709316,"hotelName":"Davita Boutique Hotel","address":"Kingkitsarath Road,Ban Thongchalern,LuangPrabang,Laos","phones":"+85671212088","fax":"","email":"booking@davitaboutiquehotel.com","url":"http://davitaboutiquehotel.com","countryIso2":"LA","countryName":"Laos","hotelRating":"1","latitude":"19.8864","longitude":"102.134","state_id":978,"state_name":"Luang Prabang Province","country_id":119},{"active":false,"Giataid":"709368","cityId":65865,"cityName":"Luang Prabang","hotelId":709368,"hotelName":"Vanvisa At the Falls Lodge","address":"Kuang Si Waterfall,Ban Thapene National Park,Luang Prabang,Laos","phones":"+85671212925","fax":"","email":"info@vanvisaguesthouse.com","url":"http://www.vanvisaguesthouse.com/AtTheFalls/index.html","countryIso2":"LA","countryName":"Laos","hotelRating":"1","latitude":"19.7532","longitude":"101.996","state_id":978,"state_name":"Luang Prabang Province","country_id":119},{"active":false,"Giataid":"709431","cityId":65865,"cityName":"Luang Prabang","hotelId":709431,"hotelName":"ThanaBoun Guesthouse","address":"Sisavangvong Road,48/3 Xiengmouan Village,City Center,Louangphabang,Louang Phabang,Laos","phones":"+85671212866","fax":"","email":"thanaboun.gh@gmail.com","url":"","countryIso2":"LA","countryName":"Laos","hotelRating":"1","latitude":"19.8927","longitude":"102.138","state_id":978,"state_name":"Luang Prabang Province","country_id":119},{"active":false,"Giataid":"709472","cityId":65865,"cityName":"Luang Prabang","hotelId":709472,"hotelName":"Hoxieng Guesthouse 2","address":"Ban Hoxieng,06000 Luang Prabang,Luang Prabang,Laos","phones":"+85671254703","fax":"","email":"hoxiengguesthouse@gmail.com","url":"http://www.hoxiangguesthouse2.com","countryIso2":"LA","countryName":"Laos","hotelRating":"1","latitude":"19.889","longitude":"102.132","state_id":978,"state_name":"Luang Prabang Province","country_id":119},{"active":false,"Giataid":"709660","cityId":65865,"cityName":"Luang Prabang","hotelId":709660,"hotelName":"Mekong Theme Hotel","address":"95 Phothisarath Road,Unit o8,Ban Saylom,Luang Prabang,Laos","phones":"+85671252388","fax":"+85671252388","email":"res@sengmanyriversidehotel.com","url":"http://www.sengmanyriversidehotel.com","countryIso2":"LA","countryName":"Laos","hotelRating":"1","latitude":"19.8793","longitude":"102.122","state_id":978,"state_name":"Luang Prabang Province","country_id":119},{"active":false,"Giataid":"711919","cityId":65865,"cityName":"Luang Prabang","hotelId":711919,"hotelName":"Villa Chitdara 2 Mekong","address":"18/02 Khem Khong,Ban Vat Nong,Luang Prabang,Laos","phones":"+85671212886","fax":"","email":"chitdara2@hotmail.com","url":"http://www.villachitdara2.com","countryIso2":"LA","countryName":"Laos","hotelRating":"3","latitude":"19.8959","longitude":"102.14","state_id":978,"state_name":"Luang Prabang Province","country_id":119},{"active":false,"Giataid":"712213","cityId":65865,"cityName":"Luang Prabang","hotelId":712213,"hotelName":"View Khem Khong Guesthouse","address":"1/10 Khem Khong Road,Luang Prabang,Laos","phones":"+85671213032","fax":"","email":"Ericsensaoui@msn.com","url":"https://viewkhemkhongguesthouse.wordpress.com","countryIso2":"LA","countryName":"Laos","hotelRating":"2","latitude":"19.887","longitude":"102.138","state_id":978,"state_name":"Luang Prabang Province","country_id":119},{"active":false,"Giataid":"713111","cityId":65865,"cityName":"Luang Prabang","hotelId":713111,"hotelName":"The World Hotel","address":"Ban Visoun 3,Luang Prabang,Laos","phones":"","fax":"","email":"","url":"","countryIso2":"LA","countryName":"Laos","hotelRating":"2","latitude":"19.887","longitude":"102.138","state_id":978,"state_name":"Luang Prabang Province","country_id":119},{"active":false,"Giataid":"295992","cityId":65927,"cityName":"Vientiane","hotelId":720718,"hotelName":"Mandala Boutique Hotel","address":"Baan Phiavat,33 Unit 10,Sisattanak District,Vientiane,Laos","phones":"+85621214493","fax":"","email":"","url":"http://www.mandalahotel.asia/","countryIso2":"LA","countryName":"Laos","hotelRating":"0","latitude":"17.9655","longitude":"102.609","state_id":979,"state_name":"Vientiane Prefecture","country_id":119},{"active":false,"Giataid":"728589","cityId":65927,"cityName":"Vientiane","hotelId":728589,"hotelName":"Chang Palace Vientiane","address":"Ban Nakham Road,Sikhottabong District,Dongpasak,01000 Vientiane,Laos,Laos","phones":"+85621520708","fax":"","email":"vientiane@changpalace.com","url":"http://www.changpalace.com","countryIso2":"LA","countryName":"Laos","hotelRating":"3","latitude":"17.9752","longitude":"102.584","state_id":979,"state_name":"Vientiane Prefecture","country_id":119},{"active":false,"Giataid":"729039","cityId":65865,"cityName":"Luang Prabang","hotelId":729039,"hotelName":"Vongprachan Backpackers Hostel","address":"Soi off of Visounnarath Road,Ban Visoun,10005 Luang Prabang,Laos","phones":"","fax":"","email":"","url":"","countryIso2":"LA","countryName":"Laos","hotelRating":"1","latitude":"19.8863","longitude":"102.139","state_id":978,"state_name":"Luang Prabang Province","country_id":119},{"active":false,"Giataid":"730668","cityId":65865,"cityName":"Luang Prabang","hotelId":730668,"hotelName":"Villa Phathana","address":"Ounheuane Road,06000 Luang Prabang,Laos","phones":"","fax":"","email":"","url":"","countryIso2":"LA","countryName":"Laos","hotelRating":"1","latitude":"19.892","longitude":"102.137","state_id":978,"state_name":"Luang Prabang Province","country_id":119},{"active":false,"Giataid":"731174","cityId":65865,"cityName":"Luang Prabang","hotelId":731174,"hotelName":"Jasmine Luangprabang Hotel","address":"Ban Thong Chaluen,01000 Luang Prabang,Laos","phones":"","fax":"","email":"","url":"","countryIso2":"LA","countryName":"Laos","hotelRating":"3","latitude":"19.887","longitude":"102.138","state_id":978,"state_name":"Luang Prabang Province","country_id":119},{"active":false,"Giataid":"731853","cityId":null,"cityName":"Vang Vieng","hotelId":731853,"hotelName":"Vang Vieng Plaza Hotel","address":"067 Ban Vieng Keo,Vang Vieng,Laos","phones":"","fax":"","email":"","url":"","countryIso2":"LA","countryName":"Laos","hotelRating":"1","latitude":"18.9226","longitude":"102.447","state_id":null,"state_name":null,"country_id":null},{"active":false,"Giataid":"732453","cityId":65917,"cityName":"Pakse","hotelId":732453,"hotelName":"Soutchai Pakse Backpacker Hostel","address":"Road 46 Km,Ban Phonxay,01000 Pakse,Champasak,Laos","phones":"","fax":"","email":"","url":"","countryIso2":"LA","countryName":"Laos","hotelRating":"1","latitude":"15.1195","longitude":"105.803","state_id":996,"state_name":"Champasak Province","country_id":119},{"active":false,"Giataid":"732610","cityId":65927,"cityName":"Vientiane","hotelId":732610,"hotelName":"Grand Hotel Vientiane","address":"Ban Phonsinuan,Vientiane,Laos","phones":"+85621410275","fax":"+85621410277","email":"info@grandhotelvientiane.com","url":"https://www.grandhotelvientiane.com/","countryIso2":"LA","countryName":"Laos","hotelRating":"3","latitude":"17.9636","longitude":"102.624","state_id":979,"state_name":"Vientiane Prefecture","country_id":119},{"active":false,"Giataid":"734126","cityId":null,"cityName":"Pakbeng","hotelId":734126,"hotelName":"Luangsay Lodge","address":"Mekong,10000 Pakbeng,Laos","phones":"+85681212296","fax":"","email":"","url":"","countryIso2":"LA","countryName":"Laos","hotelRating":"1","latitude":"19.8932","longitude":"101.127","state_id":null,"state_name":null,"country_id":null},{"active":false,"Giataid":"737172","cityId":65865,"cityName":"Luang Prabang","hotelId":737172,"hotelName":"Y Not Laos Hostel","address":"Phousi Road,Aphay Village,Luang Prabang,Laos","phones":"","fax":"","email":"","url":"","countryIso2":"LA","countryName":"Laos","hotelRating":"2","latitude":"19.8891","longitude":"102.138","state_id":978,"state_name":"Luang Prabang Province","country_id":119},{"active":false,"Giataid":"741850","cityId":65927,"cityName":"Vientiane","hotelId":741850,"hotelName":"Treasure Plaza Vientiane Laos","address":"Nong Bua Thong Tai,Vientiane,Laos","phones":"","fax":"","email":"","url":"","countryIso2":"LA","countryName":"Laos","hotelRating":"1","latitude":"17.9852","longitude":"102.601","state_id":979,"state_name":"Vientiane Prefecture","country_id":119},{"active":false,"Giataid":"744254","cityId":null,"cityName":"Vang Vieng","hotelId":744254,"hotelName":"Amari Vang Vieng","address":"Song River Road,Sawang Village,Vang Vieng City,Laos","phones":"+856235118009","fax":"+85623511999","email":"","url":"https://www.amari.com/vang-vieng/photogallery.aspx","countryIso2":"LA","countryName":"Laos","hotelRating":"1","latitude":"18.9253","longitude":"102.447","state_id":null,"state_name":null,"country_id":null},{"active":false,"Giataid":"744431","cityId":null,"cityName":"Vang Vieng","hotelId":744431,"hotelName":"Vang Vieng Garden Bungalow","address":"Viengkeo Village,Behind Wat That Temple,10001 Vang Vieng,Laos","phones":"","fax":"","email":"","url":"","countryIso2":"LA","countryName":"Laos","hotelRating":"1","latitude":"18.923","longitude":"102.446","state_id":null,"state_name":null,"country_id":null},{"active":false,"Giataid":"746215","cityId":null,"cityName":"Vang Vieng","hotelId":746215,"hotelName":"Nok Et Mika Guesthouse","address":"Ban Savang,01000 Vang Vieng,Laos","phones":"","fax":"","email":"nokmika2015@gmail.com","url":"http://www.nokmikalaos.co.nf","countryIso2":"LA","countryName":"Laos","hotelRating":"1","latitude":"18.9271","longitude":"102.447","state_id":null,"state_name":null,"country_id":null},{"active":false,"Giataid":"747200","cityId":65927,"cityName":"Vientiane","hotelId":747200,"hotelName":"Vayakorn House","address":"91 Nokeo Kumman Street,Ban Mixay,Chanthabouly District,Vientiane,Laos","phones":"+85621241911","fax":"+85621241910","email":"vayakornhouse@gmail.com","url":"https://www.vayakorn.biz/vayakorn-house","countryIso2":"LA","countryName":"Laos","hotelRating":"2","latitude":"17.9657","longitude":"102.606","state_id":979,"state_name":"Vientiane Prefecture","country_id":119},{"active":false,"Giataid":"747294","cityId":65865,"cityName":"Luang Prabang","hotelId":747294,"hotelName":"Villa Namkhan River","address":"Kingkitsarath Road,Ban Aphay,06000 Luang Prabang,Laos","phones":"","fax":"","email":"","url":"","countryIso2":"LA","countryName":"Laos","hotelRating":"3","latitude":"19.8898","longitude":"102.139","state_id":978,"state_name":"Luang Prabang Province","country_id":119},{"active":false,"Giataid":"747800","cityId":65927,"cityName":"Vientiane","hotelId":747800,"hotelName":"Vikeo Villas Serviced Apartments","address":"3 Watnak,Unit 14,Vientian,Laos","phones":"","fax":"","email":"","url":"","countryIso2":"LA","countryName":"Laos","hotelRating":"2","latitude":"17.9655","longitude":"102.609","state_id":979,"state_name":"Vientiane Prefecture","country_id":119},{"active":false,"Giataid":"748069","cityId":65865,"cityName":"Luang Prabang","hotelId":748069,"hotelName":"Viengchalern Guesthouse","address":"Kingkitsarath Road,Luang Prabang,Laos","phones":"","fax":"","email":"","url":"","countryIso2":"LA","countryName":"Laos","hotelRating":"2","latitude":"19.887","longitude":"102.138","state_id":978,"state_name":"Luang Prabang Province","country_id":119},{"active":false,"Giataid":"748696","cityId":null,"cityName":"Pakbeng","hotelId":748696,"hotelName":"Le Grand Pakbeng Resort","address":"Ban Donkham,Pakbeng,Pakbeng District,Oudomxay Province,Laos","phones":"+856305739852","fax":"","email":"booking@legrandpakbeng.com","url":"http://www.legrandpakbeng.com","countryIso2":"LA","countryName":"Laos","hotelRating":"1","latitude":"19.8932","longitude":"101.127","state_id":null,"state_name":null,"country_id":null},{"active":false,"Giataid":"749004","cityId":65927,"cityName":"Vientiane","hotelId":749004,"hotelName":"Moonlight Champa","address":"13 Pang Kham Street,Ban Sisaket,Chantaboury District,Vientiane,Laos","phones":"+85621264114","fax":"","email":"moonlight_champa@yahoo.com","url":"http://www.moonlight-champa.com","countryIso2":"LA","countryName":"Laos","hotelRating":"2","latitude":"17.9678","longitude":"102.61","state_id":979,"state_name":"Vientiane Prefecture","country_id":119},{"active":false,"Giataid":"749864","cityId":65917,"cityName":"Pakse","hotelId":749864,"hotelName":"Xuanmai Garden Resort","address":"Road 13,Pakse,Champasak Province,Laos","phones":"+856309445005","fax":"","email":"phetmany-90@live.com","url":"http://www.xuanmaiguesthouse-pakse.com","countryIso2":"LA","countryName":"Laos","hotelRating":"1","latitude":"15.1195","longitude":"105.803","state_id":996,"state_name":"Champasak Province","country_id":119},{"active":false,"Giataid":"751574","cityId":65865,"cityName":"Luang Prabang","hotelId":751574,"hotelName":"Mekong Moon Inn II Riverside Villa","address":"Road 13 North,Ban Don,01000 Luang Prabang,Laos","phones":"","fax":"","email":"","url":"","countryIso2":"LA","countryName":"Laos","hotelRating":"1","latitude":"19.916","longitude":"102.17","state_id":978,"state_name":"Luang Prabang Province","country_id":119},{"active":false,"Giataid":"754765","cityId":null,"cityName":"Vang Vieng","hotelId":754765,"hotelName":"Kong Resort","address":"Tham Poukham Road,Huiy Yae Village,Vang Vieng,Laos","phones":"","fax":"","email":"","url":"","countryIso2":"LA","countryName":"Laos","hotelRating":"1","latitude":"18.923","longitude":"102.446","state_id":null,"state_name":null,"country_id":null},{"active":false,"Giataid":"791570","cityId":65927,"cityName":"Vientiane","hotelId":791570,"hotelName":"River View Resort","address":"10 Ban Hai,Xaythany District,Tha Ngone,Vientiane,Laos","phones":"","fax":"","email":"","url":"","countryIso2":"LA","countryName":"Laos","hotelRating":"1","latitude":"18.1368","longitude":"102.619","state_id":979,"state_name":"Vientiane Prefecture","country_id":119},{"active":false,"Giataid":"794446","cityId":65865,"cityName":"Luang Prabang","hotelId":794446,"hotelName":"Sakura Hotel","address":"Prasamon Road,Luang Prabang,Laos","phones":"","fax":"","email":"","url":"","countryIso2":"LA","countryName":"Laos","hotelRating":"1","latitude":"19.887","longitude":"102.138","state_id":978,"state_name":"Luang Prabang Province","country_id":119},{"active":false,"Giataid":"794664","cityId":65927,"cityName":"Vientiane","hotelId":794664,"hotelName":"Hive Hostel","address":"Setthathilath Road,Chanthabouly District,Vientiane 01000,Laos","phones":"","fax":"","email":"","url":"","countryIso2":"LA","countryName":"Laos","hotelRating":"1","latitude":"17.9655","longitude":"102.609","state_id":979,"state_name":"Vientiane Prefecture","country_id":119},{"active":false,"Giataid":"794736","cityId":65917,"cityName":"Pakse","hotelId":794736,"hotelName":"Malaythong Hotel","address":"Baan Khannyaeng,Pakse,Laos","phones":"","fax":"","email":"","url":"","countryIso2":"LA","countryName":"Laos","hotelRating":"1","latitude":"15.1195","longitude":"105.803","state_id":996,"state_name":"Champasak Province","country_id":119},{"active":false,"Giataid":"795384","cityId":65927,"cityName":"Vientiane","hotelId":795384,"hotelName":"Huay Khoum Kham Resort","address":"Thai Lao Friendship Road,13 South Road,01000 Vientiane,Laos","phones":"","fax":"","email":"","url":"","countryIso2":"LA","countryName":"Laos","hotelRating":"1","latitude":"17.9895","longitude":"102.718","state_id":979,"state_name":"Vientiane Prefecture","country_id":119},{"active":false,"Giataid":"795399","cityId":65927,"cityName":"Vientiane","hotelId":795399,"hotelName":"Chaleaunsy Hotel","address":"Sisavath Road,Chanthabouly,Vientiane,Laos","phones":"","fax":"","email":"","url":"","countryIso2":"LA","countryName":"Laos","hotelRating":"1","latitude":"17.9742","longitude":"102.614","state_id":979,"state_name":"Vientiane Prefecture","country_id":119},{"active":false,"Giataid":"795511","cityId":65917,"cityName":"Pakse","hotelId":795511,"hotelName":"DownTown Pakse","address":"1054 Road 13,Tha Luang,00001 Pakse,Laos","phones":"","fax":"","email":"","url":"","countryIso2":"LA","countryName":"Laos","hotelRating":"1","latitude":"15.1195","longitude":"105.803","state_id":996,"state_name":"Champasak Province","country_id":119},{"active":false,"Giataid":"795517","cityId":null,"cityName":"Vang Vieng","hotelId":795517,"hotelName":"Outland Hostel","address":"149 Ban Muang Son,01000 Vang Vieng,Laos","phones":"","fax":"","email":"","url":"","countryIso2":"LA","countryName":"Laos","hotelRating":"1","latitude":"18.923","longitude":"102.446","state_id":null,"state_name":null,"country_id":null},