[{"active":false,"Giataid":"7668","cityId":null,"cityName":"Mamaia","hotelId":7668,"hotelName":"Hotel Amiral","address":"Bulevardul Mamaia,900001 Mamaia,Jude?ul Constan?a,Constan?a,Romania,Romania","phones":"+40241831460","fax":"+40241831135","email":"","url":"","countryIso2":"RO","countryName":"Romania","hotelRating":"4","latitude":"44.2607","longitude":"28.6195","state_id":null,"state_name":null,"country_id":null},{"active":false,"Giataid":"10237","cityId":null,"cityName":"Mamaia","hotelId":10237,"hotelName":"Central","address":"900001 Mamaia,Romania","phones":"+40241831740","fax":"+40241831065","email":"rezervari@centralmamaia.com","url":"http://centralmamaia.com/","countryIso2":"RO","countryName":"Romania","hotelRating":"3","latitude":"44.2523","longitude":"28.6205","state_id":null,"state_name":null,"country_id":null},{"active":false,"Giataid":"11584","cityId":null,"cityName":"Neptun","hotelId":11584,"hotelName":"Doina","address":"Neptun,Constanta,Romania","phones":"+40241701012","fax":"+40241731943","email":"rezervari.doina@apps.ro","url":"http://complexdoina.apps.ro/amplasare/","countryIso2":"RO","countryName":"Romania","hotelRating":"3","latitude":"43.8729","longitude":"28.597","state_id":null,"state_name":null,"country_id":null},{"active":false,"Giataid":"16317","cityId":null,"cityName":"Mamaia","hotelId":16317,"hotelName":"Lido","address":"Mamaia Resort,900001 Mamaia,Constanta,Romania","phones":"+40241831818","fax":"+40241831555","email":"contact@lido-mamaia.ro","url":"http://www.lido-mamaia.ro","countryIso2":"RO","countryName":"Romania","hotelRating":"3","latitude":"44.2616","longitude":"28.6193","state_id":null,"state_name":null,"country_id":null},{"active":false,"Giataid":"16687","cityId":null,"cityName":"Mamaia","hotelId":16687,"hotelName":"Majestic","address":"Statiunea Mamaia,Judetul Constanta,Romania","phones":"+40241831005","fax":"+40241831155","email":"majestic.mamaia@phoeniciaholiday.ro","url":"http://www.phoeniciaholiday.ro/content/majestic-mamaia/general-presentation,62.htm","countryIso2":"RO","countryName":"Romania","hotelRating":"3","latitude":"44.2468","longitude":"28.6208","state_id":null,"state_name":null,"country_id":null},{"active":false,"Giataid":"17501","cityId":null,"cityName":"Neptun","hotelId":17501,"hotelName":"Miorita","address":"Neptun,Judetul Constanta,Romania","phones":"+40241701013","fax":"+40241701217","email":"","url":"","countryIso2":"RO","countryName":"Romania","hotelRating":"3","latitude":"43.8715","longitude":"28.5968","state_id":null,"state_name":null,"country_id":null},{"active":false,"Giataid":"18917","cityId":null,"cityName":"Mamaia","hotelId":18917,"hotelName":"Pelican Beach","address":"Mamaia,Constanta,Romania","phones":"+40241831015","fax":"+40241831658","email":"palaspelican@yahoo.com","url":"http://www.palaspelican.ro","countryIso2":"RO","countryName":"Romania","hotelRating":"3","latitude":"44.2537","longitude":"28.6207","state_id":null,"state_name":null,"country_id":null},{"active":false,"Giataid":"20499","cityId":null,"cityName":"Mamaia","hotelId":20499,"hotelName":"Riviera Beach","address":"Mamaia,Constanta,Romania","phones":"","fax":"","email":"","url":"","countryIso2":"RO","countryName":"Romania","hotelRating":"3","latitude":"44.245","longitude":"28.6219","state_id":null,"state_name":null,"country_id":null},{"active":false,"Giataid":"21183","cityId":null,"cityName":"Constanta","hotelId":21183,"hotelName":"Savoy Hotel","address":"Mamaia,900001 Constanta,Romania","phones":"+40241606900","fax":"+40241831181","email":"rezervari@savoyhotel.ro","url":"http://www.savoyhotel.ro/","countryIso2":"RO","countryName":"Romania","hotelRating":"3","latitude":"44.2621","longitude":"28.6199","state_id":null,"state_name":null,"country_id":null},{"active":false,"Giataid":"28212","cityId":null,"cityName":"Neptun","hotelId":28212,"hotelName":"Apollo","address":"Str. Plopilor nr.1,905550 Neptun,Romania","phones":"","fax":"","email":"","url":"","countryIso2":"RO","countryName":"Romania","hotelRating":"2","latitude":"43.8667","longitude":"28.5989","state_id":null,"state_name":null,"country_id":null},{"active":false,"Giataid":"28245","cityId":null,"cityName":"Constanta","hotelId":28245,"hotelName":"Grand Hotel Rex","address":"Mamaia Bulevard,900001 Constanta,Romania","phones":"+40241831595","fax":"+40241831690","email":"","url":"http://www.grandhotelrex.ro","countryIso2":"RO","countryName":"Romania","hotelRating":"5","latitude":"44.2479","longitude":"28.6222","state_id":null,"state_name":null,"country_id":null},{"active":false,"Giataid":"28246","cityId":null,"cityName":"Mamaia","hotelId":28246,"hotelName":"Hotel Iaki","address":"Bulevardul Mamaia,900001 Mamaia,Jude? Constan?a,Romania","phones":"+40241831025","fax":"+40241831169","email":"marketing@iaki.ro","url":"http://www.iaki.ro/","countryIso2":"RO","countryName":"Romania","hotelRating":"4","latitude":"44.2436","longitude":"28.6221","state_id":null,"state_name":null,"country_id":null},{"active":false,"Giataid":"28247","cityId":null,"cityName":"Mamaia","hotelId":28247,"hotelName":"Perla","address":"Intrare Statiunea Mamaia,Mamaia,Judetul Constanta,Romania","phones":"+40241831995","fax":"","email":"perlamamaia@yahoo.com","url":"http://www.perlamamaia.ro/","countryIso2":"RO","countryName":"Romania","hotelRating":"3","latitude":"44.2459","longitude":"28.6225","state_id":null,"state_name":null,"country_id":null},{"active":false,"Giataid":"28312","cityId":null,"cityName":"Neptun","hotelId":28312,"hotelName":"Terra","address":"Statiunea Neptun,905550 Neptun,Romania","phones":"","fax":"","email":"","url":"","countryIso2":"RO","countryName":"Romania","hotelRating":"2","latitude":"43.866","longitude":"28.5984","state_id":null,"state_name":null,"country_id":null},{"active":false,"Giataid":"28325","cityId":106173,"cityName":"Tulcea","hotelId":28325,"hotelName":"Hotel Delta Tulcea 3*","address":"Strada Isaccei 2,820169 Tulcea,Romania","phones":"+40240514720","fax":"+40240516260","email":"rezervari@hoteldelta.eu","url":"http://www.hoteldelta.eu/","countryIso2":"RO","countryName":"Romania","hotelRating":"3","latitude":"45.1796","longitude":"28.8037","state_id":4727,"state_name":"Tulcea County","country_id":181},{"active":false,"Giataid":"28619","cityId":94922,"cityName":"Mangalia","hotelId":28619,"hotelName":"Mangalia","address":"NULL","phones":"","fax":"","email":"","url":"","countryIso2":"RO","countryName":"Romania","hotelRating":"2","latitude":"43.8131","longitude":"28.5839","state_id":4737,"state_name":"Constanța County","country_id":181},{"active":false,"Giataid":"31142","cityId":null,"cityName":"Neptun","hotelId":31142,"hotelName":"Panoramic Beach","address":"Neptun,Constanta,Romania","phones":"","fax":"","email":"","url":"","countryIso2":"RO","countryName":"Romania","hotelRating":"2","latitude":"43.883","longitude":"28.6062","state_id":null,"state_name":null,"country_id":null},{"active":false,"Giataid":"31144","cityId":null,"cityName":"Mamaia","hotelId":31144,"hotelName":"Caraiman","address":"Bulevardul Mamaia,Mamaia,Constanta,Romania","phones":"","fax":"","email":"","url":"","countryIso2":"RO","countryName":"Romania","hotelRating":"3","latitude":"44.2631","longitude":"28.6174","state_id":null,"state_name":null,"country_id":null},{"active":false,"Giataid":"32918","cityId":66417,"cityName":"Venus","hotelId":32918,"hotelName":"Euro Orlando","address":"NULL","phones":"","fax":"","email":"","url":"","countryIso2":"RO","countryName":"Romania","hotelRating":"3","latitude":"43.8457","longitude":"28.5995","state_id":3757,"state_name":"Anse la Raye Quarter","country_id":186},{"active":false,"Giataid":"33324","cityId":null,"cityName":"Mamaia","hotelId":33324,"hotelName":"Hotel Club Scandinavia Mamaia","address":"Bulevard Mamaia 443,900001 Mamaia,Romania","phones":"+40341111323","fax":"+40341111324","email":"contact@hotelclubscandinaviamamaia.ro","url":"http://hotelclubscandinaviamamaia.ro/","countryIso2":"RO","countryName":"Romania","hotelRating":"5","latitude":"44.2624","longitude":"28.6187","state_id":null,"state_name":null,"country_id":null},{"active":false,"Giataid":"33325","cityId":null,"cityName":"Mamaia","hotelId":33325,"hotelName":"Dorna","address":"","phones":"+40241831639","fax":"+40241831639","email":"dorna@blacksea-hotels.ro","url":"http://www.blacksea-hotels.ro/dorna/","countryIso2":"RO","countryName":"Romania","hotelRating":"3","latitude":"44.2547","longitude":"28.6198","state_id":null,"state_name":null,"country_id":null},{"active":false,"Giataid":"33327","cityId":null,"cityName":"Saturn","hotelId":33327,"hotelName":"Hotel Hora","address":"Plaja 20 m Centru Gara 1 Km Aeroport 60 Km,905504 Saturn,Romania","phones":"+40241751464","fax":"+40241755559","email":"thrmareaneagra@yahoo.com","url":"http://www.thrmareaneagra.ro/cazare/saturn/hotel-hora","countryIso2":"RO","countryName":"Romania","hotelRating":"3","latitude":"43.8299","longitude":"28.5908","state_id":null,"state_name":null,"country_id":null},{"active":false,"Giataid":"33329","cityId":null,"cityName":"Neptun","hotelId":33329,"hotelName":"Romanta","address":"NULL","phones":"","fax":"","email":"","url":"","countryIso2":"RO","countryName":"Romania","hotelRating":"2","latitude":"43.8714","longitude":"28.5974","state_id":null,"state_name":null,"country_id":null},{"active":false,"Giataid":"34317","cityId":90347,"cityName":"Bucharest","hotelId":34317,"hotelName":"Ramada Bucharest Parc Hotel","address":"3-5 B Poligrafiei Avenue,013704 Bucharest,Romania","phones":"+40215492000","fax":"+40215492330","email":"reservations@ramadaplazabucharest.ro","url":"http://www.ramada.com/Ramada/control/Booking/property_info?propertyId=18529","countryIso2":"RO","countryName":"Romania","hotelRating":"4","latitude":"44.48","longitude":"26.0633","state_id":4730,"state_name":"Bucharest","country_id":181},{"active":false,"Giataid":"34318","cityId":90347,"cityName":"Bucharest","hotelId":34318,"hotelName":"Pullman Bucharest World Trade Center Hotel","address":"10 Montreal square,Sector 1,011469 Bucharest,Romania","phones":"+40213183000","fax":"+40213162550","email":"Pullman@Pullman.ro","url":"http://www.accorhotels.com/gb/hotel-1714-pullman-bucharest-world-trade-center/index.shtml","countryIso2":"RO","countryName":"Romania","hotelRating":"4","latitude":"44.4757","longitude":"26.0703","state_id":4730,"state_name":"Bucharest","country_id":181},{"active":false,"Giataid":"35374","cityId":null,"cityName":"Mamaia","hotelId":35374,"hotelName":"Hotel Comandor","address":"Mamaia,Constanta,Romania","phones":"+40241831138","fax":"+40241831149","email":"","url":"","countryIso2":"RO","countryName":"Romania","hotelRating":"4","latitude":"44.2366","longitude":"28.6235","state_id":null,"state_name":null,"country_id":null},{"active":false,"Giataid":"36260","cityId":146345,"cityName":"Caciulata","hotelId":36260,"hotelName":"Caciulata","address":"","phones":"","fax":"","email":"","url":"","countryIso2":"RO","countryName":"Romania","hotelRating":"3","latitude":"0","longitude":"0","state_id":4915,"state_name":"Mures County","country_id":181},{"active":false,"Giataid":"39092","cityId":null,"cityName":"Neptun","hotelId":39092,"hotelName":"Dacia","address":"Street Aleea Steagurilor 1,Neptun 905550,Romania","phones":"+40241701813","fax":"","email":"rezervari.dacia@apps.ro","url":"http://hoteldacia.apps.ro","countryIso2":"RO","countryName":"Romania","hotelRating":"2","latitude":"43.8662","longitude":"28.5988","state_id":null,"state_name":null,"country_id":null},{"active":false,"Giataid":"39093","cityId":null,"cityName":"Mamaia","hotelId":39093,"hotelName":"HoTel Vega","address":"900001 Mamaia,Constanta,Romania","phones":"+40241607607","fax":"+40241879300","email":"sales@hotelvega.ro","url":"http://www.hotelvega.ro","countryIso2":"RO","countryName":"Romania","hotelRating":"5","latitude":"44.2572","longitude":"28.6206","state_id":null,"state_name":null,"country_id":null},{"active":false,"Giataid":"39502","cityId":94137,"cityName":"Eforie Nord","hotelId":39502,"hotelName":"ANA Hotels Europa","address":"Bulevardul Republicii 13,905350 Eforie Nord,Jude? Constan?a,Romania","phones":"+40241741710","fax":"+40241741720","email":"reservation-hoteleuropa@anahotels.ro","url":"http://www.anahotels.ro/HotelDetails.aspx?hid=4","countryIso2":"RO","countryName":"Romania","hotelRating":"4","latitude":"44.0624","longitude":"28.6366","state_id":4737,"state_name":"Constanța County","country_id":181},{"active":false,"Giataid":"39631","cityId":null,"cityName":"Mamaia","hotelId":39631,"hotelName":"Palas Beach","address":"90001 Mamaia,Constanta,Romania","phones":"+40241831015","fax":"+40241831658","email":"palaspelican@yahoo.com","url":"http://www.palaspelican.ro","countryIso2":"RO","countryName":"Romania","hotelRating":"4","latitude":"44.2533","longitude":"28.6209","state_id":null,"state_name":null,"country_id":null},{"active":false,"Giataid":"39632","cityId":null,"cityName":"Mamaia","hotelId":39632,"hotelName":"Victoria","address":"Mamaia,Constanta 900001,Romania","phones":"+40241831028","fax":"+40241831024","email":"marketing@hotelvictoria.ro","url":"http://www.hotelvictoria.ro/home_en.html","countryIso2":"RO","countryName":"Romania","hotelRating":"3","latitude":"44.2306","longitude":"28.6267","state_id":null,"state_name":null,"country_id":null},{"active":false,"Giataid":"39633","cityId":94137,"cityName":"Eforie Nord","hotelId":39633,"hotelName":"Astoria","address":"Strada Tudor Vladimirescu 9,905350 Eforie Nord,Romania","phones":"+40241741710","fax":"+40241741720","email":"","url":"","countryIso2":"RO","countryName":"Romania","hotelRating":"3","latitude":"44.0678","longitude":"28.6377","state_id":4737,"state_name":"Constanța County","country_id":181},{"active":false,"Giataid":"39634","cityId":null,"cityName":"Olimp","hotelId":39634,"hotelName":"Majestic Olymp","address":"Strada Trandafirilor,Statiunea Olimp,Judetul Constanta,Romania","phones":"","fax":"+40241491130","email":"majestic.olimp@phoeniciaholiday.ro","url":"http://www.majesticolimp.ro/","countryIso2":"RO","countryName":"Romania","hotelRating":"3","latitude":"43.8851","longitude":"28.6054","state_id":null,"state_name":null,"country_id":null},{"active":false,"Giataid":"40522","cityId":66417,"cityName":"Venus","hotelId":40522,"hotelName":"Dana","address":"905504 Venus,Constanta,Romania","phones":"+40241731503","fax":"+40241731465","email":"office@hotel-dana.ro","url":"http://www.hotel-dana.ro","countryIso2":"RO","countryName":"Romania","hotelRating":"3","latitude":"43.8473","longitude":"28.591","state_id":3757,"state_name":"Anse la Raye Quarter","country_id":186},{"active":false,"Giataid":"40677","cityId":null,"cityName":"Saturn","hotelId":40677,"hotelName":"Cerna","address":"plaja 20 m centru gara 1 km aeroport 60 km,905560 Saturn,Romania","phones":"+40241752005","fax":"+40241755559","email":"marketing@thrmareaneagra.ro","url":"http://www.thrmareaneagra.ro/cazare/saturn/hotel-cerna","countryIso2":"RO","countryName":"Romania","hotelRating":"3","latitude":"43.8293","longitude":"28.591","state_id":null,"state_name":null,"country_id":null},{"active":false,"Giataid":"51061","cityId":null,"cityName":"Constanta","hotelId":51061,"hotelName":"Royal Constanta","address":"Bulevardul Mamaia 191,Constanta,Romania","phones":"+40241545570","fax":"+40241545882","email":"office@hotelroyal.ro","url":"http://www.hotelroyal.ro","countryIso2":"RO","countryName":"Romania","hotelRating":"4","latitude":"44.1991","longitude":"28.6468","state_id":null,"state_name":null,"country_id":null},{"active":false,"Giataid":"51062","cityId":90347,"cityName":"Bucharest","hotelId":51062,"hotelName":"Hotel Caro Horoscop","address":"Barbu Vacarescu Bulevardul 164A,2nd District,020285 Bucharest,Romania","phones":"+40212086100","fax":"+40212086101","email":"reservation@carohotel.ro","url":"http://www.carohotel.ro","countryIso2":"RO","countryName":"Romania","hotelRating":"2","latitude":"44.4746","longitude":"26.1087","state_id":4730,"state_name":"Bucharest","country_id":181},{"active":false,"Giataid":"51063","cityId":90347,"cityName":"Bucharest","hotelId":51063,"hotelName":"Hotel Opera","address":"Ion Brezoianu Street nr. 37,Sector 1,Bucharest,Romania","phones":"+40213124855","fax":"+40213124858","email":"info@hotelopera.ro","url":"http://www.hotelopera.ro","countryIso2":"RO","countryName":"Romania","hotelRating":"3","latitude":"44.4369","longitude":"26.0943","state_id":4730,"state_name":"Bucharest","country_id":181},{"active":false,"Giataid":"51064","cityId":90347,"cityName":"Bucharest","hotelId":51064,"hotelName":"Central","address":"Brezoianu Street 13,District 5,Bucharest,Romania","phones":"+40213155635","fax":"+40213155637","email":"info@centralhotel.ro","url":"http://www.centralhotel.ro","countryIso2":"RO","countryName":"Romania","hotelRating":"4","latitude":"44.4347","longitude":"26.0947","state_id":4730,"state_name":"Bucharest","country_id":181},{"active":false,"Giataid":"51065","cityId":90347,"cityName":"Bucharest","hotelId":51065,"hotelName":"Crystal Palace","address":"18-20 Alexandru Serbanescu Street,1st District,Bucharest,Romania","phones":"+40212332030","fax":"+40212320226","email":"reservation@crystalpalacehotel.ro","url":"http://www.crystalpalacehotel.ro","countryIso2":"RO","countryName":"Romania","hotelRating":"4","latitude":"44.4842","longitude":"26.0977","state_id":4730,"state_name":"Bucharest","country_id":181},{"active":false,"Giataid":"51066","cityId":90347,"cityName":"Bucharest","hotelId":51066,"hotelName":"Sheraton Bucharest Hotel","address":"Calea Dorobantilor 5-7,010551 Bucharest,Romania","phones":"+40212015000","fax":"+40212011888","email":"sales@hojoplaza.ro","url":"http://www.hojoplaza.ro","countryIso2":"RO","countryName":"Romania","hotelRating":"4","latitude":"44.4467","longitude":"26.099","state_id":4730,"state_name":"Bucharest","country_id":181},{"active":false,"Giataid":"51185","cityId":90347,"cityName":"Bucharest","hotelId":51185,"hotelName":"Grand Hotel Continental","address":"Calea Victoriei 56,Sector 1,010083 Bucure?ti,Romania","phones":"+40372010300","fax":"+40372010301","email":"info@grandhotelcontinental.ro","url":"http://www.continentalhotels.ro/Grand-Hotel-Continental-482/","countryIso2":"RO","countryName":"Romania","hotelRating":"5","latitude":"44.437","longitude":"26.098","state_id":4730,"state_name":"Bucharest","country_id":181},{"active":false,"Giataid":"51186","cityId":95445,"cityName":"Oradea","hotelId":51186,"hotelName":"Continental Forum Oradea","address":"Aleea ?trandului 1,Centrul Orasului,410051 Oradea,Romania","phones":"+40372598800","fax":"+40372598801","email":"forum.oradea@continentalhotels.ro","url":"http://www.continentalhotels.ro/Continental-Forum-Oradea/","countryIso2":"RO","countryName":"Romania","hotelRating":"4","latitude":"47.0554","longitude":"21.9418","state_id":4723,"state_name":"Bihor County","country_id":181},{"active":false,"Giataid":"51187","cityId":57437,"cityName":"Arad","hotelId":51187,"hotelName":"Continental Forum Arad","address":"Revolutiei Boulevard 79-81,Centrul Ora?ului,310130 Arad,Romania","phones":"+40372578800","fax":"+40372578801","email":"forum.arad@continentalhotels.ro","url":"http://www.continentalhotels.ro/Continental-Forum-Arad/","countryIso2":"RO","countryName":"Romania","hotelRating":"4","latitude":"46.174","longitude":"21.3182","state_id":1368,"state_name":"Southern District","country_id":106},{"active":false,"Giataid":"51194","cityId":null,"cityName":"Poiana Brasov","hotelId":51194,"hotelName":"ANA Hotels Bradul","address":"Valea Draga,500001 Poiana Brasov,Brasov,Romania","phones":"+40268407330","fax":"+40268407334","email":"sales-hotelsport@anahotels.ro","url":"http://www.anahotels.ro/sport/default_viewList-en.html","countryIso2":"RO","countryName":"Romania","hotelRating":"4","latitude":"45.5916","longitude":"25.5573","state_id":null,"state_name":null,"country_id":null},{"active":false,"Giataid":"51196","cityId":null,"cityName":"Poiana Brasov","hotelId":51196,"hotelName":"ANA Hotels Sport","address":"Valea Draga,500001 Poiana Brasov,Brasov,Romania","phones":"+40268407330","fax":"+40268407334","email":"reservation-hotelsport@anahotels.ro","url":"http://www.anahotels.ro/sport/default_viewList-en.html","countryIso2":"RO","countryName":"Romania","hotelRating":"4","latitude":"45.5925","longitude":"25.5572","state_id":null,"state_name":null,"country_id":null},{"active":false,"Giataid":"127177","cityId":90347,"cityName":"Bucharest","hotelId":127177,"hotelName":"Residence Domenii Plaza ","address":"33 Alexandru Constantinescu Street,,1st District,Bucharest,Romania","phones":"+40212245044","fax":"+40212245021","email":"reservations@residence.com.ro","url":"http://www.residencehotels.com.ro/en/Hotel/3/0/4/about+us.html","countryIso2":"RO","countryName":"Romania","hotelRating":"4","latitude":"44.4672","longitude":"26.0698","state_id":4730,"state_name":"Bucharest","country_id":181},{"active":false,"Giataid":"127178","cityId":90347,"cityName":"Bucharest","hotelId":127178,"hotelName":"Hotel Arc de Triomphe","address":"Strada Clucerului 19,Sector 1,011362 Bukarest,Romania","phones":"+40212231978","fax":"+40212229046","email":"reservations@residence.com.ro","url":"http://www.residencehotels.com.ro/en/Hotel/2/0/2/about+us.html","countryIso2":"RO","countryName":"Romania","hotelRating":"4","latitude":"44.4606","longitude":"26.0772","state_id":4730,"state_name":"Bucharest","country_id":181},{"active":false,"Giataid":"127416","cityId":null,"cityName":"Bors (Bihor)","hotelId":127416,"hotelName":"Iris","address":"Soseaua Borsului 400,410605 Bors,Bihor,Romania","phones":"+40259401200","fax":"+40259316741","email":"reservation@irishotel.ro","url":"http://www.irishotel.ro/","countryIso2":"RO","countryName":"Romania","hotelRating":"3","latitude":"47.1087","longitude":"21.8193","state_id":null,"state_name":null,"country_id":null},{"active":false,"Giataid":"129776","cityId":96488,"cityName":"Suceava","hotelId":129776,"hotelName":"Classic","address":"Siceava University 32,Suceava,Romania","phones":"","fax":"","email":"","url":"","countryIso2":"RO","countryName":"Romania","hotelRating":"3","latitude":"47.6412","longitude":"26.2462","state_id":4720,"state_name":"Suceava County","country_id":181},{"active":false,"Giataid":"129777","cityId":96488,"cityName":"Suceava","hotelId":129777,"hotelName":"Central","address":"Strada Nicolae Balcescu 4,Suceava 720002,Romania","phones":"","fax":"","email":"","url":"","countryIso2":"RO","countryName":"Romania","hotelRating":"3","latitude":"47.6453","longitude":"26.2578","state_id":4720,"state_name":"Suceava County","country_id":181},{"active":false,"Giataid":"133047","cityId":57437,"cityName":"Arad","hotelId":133047,"hotelName":"Phoenix","address":"Calea Aurel Vlaicu 267,Arad,Romania","phones":"+40257229110","fax":"+40257289210","email":"rezervari@hotelphoenix.ro","url":"http://www.hotelphoenix.ro","countryIso2":"RO","countryName":"Romania","hotelRating":"3","latitude":"46.1993","longitude":"21.2945","state_id":1368,"state_name":"Southern District","country_id":106},{"active":false,"Giataid":"133048","cityId":57437,"cityName":"Arad","hotelId":133048,"hotelName":"President","address":"Calea Timisorii 164,310229 Arad,Romania","phones":"+40257278804","fax":"+40257278818","email":"president@rdslink.ro","url":"http://www.hotel-president.ro/","countryIso2":"RO","countryName":"Romania","hotelRating":"3","latitude":"46.1423","longitude":"21.3205","state_id":1368,"state_name":"Southern District","country_id":106},{"active":false,"Giataid":"133050","cityId":90025,"cityName":"Bacau","hotelId":133050,"hotelName":"Decebal","address":"Strada Ionita Sandu Sturza 2,600268 Bacau,Romania","phones":"+40234570020","fax":"","email":"","url":"","countryIso2":"RO","countryName":"Romania","hotelRating":"2","latitude":"46.5658","longitude":"26.9107","state_id":4744,"state_name":"Bacau County","country_id":181},{"active":false,"Giataid":"133052","cityId":90347,"cityName":"Bucharest","hotelId":133052,"hotelName":"Colentina","address":"","phones":"","fax":"","email":"","url":"","countryIso2":"RO","countryName":"Romania","hotelRating":"2","latitude":"44.4629","longitude":"26.1361","state_id":4730,"state_name":"Bucharest","country_id":181},{"active":false,"Giataid":"133053","cityId":90347,"cityName":"Bucharest","hotelId":133053,"hotelName":"Suter Inn","address":"Aleea Suter nr. 3,040547 Bukarest,Romania","phones":"","fax":"","email":"","url":"","countryIso2":"RO","countryName":"Romania","hotelRating":"3","latitude":"44.4177","longitude":"26.0925","state_id":4730,"state_name":"Bucharest","country_id":181},{"active":false,"Giataid":"133054","cityId":90347,"cityName":"Bucharest","hotelId":133054,"hotelName":"Ibis Styles Bucharest Erbas","address":"Capitan Alexandru Serbanescu 27,014284 Bucharest,Romania","phones":"+40212326856","fax":"","email":"","url":"","countryIso2":"RO","countryName":"Romania","hotelRating":"3","latitude":"44.484","longitude":"26.0971","state_id":4730,"state_name":"Bucharest","country_id":181},{"active":false,"Giataid":"133055","cityId":90347,"cityName":"Bucharest","hotelId":133055,"hotelName":"Lebada","address":"Biruintei boulevard 3,Bucharest,Romania","phones":"","fax":"","email":"","url":"","countryIso2":"RO","countryName":"Romania","hotelRating":"4","latitude":"44.4713","longitude":"26.0532","state_id":4730,"state_name":"Bucharest","country_id":181},{"active":false,"Giataid":"133056","cityId":90347,"cityName":"Bucharest","hotelId":133056,"hotelName":"Filaret Motel","address":"Gara Filaret strada,Bucharest 040555,Romania","phones":"","fax":"","email":"","url":"","countryIso2":"RO","countryName":"Romania","hotelRating":"2","latitude":"44.4159","longitude":"26.0922","state_id":4730,"state_name":"Bucharest","country_id":181},{"active":false,"Giataid":"133058","cityId":90347,"cityName":"Bucharest","hotelId":133058,"hotelName":"Kiwi","address":"","phones":"","fax":"","email":"","url":"","countryIso2":"RO","countryName":"Romania","hotelRating":"3","latitude":"44.4331","longitude":"26.0997","state_id":4730,"state_name":"Bucharest","country_id":181},{"active":false,"Giataid":"133061","cityId":null,"cityName":"Cluj Napoca","hotelId":133061,"hotelName":"Paradis","address":"Strada Ciocarliei 47,400619 Cluj-Napoca,Romania","phones":"+40264413940","fax":"","email":"","url":"","countryIso2":"RO","countryName":"Romania","hotelRating":"4","latitude":"46.7803","longitude":"23.6132","state_id":null,"state_name":null,"country_id":null},{"active":false,"Giataid":"133062","cityId":null,"cityName":"Cluj Napoca","hotelId":133062,"hotelName":"Victoria","address":"","phones":"","fax":"","email":"","url":"","countryIso2":"RO","countryName":"Romania","hotelRating":"3","latitude":"46.7746","longitude":"23.6024","state_id":null,"state_name":null,"country_id":null},{"active":false,"Giataid":"133063","cityId":null,"cityName":"Cluj Napoca","hotelId":133063,"hotelName":"Capitolina","address":"Strada Victor Babes 35,400012 Cluj-Napoca,Romania","phones":"+404264450490","fax":"","email":"","url":"","countryIso2":"RO","countryName":"Romania","hotelRating":"3","latitude":"46.7652","longitude":"23.5856","state_id":null,"state_name":null,"country_id":null},{"active":false,"Giataid":"133064","cityId":null,"cityName":"Constanta","hotelId":133064,"hotelName":"Hotel Millenium","address":"Bulevardul Mamaia 135-137,900590 Constanta,Romania","phones":"+40241607317","fax":"","email":"","url":"","countryIso2":"RO","countryName":"Romania","hotelRating":"3","latitude":"44.1897","longitude":"28.6507","state_id":null,"state_name":null,"country_id":null},{"active":false,"Giataid":"128799","cityId":null,"cityName":"Miercurea Ciuc","hotelId":133067,"hotelName":"Hunguest Fenyo","address":"Strada Nicolae Balcescu 11,530132 Miercurea Ciuc,Romania","phones":"+40266311493","fax":"+40266372181","email":"reserve@hunguest-fenyo.ro","url":"http://www.hunguest-fenyo.ro","countryIso2":"RO","countryName":"Romania","hotelRating":"3","latitude":"46.3587","longitude":"25.8008","state_id":null,"state_name":null,"country_id":null},{"active":false,"Giataid":"133068","cityId":95445,"cityName":"Oradea","hotelId":133068,"hotelName":"Atrium","address":"Strada Republicii nr. 38,Oradea,Bihor,Romania","phones":"+402594144421","fax":"","email":"management@hotelatrium.ro","url":"http://www.hotelatrium.ro","countryIso2":"RO","countryName":"Romania","hotelRating":"3","latitude":"47.0637","longitude":"21.9374","state_id":4723,"state_name":"Bihor County","country_id":181},{"active":false,"Giataid":"133069","cityId":95445,"cityName":"Oradea","hotelId":133069,"hotelName":"Eden","address":"Strada Ioan Cantacuzino 4,420000 Oradea,Romania","phones":"","fax":"","email":"","url":"","countryIso2":"RO","countryName":"Romania","hotelRating":"3","latitude":"47.0714","longitude":"21.9294","state_id":4723,"state_name":"Bihor County","country_id":181},{"active":false,"Giataid":"133070","cityId":95445,"cityName":"Oradea","hotelId":133070,"hotelName":"Vulturul Negru","address":"1st Independentei Street,Romania","phones":"+40259450000","fax":"+40259450045","email":"oradea@thhotels.ro","url":"http://www.thhotels.ro/hotel-vulturul-negru/","countryIso2":"RO","countryName":"Romania","hotelRating":"4","latitude":"47.0549","longitude":"21.9296","state_id":4723,"state_name":"Bihor County","country_id":181},{"active":false,"Giataid":"133071","cityId":95445,"cityName":"Oradea","hotelId":133071,"hotelName":"Elite Boutique & Spa","address":"Parc Bratianu Nr.24-26-28,410051 Oradea,Romania","phones":"","fax":"","email":"","url":"","countryIso2":"RO","countryName":"Romania","hotelRating":"4","latitude":"47.0568","longitude":"21.9453","state_id":4723,"state_name":"Bihor County","country_id":181},{"active":false,"Giataid":"133072","cityId":96332,"cityName":"Sibiu","hotelId":133072,"hotelName":"Hilton Sibiu","address":"1st Padurea Dumbrava Street,Sibiu 550399,Romania","phones":"+40269505600","fax":"+40269505639","email":"info.sibiu@hilton.com","url":"http://www.palaceresort.ro","countryIso2":"RO","countryName":"Romania","hotelRating":"5","latitude":"45.7605","longitude":"24.1269","state_id":4755,"state_name":"Sibiu County","country_id":181},{"active":false,"Giataid":"133074","cityId":96332,"cityName":"Sibiu","hotelId":133074,"hotelName":"Bulevard","address":"Pia?a Unirii 10,Sibiu 550173,Romania","phones":"","fax":"","email":"","url":"","countryIso2":"RO","countryName":"Romania","hotelRating":"2","latitude":"45.7917","longitude":"24.148","state_id":4755,"state_name":"Sibiu County","country_id":181},{"active":false,"Giataid":"133075","cityId":96488,"cityName":"Suceava","hotelId":133075,"hotelName":"Hotel Bucovina","address":"Bulevardul Ana Ipatescu 5,Suceava 720042,Romania","phones":"+404230520250","fax":"","email":"","url":"","countryIso2":"RO","countryName":"Romania","hotelRating":"2","latitude":"47.6412","longitude":"26.2594","state_id":4720,"state_name":"Suceava County","country_id":181},{"active":false,"Giataid":"133076","cityId":96488,"cityName":"Suceava","hotelId":133076,"hotelName":"Gloria","address":"Str. Vasile Bumbac nr. 4-8,Suceava 720071,Romania","phones":"+40230521209","fax":"+40230522228","email":"office@hotelgloria.com.ro","url":"http://www.hotelgloria.ro","countryIso2":"RO","countryName":"Romania","hotelRating":"3","latitude":"47.6437","longitude":"26.2582","state_id":4720,"state_name":"Suceava County","country_id":181},{"active":false,"Giataid":"133077","cityId":106102,"cityName":"Timisoara","hotelId":133077,"hotelName":"Royal Plaza","address":"Strada Lorena 1,300127 Timisoara,Romania","phones":"","fax":"","email":"","url":"","countryIso2":"RO","countryName":"Romania","hotelRating":"3","latitude":"45.7649","longitude":"21.2471","state_id":4748,"state_name":"Timis County","country_id":181},{"active":false,"Giataid":"133078","cityId":106102,"cityName":"Timisoara","hotelId":133078,"hotelName":"Hotel Perla corp B","address":"Strada Protopop George Dragomir 7,Timisoara,Romania","phones":"+40256203100","fax":"","email":"","url":"","countryIso2":"RO","countryName":"Romania","hotelRating":"3","latitude":"45.7425","longitude":"21.2284","state_id":4748,"state_name":"Timis County","country_id":181},{"active":false,"Giataid":"133079","cityId":106102,"cityName":"Timisoara","hotelId":133079,"hotelName":"Hotel Perla corp A","address":"Strada Protopop George Dragomir 9,Timisoara,Romania","phones":"+40256203100","fax":"","email":"","url":"","countryIso2":"RO","countryName":"Romania","hotelRating":"4","latitude":"45.7427","longitude":"21.2283","state_id":4748,"state_name":"Timis County","country_id":181},{"active":false,"Giataid":"133080","cityId":106102,"cityName":"Timisoara","hotelId":133080,"hotelName":"Hotel Perla D'Oro","address":"Strada Evlia Celebi 14,Timisoara,Romania","phones":"+40256228670","fax":"","email":"","url":"","countryIso2":"RO","countryName":"Romania","hotelRating":"3","latitude":"45.7429","longitude":"21.2289","state_id":4748,"state_name":"Timis County","country_id":181},{"active":false,"Giataid":"133081","cityId":106102,"cityName":"Timisoara","hotelId":133081,"hotelName":"Euro","address":"Str. Mehadia nr. 5,300558 Timisoara,Romania","phones":"+40256201251","fax":"+40256221444","email":"eurohotel@rdstm.ro","url":"http://www.eurohotelsite.com/","countryIso2":"RO","countryName":"Romania","hotelRating":"3","latitude":"45.751","longitude":"21.2446","state_id":4748,"state_name":"Timis County","country_id":181},{"active":false,"Giataid":"133082","cityId":null,"cityName":"T?rgu Mures","hotelId":133082,"hotelName":"Tineretului","address":"Strada Nicolae Grigorescu 19,217441 Tirgu Mures,Romania","phones":"","fax":"","email":"","url":"","countryIso2":"RO","countryName":"Romania","hotelRating":"2","latitude":"46.5524","longitude":"24.5745","state_id":null,"state_name":null,"country_id":null},{"active":false,"Giataid":"133083","cityId":106173,"cityName":"Tulcea","hotelId":133083,"hotelName":"Rex","address":"Str. Pacii nr. 17A,Tulcea 820048,Romania","phones":"+40240515658","fax":"+40240511216","email":"reclamatii.tulcea@opc.ro","url":"http://www.hotelrex.ro/","countryIso2":"RO","countryName":"Romania","hotelRating":"4","latitude":"45.1716","longitude":"28.8076","state_id":4727,"state_name":"Tulcea County","country_id":181},{"active":false,"Giataid":"134180","cityId":90281,"cityName":"Brasov","hotelId":134180,"hotelName":"Ambient Pensiune","address":"Strada Iuliu Maniu 62,500091 Bra?ov,Romania","phones":"+40268547171","fax":"+40368405523","email":"office@pensiuneambient.ro","url":"http://www.pensiuneambient.ro","countryIso2":"RO","countryName":"Romania","hotelRating":"3","latitude":"45.6502","longitude":"25.6052","state_id":4759,"state_name":"Brasov County","country_id":181},{"active":false,"Giataid":"135053","cityId":90347,"cityName":"Bucharest","hotelId":135053,"hotelName":"Marshal","address":"2 Dr. Emanoil Bacaloglu Str.,Sector 2,Bucharest,Romania","phones":"+40213140880","fax":"+40213140888","email":"office@hotelmarshal.ro","url":"http://www.hotelmarshal.ro/index_en.html","countryIso2":"RO","countryName":"Romania","hotelRating":"3","latitude":"44.4388","longitude":"26.1058","state_id":4730,"state_name":"Bucharest","country_id":181},{"active":false,"Giataid":"135054","cityId":94630,"cityName":"Iasi","hotelId":135054,"hotelName":"Ramada City Center","address":"Grigore Ureche 27,170044 Iasi,Romania","phones":"+40232256070","fax":"+40232215037","email":"reservation@ramadaiasi.ro","url":"http://www.ramadaiasi.ro/en/index_en.html","countryIso2":"RO","countryName":"Romania","hotelRating":"3","latitude":"47.1591","longitude":"27.5891","state_id":4735,"state_name":"Iasi County","country_id":181},{"active":false,"Giataid":"135056","cityId":90029,"cityName":"Baia Mare","hotelId":135056,"hotelName":"Hotel Mara","address":"Bulevardul Unirii 11,430271 Baia Mare,Jude? Maramure?,Romania","phones":"+40262226660","fax":"","email":"office@hotelmara.ro","url":"http://www.hotelmara.ro/index.php","countryIso2":"RO","countryName":"Romania","hotelRating":"3","latitude":"47.6512","longitude":"23.5703","state_id":4760,"state_name":"Maramures County","country_id":181},{"active":false,"Giataid":"135064","cityId":94922,"cityName":"Mangalia","hotelId":135064,"hotelName":"New Belvedere","address":"Strada Teilor 6,951286 Mangalia,Judetul Constanta,Romania","phones":"","fax":"","email":"rezervari@hotelnewbelvedere.ro","url":"http://hotelnewbelvedere.ro/","countryIso2":"RO","countryName":"Romania","hotelRating":"4","latitude":"43.8107","longitude":"28.5847","state_id":4737,"state_name":"Constanța County","country_id":181},{"active":false,"Giataid":"136486","cityId":null,"cityName":"C?mpulung Moldovenesc","hotelId":136486,"hotelName":"Manoir Mignon","address":"Calea Transilvaniei 162B,Campulung Moldovenesc 725100,Romania","phones":"+40722452414","fax":"+40230314694","email":"sales@manoirmignon.ro","url":"http://www.manoirmignon.ro","countryIso2":"RO","countryName":"Romania","hotelRating":"4","latitude":"47.5362","longitude":"25.5219","state_id":null,"state_name":null,"country_id":null},{"active":false,"Giataid":"136737","cityId":90347,"cityName":"Bucharest","hotelId":136737,"hotelName":"Trianon","address":"9 Cobalcescu Grigore Street,District 1,010191 Bucharest,Romania","phones":"+40213114927","fax":"+40213162281","email":"office@hoteltrianon.ro","url":"http://www.hoteltrianon.ro","countryIso2":"RO","countryName":"Romania","hotelRating":"3","latitude":"44.4374","longitude":"26.0871","state_id":4730,"state_name":"Bucharest","country_id":181},{"active":false,"Giataid":"137017","cityId":null,"cityName":"B?rlad","hotelId":137017,"hotelName":"Moldova","address":"Street Decembrie 1,Barlad,Romania","phones":"+40235414990","fax":"+40235414990","email":"hotelmoldova@yahoo.com","url":"http://www.hotel-moldova.ro","countryIso2":"RO","countryName":"Romania","hotelRating":"2","latitude":"46.2274","longitude":"27.6709","state_id":null,"state_name":null,"country_id":null},{"active":false,"Giataid":"137083","cityId":null,"cityName":"Galati","hotelId":137083,"hotelName":"Galati","address":"Strada Domneasca 12,Galati,Romania","phones":"+40236460040","fax":"+40236418854","email":"office@hotelgalati.ro","url":"http://www.hotelgalati.ro/","countryIso2":"RO","countryName":"Romania","hotelRating":"3","latitude":"45.4337","longitude":"28.0557","state_id":null,"state_name":null,"country_id":null},{"active":false,"Giataid":"137156","cityId":146586,"cityName":"Sighisoara","hotelId":137156,"hotelName":"Rex","address":"STR. DUMBRAVEI 18 ","phones":"","fax":"","email":"","url":"","countryIso2":"RO","countryName":"Romania","hotelRating":"3","latitude":"46.2254","longitude":"24.8124","state_id":4915,"state_name":"Mures County","country_id":181},{"active":false,"Giataid":"137175","cityId":null,"cityName":"Bistrita","hotelId":137175,"hotelName":"Hotel Bistrita","address":"Pia?a Petru Rare? 2,Centrul Istoric,420036 Bistri?a,Jude? Bistri?a-Nasaud,Romania","phones":"+40263231154","fax":"+40263231826","email":"hotel@hotel-bistrita.ro","url":"http://www.hotel-bistrita.ro","countryIso2":"RO","countryName":"Romania","hotelRating":"3","latitude":"47.1378","longitude":"24.4998","state_id":null,"state_name":null,"country_id":null},{"active":false,"Giataid":"137263","cityId":96350,"cityName":"Sinaia","hotelId":137263,"hotelName":"Anda","address":"Bulevardul Carol I 30,Judet Prahova,Sinaia,Romania","phones":"+40244306020","fax":"","email":"","url":"","countryIso2":"RO","countryName":"Romania","hotelRating":"4","latitude":"45.3487","longitude":"25.5479","state_id":4729,"state_name":"Prahova County","country_id":181},{"active":false,"Giataid":"137413","cityId":96350,"cityName":"Sinaia","hotelId":137413,"hotelName":"Hotel Paltinis","address":"","phones":"","fax":"","email":"","url":"","countryIso2":"RO","countryName":"Romania","hotelRating":"2","latitude":"45.3423","longitude":"25.5506","state_id":4729,"state_name":"Prahova County","country_id":181},{"active":false,"Giataid":"137428","cityId":null,"cityName":"C?mpulung Moldovenesc","hotelId":137428,"hotelName":"Eden","address":"Calea Bucovinei nr. 148,725100 C?mpulung Moldovenesc,Suceava,Romania","phones":"+40230314733","fax":"+40230314731","email":"office@hotel-eden.ro","url":"http://www.hotel-eden.ro","countryIso2":"RO","countryName":"Romania","hotelRating":"3","latitude":"47.5224","longitude":"25.582","state_id":null,"state_name":null,"country_id":null},{"active":false,"Giataid":"137442","cityId":null,"cityName":"Bistrita","hotelId":137442,"hotelName":"Diana","address":"Calea Moldovei 80,420096 Bistrita,Romania","phones":"+40263231960","fax":"+40263231961","email":"dianahotel@dianahotel.ro","url":"http://www.dianahotel.ro/","countryIso2":"RO","countryName":"Romania","hotelRating":"3","latitude":"47.1514","longitude":"24.5185","state_id":null,"state_name":null,"country_id":null},{"active":false,"Giataid":"137523","cityId":94630,"cityName":"Iasi","hotelId":137523,"hotelName":"Hotel Unirea","address":"Strada Pia?a Unirii 5,Centrul Istoric,700056 Ia?i,Romania","phones":"+40232205000","fax":"","email":"","url":"http://www.hotelunirea.ro","countryIso2":"RO","countryName":"Romania","hotelRating":"3","latitude":"47.1666","longitude":"27.5804","state_id":4735,"state_name":"Iasi County","country_id":181},{"active":false,"Giataid":"137531","cityId":89910,"cityName":"Alba Iulia","hotelId":137531,"hotelName":"Ma","address":"Strada Ariesului 51,510001 Alba Iulia,Romania","phones":"+40258831502","fax":"","email":"","url":"http://www.mahotels.ro/pensiune/index.html","countryIso2":"RO","countryName":"Romania","hotelRating":"3","latitude":"46.0813","longitude":"23.5822","state_id":4724,"state_name":"Alba","country_id":181},{"active":false,"Giataid":"137579","cityId":null,"cityName":"T?rgoviste","hotelId":137579,"hotelName":"Dambovita","address":"B-dul Libertatii nr.1,Tragoviste,Romania","phones":"+40245213370","fax":"+40245213374","email":"office@hoteldambovita.ro","url":"http://www.hoteldambovita.ro","countryIso2":"RO","countryName":"Romania","hotelRating":"3","latitude":"44.9266","longitude":"25.4594","state_id":null,"state_name":null,"country_id":null},{"active":false,"Giataid":"137580","cityId":93928,"cityName":"Deva","hotelId":137580,"hotelName":"Deva","address":"Str. 22 Decembrie nr. 110,Deva,Romania","phones":"+40254225920","fax":"+40254226183","email":"deva.deva@unita-turism.ro","url":"http://www.unita-turism.ro/ro/hotel/deva/deva.html","countryIso2":"RO","countryName":"Romania","hotelRating":"3","latitude":"45.8747","longitude":"22.9068","state_id":4721,"state_name":"Hunedoara County","country_id":181},{"active":false,"Giataid":"137581","cityId":94193,"cityName":"Focsani","hotelId":137581,"hotelName":"Vrancea","address":"Strada Dimitrie Cantemir nr. 25,Focsani,Romania","phones":"+40237614700","fax":"+40237613720","email":"","url":"http://www.hotel-vrancea.ro/","countryIso2":"RO","countryName":"Romania","hotelRating":"2","latitude":"45.6971","longitude":"27.1879","state_id":4758,"state_name":"Vrancea County","country_id":181},{"active":false,"Giataid":"137582","cityId":94578,"cityName":"Hunedoara","hotelId":137582,"hotelName":"Hotel Rusca","address":"Bulevardul Dacia 10,Centrul Orasului,331086 Hunedoara,Romania","phones":"+40254717575","fax":"","email":"","url":"","countryIso2":"RO","countryName":"Romania","hotelRating":"3","latitude":"45.7578","longitude":"22.9089","state_id":4721,"state_name":"Hunedoara County","country_id":181},{"active":false,"Giataid":"137584","cityId":90435,"cityName":"Buzau","hotelId":137584,"hotelName":"Crang","address":"Spiru Haret 6,Buzau 120241,Romania","phones":"+40238710540","fax":"+40238712965","email":"","url":"http://www.hotelcrang.ro/","countryIso2":"RO","countryName":"Romania","hotelRating":"2","latitude":"45.1493","longitude":"26.8105","state_id":4756,"state_name":"Buzau County","country_id":181},{"active":false,"Giataid":"137617","cityId":null,"cityName":"C?mpulung Moldovenesc","hotelId":137617,"hotelName":"Zimbru","address":"Calea Bucovinei nr. 1-3,725100 C?mpulung Moldovenesc,Romania","phones":"+40230314357","fax":"+40230314358","email":"rezervari@rarau-turism.ro","url":"http://www.rarau-turism.ro/","countryIso2":"RO","countryName":"Romania","hotelRating":"3","latitude":"47.5298","longitude":"25.558","state_id":null,"state_name":null,"country_id":null},{"active":false,"Giataid":"137618","cityId":93704,"cityName":"Craiova","hotelId":137618,"hotelName":"Hotel Emma West","address":"Strada Calea Severinului 3B,Craiova,Dolj,Romania","phones":"+40251480150","fax":"+40251480151","email":"receptie@hotel-emmawest.ro","url":"http://www.hotel-emmawest.ro/","countryIso2":"RO","countryName":"Romania","hotelRating":"4","latitude":"44.3284","longitude":"23.7763","state_id":4742,"state_name":"Dolj County","country_id":181},{"active":false,"Giataid":"137630","cityId":93704,"cityName":"Craiova","hotelId":137630,"hotelName":"Bavaria","address":"Str. Caracal, nr. 3,Dolj,Craiova 200347,Romania","phones":"+40351461761","fax":"","email":"hotel-bavaria@yahoo.com","url":"http://www.hotel-bavaria.ro/","countryIso2":"RO","countryName":"Romania","hotelRating":"4","latitude":"44.3115","longitude":"23.8024","state_id":4742,"state_name":"Dolj County","country_id":181},{"active":false,"Giataid":"137719","cityId":null,"cityName":"R?mnicu V?lcea","hotelId":137719,"hotelName":"Alutus","address":"Bulevardul Tudor Vladimirescu,Strada Praporgescu 10,Ramnicu Valcea,Romania","phones":"+40350805590","fax":"","email":"","url":"","countryIso2":"RO","countryName":"Romania","hotelRating":"3","latitude":"45.1044","longitude":"24.3646","state_id":null,"state_name":null,"country_id":null},{"active":false,"Giataid":"137829","cityId":null,"cityName":"Piatra F?nt?nele","hotelId":137829,"hotelName":"Castel Dracula","address":"DN17 Bistrita-Nasaud,427363 Piatra Fantanele,Romania","phones":"+40263264010","fax":"+40263264040","email":"rezervare@hotelcasteldracula.ro","url":"http://www.hotelcasteldracula.ro/","countryIso2":"RO","countryName":"Romania","hotelRating":"3","latitude":"47.2352","longitude":"25.0034","state_id":null,"state_name":null,"country_id":null},{"active":false,"Giataid":"137833","cityId":93928,"cityName":"Deva","hotelId":137833,"hotelName":"Hotel Sarmis Deva","address":"Strada Maresal Averescu Nr.7,330011 Deva (dt: Diemrich; ung: D?va),Romania,Hunedoara,Romania","phones":"+40254214731","fax":"+40254214730","email":"sarmis.deva@unita-turism.ro","url":"http://www.unita-turism.ro/en/hotel/deva/sarmis.html","countryIso2":"RO","countryName":"Romania","hotelRating":"3","latitude":"45.8781","longitude":"22.9044","state_id":4721,"state_name":"Hunedoara County","country_id":181},{"active":false,"Giataid":"137834","cityId":null,"cityName":"Galati","hotelId":137834,"hotelName":"Vega","address":"Bd. Marii Uniri nr.107,800329 Galat,Romania","phones":"+40236306080","fax":"+40236306081","email":"office@vegahotel.ro","url":"http://www.vegahotel.ro","countryIso2":"RO","countryName":"Romania","hotelRating":"3","latitude":"45.4299","longitude":"28.056","state_id":null,"state_name":null,"country_id":null},{"active":false,"Giataid":"137845","cityId":null,"cityName":"Targu Neamt","hotelId":137845,"hotelName":"Hotel Victoria","address":"Mihail Kogalniceanu 6-8,615200 Targu Neamt,Romania","phones":"+40233790270","fax":"+40233790843","email":"office@hotel-doina.ro","url":"http://www.hotel-doina.ro/","countryIso2":"RO","countryName":"Romania","hotelRating":"3","latitude":"47.2064","longitude":"26.3666","state_id":null,"state_name":null,"country_id":null},{"active":false,"Giataid":"137868","cityId":146586,"cityName":"Sighisoara","hotelId":137868,"hotelName":"Hotel Europa Kokeltal","address":"Soseaua Nationala 78,547025 Albesti,Jude?ul Mures,Romania","phones":"","fax":"","email":"","url":"","countryIso2":"RO","countryName":"Romania","hotelRating":"3","latitude":"46.2381","longitude":"24.889","state_id":4915,"state_name":"Mures County","country_id":181},{"active":false,"Giataid":"138043","cityId":96982,"cityName":"Zalau","hotelId":138043,"hotelName":"Best Western Meses Hotel","address":"Piata 1 Decembrie 1918 11/A,450041 Zalau,Romania","phones":"+40260661050","fax":"","email":"","url":"","countryIso2":"RO","countryName":"Romania","hotelRating":"3","latitude":"47.1803","longitude":"23.0513","state_id":4741,"state_name":"Salaj County","country_id":181},{"active":false,"Giataid":"138044","cityId":90435,"cityName":"Buzau","hotelId":138044,"hotelName":"Hotel Pietroasa","address":"Piata Daciei 1,120360 Buzau,Romania","phones":"+40720999437","fax":"","email":"","url":"","countryIso2":"RO","countryName":"Romania","hotelRating":"3","latitude":"45.1524","longitude":"26.8215","state_id":4756,"state_name":"Buzau County","country_id":181},{"active":false,"Giataid":"138045","cityId":96254,"cityName":"Satu Mare","hotelId":138045,"hotelName":"Aurora","address":"Piata Libertatii nr. 11,3900 Satu Mare,Romania","phones":"+40261714946","fax":"+40261714947","email":"hotel-aurora@aurora-sm.ro","url":"http://www.aurora-sm.ro/","countryIso2":"RO","countryName":"Romania","hotelRating":"3","latitude":"47.7927","longitude":"22.8756","state_id":4739,"state_name":"Arad County","country_id":181},{"active":false,"Giataid":"138046","cityId":null,"cityName":"Piatra Neamt","hotelId":138046,"hotelName":"Central Plaza Hotel","address":"Pia?a Petrodava 1-3,Centrul Ora?ului,610033 Piatra Neam?,Romania","phones":"+40233216230","fax":"+40233214532","email":"office@hotelcentral.ro","url":"http://www.hotelcentral.ro/ro_hotel_central.php","countryIso2":"RO","countryName":"Romania","hotelRating":"4","latitude":"46.9299","longitude":"26.3629","state_id":null,"state_name":null,"country_id":null},{"active":false,"Giataid":"138047","cityId":95410,"cityName":"Odorheiu Secuiesc","hotelId":138047,"hotelName":"Tarnava","address":"Varoshaza Square 16,535600 Odorheiu Secuiesc,Romania","phones":"","fax":"","email":"","url":"","countryIso2":"RO","countryName":"Romania","hotelRating":"3","latitude":"46.3123","longitude":"25.2989","state_id":4749,"state_name":"Harghita County","country_id":181},{"active":false,"Giataid":"138048","cityId":null,"cityName":"Piatra Neamt","hotelId":138048,"hotelName":"Grand Hotel Ceahlau","address":"Strada ?tefan cel Mare 3,Piatra Neam?,Romania","phones":"+40233219990","fax":"+40233215540","email":"office@hotelceahlau.ro","url":"http://www.hotelceahlau.ro/","countryIso2":"RO","countryName":"Romania","hotelRating":"3","latitude":"46.9323","longitude":"26.3708","state_id":null,"state_name":null,"country_id":null},{"active":false,"Giataid":"138115","cityId":146586,"cityName":"Sighisoara","hotelId":138115,"hotelName":"Sighisoara","address":"Strada Scolii nr. 4-6,545400 Sighisoara,Romania","phones":"+40265771000","fax":"+40265777788","email":"rezervare@sighisoarahotels.ro","url":"http://www.sighisoarahotels.ro/ende/sighisoara_hotels_de.html","countryIso2":"RO","countryName":"Romania","hotelRating":"3","latitude":"46.2194","longitude":"24.7917","state_id":4915,"state_name":"Mures County","country_id":181},{"active":false,"Giataid":"138141","cityId":94943,"cityName":"Medias","hotelId":138141,"hotelName":"Central","address":"Strada Eminescu Mihai 4,Medias,Romania","phones":"","fax":"","email":"","url":"","countryIso2":"RO","countryName":"Romania","hotelRating":"2","latitude":"46.1637","longitude":"24.3479","state_id":4755,"state_name":"Sibiu County","country_id":181},{"active":false,"Giataid":"138143","cityId":94630,"cityName":"Iasi","hotelId":138143,"hotelName":"Europa","address":"Strada Anastasie Panu 26,Iasi,Romania","phones":"+40232242000","fax":"+40232242001","email":"contact@hoteleuropa.ro","url":"http://www.hoteleuropa.ro","countryIso2":"RO","countryName":"Romania","hotelRating":"4","latitude":"47.1618","longitude":"27.594","state_id":4735,"state_name":"Iasi County","country_id":181},{"active":false,"Giataid":"138144","cityId":93704,"cityName":"Craiova","hotelId":138144,"hotelName":"Parc","address":"Strada Bibescu nr. 12,Craiova,Romania","phones":"+40251417257","fax":"+40251418623","email":"office@hotel-parc-craiova.ro","url":"http://www.hotel-parc-craiova.ro/","countryIso2":"RO","countryName":"Romania","hotelRating":"3","latitude":"44.3204","longitude":"23.7896","state_id":4742,"state_name":"Dolj County","country_id":181},{"active":false,"Giataid":"138145","cityId":null,"cityName":"Galati","hotelId":138145,"hotelName":"Hotel Danube Stars","address":"Street Domneasca 13,800015 Galati,Romania","phones":"+40236418041","fax":"+40236461050","email":"hoteldunarea@galtour.ro","url":"http://www.galtour-dunarea.ro/","countryIso2":"RO","countryName":"Romania","hotelRating":"3","latitude":"45.4341","longitude":"28.0546","state_id":null,"state_name":null,"country_id":null},{"active":false,"Giataid":"138149","cityId":95803,"cityName":"Pitesti","hotelId":138149,"hotelName":"Alcadibo Center","address":"Str. Pasajul Scolii 70,Pitesti,Romania","phones":"+40248211300","fax":"+40248211376","email":"","url":"","countryIso2":"RO","countryName":"Romania","hotelRating":"3","latitude":"44.8578","longitude":"24.8735","state_id":4722,"state_name":"Arges","country_id":181},{"active":false,"Giataid":"138151","cityId":null,"cityName":"Galati","hotelId":138151,"hotelName":"Galmondo","address":"str. Gheorghe Asachi nr. 1,Galati,Romania","phones":"+40236322100","fax":"+40236401013","email":"office@galmondo.ro","url":"http://www.galmondo.ro/","countryIso2":"RO","countryName":"Romania","hotelRating":"4","latitude":"45.4303","longitude":"28.0242","state_id":null,"state_name":null,"country_id":null},{"active":false,"Giataid":"138153","cityId":89910,"cityName":"Alba Iulia","hotelId":138153,"hotelName":"CETATE","address":"Strada Unirii Nr. 3,Alba Iulia,Judet Alba,Romania","phones":"","fax":"","email":"","url":"","countryIso2":"RO","countryName":"Romania","hotelRating":"2","latitude":"46.0705","longitude":"23.5658","state_id":4724,"state_name":"Alba","country_id":181},{"active":false,"Giataid":"138155","cityId":90248,"cityName":"Botosani","hotelId":138155,"hotelName":"Rapsodia","address":"Strada Cuza Voda 4,717113 Botosani,Romania","phones":"+40231511911","fax":"+40231511911","email":"reservation@hotelrapsodia.ro","url":"http://www.hotelrapsodia.ro","countryIso2":"RO","countryName":"Romania","hotelRating":"3","latitude":"47.7454","longitude":"26.6617","state_id":4740,"state_name":"Botosani County","country_id":181},{"active":false,"Giataid":"138159","cityId":94587,"cityName":"Husi","hotelId":138159,"hotelName":"Cantemir","address":"Strada General Teleman 3,Husi,Romania","phones":"","fax":"","email":"","url":"","countryIso2":"RO","countryName":"Romania","hotelRating":"2","latitude":"46.673","longitude":"28.0602","state_id":4752,"state_name":"Vaslui County","country_id":181},{"active":false,"Giataid":"138161","cityId":null,"cityName":"Sucevita","hotelId":138161,"hotelName":"Popas Turistic Bucovina","address":"Strada Movilestilor 305,727510 Sucevita,Suceava,Romania","phones":"","fax":"","email":"","url":"","countryIso2":"RO","countryName":"Romania","hotelRating":"4","latitude":"47.7604","longitude":"25.6737","state_id":null,"state_name":null,"country_id":null},{"active":false,"Giataid":"138386","cityId":67294,"cityName":"Calarasi","hotelId":138386,"hotelName":"Calarasi","address":"Strada 1. Decembrie 1918 nr. 2,Calarasi,Romania","phones":"+40242318996","fax":"+40242315858","email":"rezervari@hotelcalarasi.ro","url":"http://www.hotelcalarasi.ro","countryIso2":"RO","countryName":"Romania","hotelRating":"2","latitude":"44.1905","longitude":"27.3331","state_id":4366,"state_name":"Calarasi District","country_id":144},{"active":false,"Giataid":"138391","cityId":95803,"cityName":"Pitesti","hotelId":138391,"hotelName":"Hotel Muntenia","address":"Strada Pia?a Muntenia Nr. 1,Jude? Arge? (Kreis Arge?),Pite?ti (dt. alt: Pitesk),Walachei,Romania","phones":"+40348401289","fax":"+40248219093","email":"hotel@hotelmuntenia.ro","url":"http://www.hotelmuntenia.ro/ro/index.html","countryIso2":"RO","countryName":"Romania","hotelRating":"3","latitude":"44.8568","longitude":"24.8719","state_id":4722,"state_name":"Arges","country_id":181},{"active":false,"Giataid":"138444","cityId":96776,"cityName":"Vaslui","hotelId":138444,"hotelName":"Racova","address":"Strada Stefan cel Mare 69,Vaslui 730169,Judetul Vaslui,Romania","phones":"+40235361054","fax":"+40335401247","email":"office@racova.com","url":"http://www.racova.com/racova/racova.php","countryIso2":"RO","countryName":"Romania","hotelRating":"3","latitude":"46.6379","longitude":"27.7323","state_id":4752,"state_name":"Vaslui County","country_id":181},{"active":false,"Giataid":"138469","cityId":90029,"cityName":"Baia Mare","hotelId":138469,"hotelName":"EuroHotel Baia Mare","address":"Bulevardul Bucuresti 23,430251 Baia Mare,Romania","phones":"+40262222405","fax":"","email":"reservation@bestwesterneurohotel.ro","url":"http://www.bestwesterneurohotel.ro","countryIso2":"RO","countryName":"Romania","hotelRating":"3","latitude":"47.6531","longitude":"23.5603","state_id":4760,"state_name":"Maramures County","country_id":181},{"active":false,"Giataid":"138473","cityId":null,"cityName":"Curtea De Arges","hotelId":138473,"hotelName":"Posada Curtea de Arges","address":"Bulevardul Basarabilor 27-29,115300 Curtea de Arges,Romania","phones":"+40248721451","fax":"","email":"","url":"","countryIso2":"RO","countryName":"Romania","hotelRating":"3","latitude":"45.1522","longitude":"24.676","state_id":null,"state_name":null,"country_id":null},{"active":false,"Giataid":"138499","cityId":90334,"cityName":"Braila","hotelId":138499,"hotelName":"Traian","address":"Piata Traian 1,Braila,Romania","phones":"+40239614685","fax":"+40239612835","email":"traian.braila@unita-turism.ro","url":"http://www.unita-turism.ro/en/hotel/braila/traian.html","countryIso2":"RO","countryName":"Romania","hotelRating":"2","latitude":"45.2719","longitude":"27.9757","state_id":4736,"state_name":"Braila","country_id":181},{"active":false,"Giataid":"138507","cityId":96254,"cityName":"Satu Mare","hotelId":138507,"hotelName":"Dacia","address":"Piata Libertatii 8,Satu Mare,Romania","phones":"","fax":"","email":"","url":"","countryIso2":"RO","countryName":"Romania","hotelRating":"2","latitude":"47.7928","longitude":"22.8747","state_id":4739,"state_name":"Arad County","country_id":181},{"active":false,"Giataid":"139593","cityId":null,"cityName":"Saturn","hotelId":139593,"hotelName":"Hotel Cleopatra - Statiunea Saturn","address":"Strada Greenport,905560 Saturn,Constanta,Romania","phones":"+40241751117","fax":"+40241755559","email":"","url":"http://www.thrmareaneagra.ro/hsaturn.html","countryIso2":"RO","countryName":"Romania","hotelRating":"4","latitude":"43.8305","longitude":"28.5897","state_id":null,"state_name":null,"country_id":null},{"active":false,"Giataid":"139594","cityId":90436,"cityName":"Busteni","hotelId":139594,"hotelName":"Hotel Alexandros","address":"Bulevardul Liberta?ii,105500 Bu?teni,Jude? Prahova,Romania","phones":"+40244320138","fax":"+40244320056","email":"office@hotelalexandros.ro","url":"http://www.hotelalexandros.ro","countryIso2":"RO","countryName":"Romania","hotelRating":"3","latitude":"45.4197","longitude":"25.5401","state_id":4729,"state_name":"Prahova County","country_id":181},{"active":false,"Giataid":"139595","cityId":null,"cityName":"Poiana Brasov","hotelId":139595,"hotelName":"Rina Vista","address":"Str. Valea Sticlariei,500001 Poiana Brasov,Romania","phones":"+40268262111","fax":"+40268262176","email":"rezervari@vista.rinahotels.ro","url":"http://www.rinahotels.ro/vista/","countryIso2":"RO","countryName":"Romania","hotelRating":"3","latitude":"45.5962","longitude":"25.5491","state_id":null,"state_name":null,"country_id":null},{"active":false,"Giataid":"143185","cityId":96350,"cityName":"Sinaia","hotelId":143185,"hotelName":"Caraiman","address":"Bulevardul Carol I 4,106100 Sinaia,Judetul Prahova,Romania","phones":"+40244313551","fax":"+40244311542","email":"office@palacesinaia.ro","url":"http://palacesinaia.ro/caraiman/en","countryIso2":"RO","countryName":"Romania","hotelRating":"3","latitude":"45.353","longitude":"25.5517","state_id":4729,"state_name":"Prahova County","country_id":181},{"active":false,"Giataid":"143187","cityId":null,"cityName":"Constanta","hotelId":143187,"hotelName":"Hotel Maria","address":"2A 1 Decembrie 1918 Avenue,Constanta,Romania","phones":"+40241611711","fax":"","email":"","url":"","countryIso2":"RO","countryName":"Romania","hotelRating":"3","latitude":"44.172","longitude":"28.6371","state_id":null,"state_name":null,"country_id":null},{"active":false,"Giataid":"182523","cityId":106102,"cityName":"Timisoara","hotelId":182523,"hotelName":"Angelis","address":"Divizia 9 Cavalerie 21A,Timisoara,Romania","phones":"+40256207206","fax":"+40256207208","email":"rezervari@hotelangellis.ro","url":"http://www.hotelangellis.ro","countryIso2":"RO","countryName":"Romania","hotelRating":"4","latitude":"45.7685","longitude":"21.2359","state_id":4748,"state_name":"Timis County","country_id":181},{"active":false,"Giataid":"183711","cityId":96332,"cityName":"Sibiu","hotelId":183711,"hotelName":"Ibis Sibiu Centre","address":"Calea Dumbravii 2-4,550324 Sibiu,Romania","phones":"+40269218100","fax":"+40269215120","email":"ibis.sibiu@ibishotels.ro","url":"http://www.ibishotel.com/de/hotel-6806-ibis-sibiu/index.shtml","countryIso2":"RO","countryName":"Romania","hotelRating":"3","latitude":"45.7897","longitude":"24.1492","state_id":4755,"state_name":"Sibiu County","country_id":181},{"active":false,"Giataid":"183712","cityId":90347,"cityName":"Bucharest","hotelId":183712,"hotelName":"Caesar Palace Hotel","address":"Virgil Madgearu 27,014035 Bucharest,Romania","phones":"+40212321116","fax":"","email":"","url":"","countryIso2":"RO","countryName":"Romania","hotelRating":"5","latitude":"44.4845","longitude":"26.0892","state_id":4730,"state_name":"Bucharest","country_id":181},{"active":false,"Giataid":"183713","cityId":90347,"cityName":"Bucharest","hotelId":183713,"hotelName":"Starlight Suites Metropolis Center","address":"Metropolis Center,Str. Grigore Alexandrescu nr. 89-97,Sector 1,Bucaresti,Romania","phones":"+40212113413","fax":"+40212113413","email":"reservations.buc@starlighthotels.com","url":"http://www.starlighthotels.com/de/hotel/bukarest.html","countryIso2":"RO","countryName":"Romania","hotelRating":"4","latitude":"44.452","longitude":"26.097","state_id":4730,"state_name":"Bucharest","country_id":181},{"active":false,"Giataid":"183714","cityId":90347,"cityName":"Bucharest","hotelId":183714,"hotelName":"Rembrandt","address":"Strada Sm?rdan 11,across the street of the National Bank of Romania,Bucharest,Romania","phones":"+40213139315","fax":"+40213139316","email":"info@rembrandt.ro","url":"http://rembrandt.ro","countryIso2":"RO","countryName":"Romania","hotelRating":"3","latitude":"44.4324","longitude":"26.1001","state_id":4730,"state_name":"Bucharest","country_id":181},{"active":false,"Giataid":"185672","cityId":95942,"cityName":"Predeal","hotelId":185672,"hotelName":"Cabana Vanatorilor","address":"Strada Trei Brazi 3,Predeal,Romania","phones":"+40268455285","fax":"+40268457036","email":"rezervari@cabanavanatorilor.ro","url":"http://www.cabanavanatorilor.ro","countryIso2":"RO","countryName":"Romania","hotelRating":"3","latitude":"45.5109","longitude":"25.571","state_id":4759,"state_name":"Brasov County","country_id":181},{"active":false,"Giataid":"187766","cityId":90347,"cityName":"Bucharest","hotelId":187766,"hotelName":"Phoenicia Aparthotel","address":"","phones":"","fax":"","email":"","url":"","countryIso2":"RO","countryName":"Romania","hotelRating":"4","latitude":"44.4272","longitude":"26.1246","state_id":4730,"state_name":"Bucharest","country_id":181},{"active":false,"Giataid":"187996","cityId":90347,"cityName":"Bucharest","hotelId":187996,"hotelName":"International Bucharest ","address":"Cauzasi Street 27-25,3rd District,030802 Bucharest,Romania","phones":"+40213237261","fax":"+40314022052","email":"hotel@international-bucharest.ro","url":"http://www.international-bucharest.com/","countryIso2":"RO","countryName":"Romania","hotelRating":"4","latitude":"44.4287","longitude":"26.1124","state_id":4730,"state_name":"Bucharest","country_id":181},{"active":false,"Giataid":"202263","cityId":90281,"cityName":"Brasov","hotelId":202263,"hotelName":"City Center","address":"Strada Traian Grozavescu 4,500091 Brasov,Romania","phones":"+40268417583","fax":"+40268417589","email":"rezervari@hotelcitycenter.ro","url":"http://www.hotelcitycenter.ro","countryIso2":"RO","countryName":"Romania","hotelRating":"3","latitude":"45.6509","longitude":"25.6026","state_id":4759,"state_name":"Brasov County","country_id":181},{"active":false,"Giataid":"202264","cityId":96332,"cityName":"Sibiu","hotelId":202264,"hotelName":"Levoslav House","address":"Str. G-ral Magheru 12,550185 Sibiu,Romania","phones":"+40269216185","fax":"+40269216285","email":"office@levoslav.ro","url":"http://www.levoslav.ro","countryIso2":"RO","countryName":"Romania","hotelRating":"4","latitude":"45.7974","longitude":"24.1539","state_id":4755,"state_name":"Sibiu County","country_id":181},{"active":false,"Giataid":"232106","cityId":null,"cityName":"Baltenii de Sus (Tulcea)","hotelId":202266,"hotelName":"Hotel Wels","address":"Strada Laguna Verde  27,827132 Satul Baltenii de Sus,Jude?ul Tulcea,Romania","phones":"+40740210214","fax":"+40740716041","email":"rezervari@wels.ro","url":"http://www.wels.ro","countryIso2":"RO","countryName":"Romania","hotelRating":"4","latitude":"45.1254","longitude":"29.0001","state_id":null,"state_name":null,"country_id":null},{"active":false,"Giataid":"203007","cityId":146590,"cityName":"Sovata","hotelId":203007,"hotelName":"Danubius Health Spa Resort Sovata","address":"Trandafirilor 111,545500 Sovata,Romania","phones":"+40265570151","fax":"+40265570258","email":"sovatahotel@szovata.ro","url":"http://www.danubiushotels.com/de/unsere_hotels/rumanien/sovata/danubius_health_spa_resort_sovata","countryIso2":"RO","countryName":"Romania","hotelRating":"4","latitude":"46.6024","longitude":"25.0877","state_id":4915,"state_name":"Mures County","country_id":181},{"active":false,"Giataid":"203090","cityId":90347,"cityName":"Bucharest","hotelId":203090,"hotelName":"Capital Plaza Hotel","address":"Bulevardul Lancu de Hunedoara 54,Bucuresti,Romania","phones":"+40372080080","fax":"+40372080081","email":"guest@capitalplaza.ro","url":"http://www.capitalplaza.ro","countryIso2":"RO","countryName":"Romania","hotelRating":"4","latitude":"44.4526","longitude":"26.0963","state_id":4730,"state_name":"Bucharest","country_id":181},{"active":false,"Giataid":"203947","cityId":90347,"cityName":"Bucharest","hotelId":203947,"hotelName":"Agentia H Accommodation","address":"Stirbei Voda 2","phones":"","fax":"","email":"","url":"","countryIso2":"RO","countryName":"Romania","hotelRating":"3","latitude":"44.4408","longitude":"26.0949","state_id":4730,"state_name":"Bucharest","country_id":181},{"active":false,"Giataid":"204277","cityId":90347,"cityName":"Bucharest","hotelId":204277,"hotelName":"Alexander","address":"Bulevardul Pipera 1/VI,Bucuresti,Romania","phones":"+40215695120","fax":"","email":"","url":"","countryIso2":"RO","countryName":"Romania","hotelRating":"4","latitude":"44.4899","longitude":"26.1183","state_id":4730,"state_name":"Bucharest","country_id":181},{"active":false,"Giataid":"204610","cityId":95814,"cityName":"Ploiesti","hotelId":204610,"hotelName":"Angelo D'oro","address":"","phones":"","fax":"","email":"","url":"","countryIso2":"RO","countryName":"Romania","hotelRating":"3","latitude":"44.937","longitude":"26.0243","state_id":4729,"state_name":"Prahova County","country_id":181},{"active":false,"Giataid":"204707","cityId":94630,"cityName":"Iasi","hotelId":204707,"hotelName":"Apartament M.G. House","address":"","phones":"","fax":"","email":"","url":"","countryIso2":"RO","countryName":"Romania","hotelRating":"1","latitude":"47.1605","longitude":"27.6164","state_id":4735,"state_name":"Iasi County","country_id":181},{"active":false,"Giataid":"205173","cityId":null,"cityName":"T?rgu Mures","hotelId":205173,"hotelName":"Arena","address":"Strada Tam?s Erno 1,540037 T?rgu Mures,Romania","phones":"+40365430988","fax":"","email":"","url":"","countryIso2":"RO","countryName":"Romania","hotelRating":"4","latitude":"46.5482","longitude":"24.5508","state_id":null,"state_name":null,"country_id":null},{"active":false,"Giataid":"205203","cityId":null,"cityName":"Constanta","hotelId":205203,"hotelName":"Arion","address":"Lirei No 35 Bis","phones":"","fax":"","email":"","url":"","countryIso2":"RO","countryName":"Romania","hotelRating":"3","latitude":"44.1451","longitude":"28.6305","state_id":null,"state_name":null,"country_id":null},{"active":false,"Giataid":"205575","cityId":90347,"cityName":"Bucharest","hotelId":205575,"hotelName":"Avis","address":"Bld. Aerogarii 10,Sector 1,014054 Bukarest,Romania","phones":"+40212324478","fax":"+40318176128","email":"office@avishotel.ro","url":"http://www.avishotel.ro","countryIso2":"RO","countryName":"Romania","hotelRating":"3","latitude":"44.4941","longitude":"26.0811","state_id":4730,"state_name":"Bucharest","country_id":181},{"active":false,"Giataid":"205765","cityId":null,"cityName":"Constanta","hotelId":205765,"hotelName":"Balada Nej","address":"12 BD 1 DECEMBRIE 1918","phones":"","fax":"","email":"","url":"","countryIso2":"RO","countryName":"Romania","hotelRating":"4","latitude":"44.1794","longitude":"28.6366","state_id":null,"state_name":null,"country_id":null},{"active":false,"Giataid":"206036","cityId":94630,"cityName":"Iasi","hotelId":206036,"hotelName":"Bellaria","address":"?os. Bucium 7,700280 Iasi,Romania","phones":"+40232233870","fax":"+40332440811","email":"office@bellaria.ro","url":"http://www.bellaria.ro","countryIso2":"RO","countryName":"Romania","hotelRating":"4","latitude":"47.1326","longitude":"27.6124","state_id":4735,"state_name":"Iasi County","country_id":181},{"active":false,"Giataid":"206131","cityId":90347,"cityName":"Bucharest","hotelId":206131,"hotelName":"Berthelot","address":"Bulevardul Berthelot nr. 9,Bukarest,Romania","phones":"+40314255860","fax":"+40314255861","email":"office@hotelberthelot.ro","url":"http://www.hotelberthelot.ro","countryIso2":"RO","countryName":"Romania","hotelRating":"4","latitude":"44.4421","longitude":"26.0926","state_id":4730,"state_name":"Bucharest","country_id":181},{"active":false,"Giataid":"206140","cityId":95814,"cityName":"Ploiesti","hotelId":206140,"hotelName":"Best","address":"Bulevardul  Republicii 154,Cartier Albert,Ploie?ti,Romania","phones":"","fax":"","email":"","url":"","countryIso2":"RO","countryName":"Romania","hotelRating":"3","latitude":"44.9386","longitude":"26.0228","state_id":4729,"state_name":"Prahova County","country_id":181},{"active":false,"Giataid":"206432","cityId":146590,"cityName":"Sovata","hotelId":206432,"hotelName":"Danubius Health Spa Resort Bradet","address":"Strada Vulturului 68,545500 Sovata,Romania","phones":"+40265570506","fax":"+40265570151","email":"sovatahotel@szovata.ro","url":"http://www.danubiushotels.com/our-hotels-sovata/hotel-bradet","countryIso2":"RO","countryName":"Romania","hotelRating":"4","latitude":"46.6022","longitude":"25.0889","state_id":4915,"state_name":"Mures County","country_id":181},{"active":false,"Giataid":"206575","cityId":90347,"cityName":"Bucharest","hotelId":206575,"hotelName":"Alia Accommodation - Bucharest Serviced Apartments","address":"University Square, Romana Square, Unirii Square,City Center,Bucharest,Romania","phones":"+40745500676","fax":"","email":"","url":"","countryIso2":"RO","countryName":"Romania","hotelRating":"3","latitude":"44.4383","longitude":"26.1011","state_id":4730,"state_name":"Bucharest","country_id":181},{"active":false,"Giataid":"206641","cityId":null,"cityName":"T?rgu Mures","hotelId":206641,"hotelName":"Business Hotel","address":"Bulevardul 1 Decembrie 1918 250,Entry from Sighisoara,540471 T?rgu Mure?,Transilvania,Romania","phones":"+40265255550","fax":"","email":"","url":"","countryIso2":"RO","countryName":"Romania","hotelRating":"3","latitude":"46.5279","longitude":"24.5981","state_id":null,"state_name":null,"country_id":null},{"active":false,"Giataid":"206711","cityId":90347,"cityName":"Bucharest","hotelId":206711,"hotelName":"Calea Victoriei Residence","address":"Calea Victoriei,Sektor 1,010094 Bukarest,Romania","phones":"","fax":"","email":"","url":"","countryIso2":"RO","countryName":"Romania","hotelRating":"3","latitude":"44.4409","longitude":"26.0953","state_id":4730,"state_name":"Bucharest","country_id":181},{"active":false,"Giataid":"206815","cityId":90347,"cityName":"Bucharest","hotelId":206815,"hotelName":"Cantemir","address":"Bd. Dimitrie Cantemir 13A,sector 4,Bucuresti,Romania","phones":"+40213361233","fax":"+40213361235","email":"receptie@hotelcantemir.ro","url":"http://www.hotelcantemir.ro","countryIso2":"RO","countryName":"Romania","hotelRating":"3","latitude":"44.4205","longitude":"26.1047","state_id":4730,"state_name":"Bucharest","country_id":181},{"active":false,"Giataid":"206847","cityId":95803,"cityName":"Pitesti","hotelId":206847,"hotelName":"Cara","address":"B-dul I.C. Bratianu 1,Pitesti,Romania","phones":"+40248222299","fax":"","email":"","url":"","countryIso2":"RO","countryName":"Romania","hotelRating":"4","latitude":"44.855","longitude":"24.8788","state_id":4722,"state_name":"Arges","country_id":181},{"active":false,"Giataid":"206879","cityId":95445,"cityName":"Oradea","hotelId":206879,"hotelName":"Carnival","address":"Republicii 55A,410167 Oradea,Romania","phones":"","fax":"","email":"","url":"","countryIso2":"RO","countryName":"Romania","hotelRating":"3","latitude":"47.0672","longitude":"21.9363","state_id":4723,"state_name":"Bihor County","country_id":181},{"active":false,"Giataid":"206964","cityId":96332,"cityName":"Sibiu","hotelId":206964,"hotelName":"Casa Luxemburg","address":"Piata Mica 16,550182 Sibiu,Romania","phones":"","fax":"","email":"","url":"","countryIso2":"RO","countryName":"Romania","hotelRating":"3","latitude":"45.7981","longitude":"24.1511","state_id":4755,"state_name":"Sibiu County","country_id":181},{"active":false,"Giataid":"207299","cityId":null,"cityName":"Constanta","hotelId":207299,"hotelName":"Cherica","address":"Stefan cel Mare Street 4,900726 Constanta,Romania","phones":"+40241617174","fax":"+40241617175","email":"hotel@cherica.ro","url":"http://www.cherica.ro","countryIso2":"RO","countryName":"Romania","hotelRating":"4","latitude":"44.1811","longitude":"28.6519","state_id":null,"state_name":null,"country_id":null},{"active":false,"Giataid":"207337","cityId":90347,"cityName":"Bucharest","hotelId":207337,"hotelName":"Hotel Christina","address":"13 Ion Slatineanu Str,010601 Bucharest,Romania","phones":"+40212107303","fax":"+40212107304","email":"office@hotelchristina.ro","url":"http://www.hotelchristina.ro","countryIso2":"RO","countryName":"Romania","hotelRating":"4","latitude":"44.4507","longitude":"26.0973","state_id":4730,"state_name":"Bucharest","country_id":181},{"active":false,"Giataid":"207369","cityId":90347,"cityName":"Bucharest","hotelId":207369,"hotelName":"Citadella","address":"12 Popa Lazar st.,District 2,Bucharest,Romania","phones":"+40212525714","fax":"+40212527809","email":"rezervari@citadella.ro","url":"http://www.hotelcitadella.ro","countryIso2":"RO","countryName":"Romania","hotelRating":"2","latitude":"44.447","longitude":"26.1329","state_id":4730,"state_name":"Bucharest","country_id":181},{"active":false,"Giataid":"207426","cityId":90347,"cityName":"Bucharest","hotelId":207426,"hotelName":"City Hotel Bucharest","address":"46 Timisoara Bd.,District 6,1 minute from Plaza Romania,Bucharest,Romania","phones":"+40314254155","fax":"+40314254156","email":"rezervari@city-hotel.ro","url":"http://www.cityhotelbucuresti.ro","countryIso2":"RO","countryName":"Romania","hotelRating":"3","latitude":"44.4269","longitude":"26.023","state_id":4730,"state_name":"Bucharest","country_id":181},{"active":false,"Giataid":"207532","cityId":94454,"cityName":"Gura Humorului","hotelId":207532,"hotelName":"Pension Casa Humor","address":"Aleea Stefan Cel Mare 5B,725300 Gura Humorului,Judet Suceava,Romania","phones":"+40230233334","fax":"","email":"","url":"","countryIso2":"RO","countryName":"Romania","hotelRating":"4","latitude":"47.5485","longitude":"25.8722","state_id":4720,"state_name":"Suceava County","country_id":181},{"active":false,"Giataid":"207638","cityId":90347,"cityName":"Bucharest","hotelId":207638,"hotelName":"Complex Unid","address":"","phones":"","fax":"","email":"","url":"","countryIso2":"RO","countryName":"Romania","hotelRating":"1","latitude":"44.4449","longitude":"26.0967","state_id":4730,"state_name":"Bucharest","country_id":181},{"active":false,"Giataid":"207675","cityId":null,"cityName":"Constanta","hotelId":207675,"hotelName":"Constanta Residence Apartments","address":"Hortensiei 15,Bl O3 Sc C Et 1 Ap 45,Tomis Nord,Constanta,Romania","phones":"","fax":"","email":"","url":"","countryIso2":"RO","countryName":"Romania","hotelRating":"3","latitude":"44.2112","longitude":"28.621","state_id":null,"state_name":null,"country_id":null},{"active":false,"Giataid":"207781","cityId":93667,"cityName":"Costinesti","hotelId":207781,"hotelName":"Costinesti Royal","address":"Strada Aleea Cameliei 1,907090 Costinesti,Romania","phones":"","fax":"","email":"","url":"","countryIso2":"RO","countryName":"Romania","hotelRating":"3","latitude":"43.9409","longitude":"28.6363","state_id":4737,"state_name":"Constanța County","country_id":181},{"active":false,"Giataid":"207938","cityId":90347,"cityName":"Bucharest","hotelId":207938,"hotelName":"Dacia Rrt","address":"19 Matei Basarab Street,Sector 3,Bucharest,Romania","phones":"+40312281320","fax":"","email":"dacia@rrt.ro","url":"http://www.hoteldaciabucuresti.ro","countryIso2":"RO","countryName":"Romania","hotelRating":"4","latitude":"44.4309","longitude":"26.111","state_id":4730,"state_name":"Bucharest","country_id":181},{"active":false,"Giataid":"208240","cityId":106102,"cityName":"Timisoara","hotelId":208240,"hotelName":"Delpack","address":"Strada Glad nr 51-53,Timisoara,Romania","phones":"+40256406080","fax":"+40256406081","email":"office@hoteldelpack","url":"http://www.hotel-delpack.ro","countryIso2":"RO","countryName":"Romania","hotelRating":"4","latitude":"45.735","longitude":"21.219","state_id":4748,"state_name":"Timis County","country_id":181},{"active":false,"Giataid":"208474","cityId":106102,"cityName":"Timisoara","hotelId":208474,"hotelName":"Doria","address":"","phones":"","fax":"","email":"","url":"","countryIso2":"RO","countryName":"Romania","hotelRating":"3","latitude":"45.7628","longitude":"21.2662","state_id":4748,"state_name":"Timis County","country_id":181},{"active":false,"Giataid":"208577","cityId":90347,"cityName":"Bucharest","hotelId":208577,"hotelName":"Duke Hotel","address":"B-dul Dacia 33,Bukarest,Romania","phones":"+40213174186","fax":"","email":"","url":"","countryIso2":"RO","countryName":"Romania","hotelRating":"3","latitude":"44.4469","longitude":"26.0958","state_id":4730,"state_name":"Bucharest","country_id":181},{"active":false,"Giataid":"208655","cityId":90347,"cityName":"Bucharest","hotelId":208655,"hotelName":"Easy Rental","address":"","phones":"","fax":"","email":"","url":"","countryIso2":"RO","countryName":"Romania","hotelRating":"1","latitude":"44.4449","longitude":"26.0967","state_id":4730,"state_name":"Bucharest","country_id":181},{"active":false,"Giataid":"208675","cityId":95942,"cityName":"Predeal","hotelId":208675,"hotelName":"Edelweiss Hotel","address":"Strada Libertatii 70,Predeal 505300,Romania","phones":"","fax":"","email":"","url":"","countryIso2":"RO","countryName":"Romania","hotelRating":"1","latitude":"45.5088","longitude":"25.5883","state_id":4759,"state_name":"Brasov County","country_id":181},{"active":false,"Giataid":"209012","cityId":93704,"cityName":"Craiova","hotelId":209012,"hotelName":"Europeca","address":"Str. Pietatii nr. 9-11-13,Craiov,jud. Dolj,Romania","phones":"","fax":"+40251419586","email":"hotel@hoteleuropeca.ro","url":"http://www.hoteleuropeca.ro","countryIso2":"RO","countryName":"Romania","hotelRating":"4","latitude":"44.3253","longitude":"23.8035","state_id":4742,"state_name":"Dolj County","country_id":181},{"active":false,"Giataid":"209031","cityId":null,"cityName":"T?rgu Mures","hotelId":209031,"hotelName":"Everest","address":"Uzinei 16-18,540307 T?rgu Mures,Romania","phones":"+40265251104","fax":"","email":"hotel_everest@hotmail.com","url":"http://www.hoteleverest.ro/","countryIso2":"RO","countryName":"Romania","hotelRating":"3","latitude":"46.5505","longitude":"24.5522","state_id":null,"state_name":null,"country_id":null},{"active":false,"Giataid":"209763","cityId":93733,"cityName":"Crisan","hotelId":209763,"hotelName":"Botel GGGociman","address":"827060 Crisan,Tulcea,Romania","phones":"","fax":"","email":"","url":"","countryIso2":"RO","countryName":"Romania","hotelRating":"4","latitude":"45.1757","longitude":"29.3807","state_id":4727,"state_name":"Tulcea County","country_id":181},{"active":false,"Giataid":"209871","cityId":96332,"cityName":"Sibiu","hotelId":209871,"hotelName":"Golden Tulip Ana Tower","address":"Str. Scoala De Inot 2,550005 Sibiu,Romania","phones":"+40269234000","fax":"+40269224000","email":"office@goldentulipanatowersibiu.com","url":"http://www.goldentulip.com/property/default.aspx?PropCode=GT;044891&amp;Language=EN","countryIso2":"RO","countryName":"Romania","hotelRating":"4","latitude":"45.7869","longitude":"24.1472","state_id":4755,"state_name":"Sibiu County","country_id":181},{"active":false,"Giataid":"210405","cityId":90347,"cityName":"Bucharest","hotelId":210405,"hotelName":"Hemingway Residence Apartments","address":"Str. Mantuleasa 31,Sector 2,Bucuresti,Romania","phones":"+40213121092","fax":"+40213121052","email":"office@hemingwayresidence.ro","url":"http://www.hemingwayresidence.ro","countryIso2":"RO","countryName":"Romania","hotelRating":"3","latitude":"44.4368","longitude":"26.1138","state_id":4730,"state_name":"Bucharest","country_id":181},{"active":false,"Giataid":"210491","cityId":94454,"cityName":"Gura Humorului","hotelId":210491,"hotelName":"Hilde's Residence","address":"Sipotului street nr 2","phones":"","fax":"","email":"","url":"","countryIso2":"RO","countryName":"Romania","hotelRating":"4","latitude":"47.5515","longitude":"25.8809","state_id":4720,"state_name":"Suceava County","country_id":181},{"active":false,"Giataid":"210651","cityId":90347,"cityName":"Bucharest","hotelId":210651,"hotelName":"Horoscop","address":"Dimitrie Cantemir 2,Sector 4,Bucharest,Romania","phones":"+40213366242","fax":"+40213354078","email":"office@horoscop-turism.ro","url":"http://www.hotel-horoscop.ro","countryIso2":"RO","countryName":"Romania","hotelRating":"3","latitude":"44.4254","longitude":"26.1037","state_id":4730,"state_name":"Bucharest","country_id":181},{"active":false,"Giataid":"211232","cityId":106173,"cityName":"Tulcea","hotelId":211232,"hotelName":"Esplanada","address":"Strada Portului 1,Faleza,Tulcea,Romania","phones":"+40240516607","fax":"+40240516607","email":"office@hotelesplanada.ro","url":"http://www.hotelesplanada.ro","countryIso2":"RO","countryName":"Romania","hotelRating":"4","latitude":"45.1813","longitude":"28.7921","state_id":4727,"state_name":"Tulcea County","country_id":181},{"active":false,"Giataid":"211470","cityId":90436,"cityName":"Busteni","hotelId":211470,"hotelName":"HoteL-Club Austria","address":"Strada Primaverii 12,Poiana Tapului 105500,Busteni,Romania","phones":"+40244323345","fax":"","email":"","url":"","countryIso2":"RO","countryName":"Romania","hotelRating":"5","latitude":"45.3914","longitude":"25.5474","state_id":4729,"state_name":"Prahova County","country_id":181},{"active":false,"Giataid":"211725","cityId":106102,"cityName":"Timisoara","hotelId":211725,"hotelName":"Imperial","address":"Strada Sfintii Apostoli Petru si Pavel 29A,300243 Timisoara,Romania","phones":"+40256280673","fax":"","email":"","url":"","countryIso2":"RO","countryName":"Romania","hotelRating":"3","latitude":"45.775","longitude":"21.2402","state_id":4748,"state_name":"Timis County","country_id":181},{"active":false,"Giataid":"211734","cityId":95445,"cityName":"Oradea","hotelId":211734,"hotelName":"Impero","address":"","phones":"","fax":"","email":"","url":"","countryIso2":"RO","countryName":"Romania","hotelRating":"3","latitude":"47.0513","longitude":"21.9192","state_id":4723,"state_name":"Bihor County","country_id":181},{"active":false,"Giataid":"212536","cityId":106102,"cityName":"Timisoara","hotelId":212536,"hotelName":"La Residenza","address":"","phones":"","fax":"","email":"","url":"","countryIso2":"RO","countryName":"Romania","hotelRating":"4","latitude":"45.7399","longitude":"21.225","state_id":4748,"state_name":"Timis County","country_id":181},{"active":false,"Giataid":"212768","cityId":96488,"cityName":"Suceava","hotelId":212768,"hotelName":"Lary Hostel","address":"Aurel Vlaicu Street 195,720019 Suceava,Timisoara,Romania","phones":"+40747086329","fax":"","email":"","url":"","countryIso2":"RO","countryName":"Romania","hotelRating":"2","latitude":"47.6755","longitude":"26.2212","state_id":4720,"state_name":"Suceava County","country_id":181},{"active":false,"Giataid":"213341","cityId":95445,"cityName":"Oradea","hotelId":213341,"hotelName":"Living In Aparthotel","address":"Strada Facliei 2,Oradea,Romania","phones":"","fax":"","email":"","url":"","countryIso2":"RO","countryName":"Romania","hotelRating":"3","latitude":"47.053","longitude":"21.9564","state_id":4723,"state_name":"Bihor County","country_id":181},{"active":false,"Giataid":"213848","cityId":90266,"cityName":"Bran","hotelId":213848,"hotelName":"Marmot Residence","address":"","phones":"","fax":"","email":"","url":"","countryIso2":"RO","countryName":"Romania","hotelRating":"1","latitude":"45.5178","longitude":"25.3695","state_id":4759,"state_name":"Brasov County","country_id":181},{"active":false,"Giataid":"213874","cityId":90347,"cityName":"Bucharest","hotelId":213874,"hotelName":"Martour Destination Apartment","address":"","phones":"","fax":"","email":"","url":"","countryIso2":"RO","countryName":"Romania","hotelRating":"1","latitude":"44.4449","longitude":"26.0967","state_id":4730,"state_name":"Bucharest","country_id":181},{"active":false,"Giataid":"213925","cityId":95445,"cityName":"Oradea","hotelId":213925,"hotelName":"Maxim","address":"5 VICTOR BABES","phones":"","fax":"","email":"","url":"","countryIso2":"RO","countryName":"Romania","hotelRating":"4","latitude":"47.062","longitude":"21.935","state_id":4723,"state_name":"Bihor County","country_id":181},{"active":false,"Giataid":"213938","cityId":90347,"cityName":"Bucharest","hotelId":213938,"hotelName":"Mazicon","address":"","phones":"","fax":"","email":"","url":"","countryIso2":"RO","countryName":"Romania","hotelRating":"3","latitude":"44.41","longitude":"26.0258","state_id":4730,"state_name":"Bucharest","country_id":181},{"active":false,"Giataid":"214592","cityId":106102,"cityName":"Timisoara","hotelId":214592,"hotelName":"Hotel Novera","address":"Strada F.C. Ripensia 29A,300584 Timisoara,Romania","phones":"+40256466156","fax":"","email":"","url":"","countryIso2":"RO","countryName":"Romania","hotelRating":"4","latitude":"45.7436","longitude":"21.2427","state_id":4748,"state_name":"Timis County","country_id":181},{"active":false,"Giataid":"214839","cityId":106102,"cityName":"Timisoara","hotelId":214839,"hotelName":"Oxford Inns&suites","address":"Str. Garofitei nr. 26,Timisoara 300311,Romania","phones":"+40256208130","fax":"+404256217009","email":"office@hotel-oxford.ro","url":"http://www.hotel-oxford.ro","countryIso2":"RO","countryName":"Romania","hotelRating":"3","latitude":"45.7624","longitude":"21.2668","state_id":4748,"state_name":"Timis County","country_id":181},{"active":false,"Giataid":"214877","cityId":null,"cityName":"Constanta","hotelId":214877,"hotelName":"Palace Rrt","address":"Remus Opreanu 5to7","phones":"","fax":"","email":"","url":"","countryIso2":"RO","countryName":"Romania","hotelRating":"3","latitude":"44.173","longitude":"28.6623","state_id":null,"state_name":null,"country_id":null},{"active":false,"Giataid":"64850","cityId":57437,"cityName":"Arad","hotelId":215007,"hotelName":"Parc","address":"Generac Dragalina 25,Arad 310125,Romania","phones":"+40257280820","fax":"+40257280725","email":"office@hotelparcarad.ro","url":"http://arad.imparatulromanilor.ro","countryIso2":"RO","countryName":"Romania","hotelRating":"3","latitude":"46.1716","longitude":"21.3209","state_id":1368,"state_name":"Southern District","country_id":106},{"active":false,"Giataid":"215266","cityId":94630,"cityName":"Iasi","hotelId":215266,"hotelName":"Pension Garofita","address":"Soseaua Barnova 101B,700284 Iasi,Romania","phones":"+40232236391","fax":"","email":"","url":"","countryIso2":"RO","countryName":"Romania","hotelRating":"3","latitude":"47.1128","longitude":"27.6211","state_id":4735,"state_name":"Iasi County","country_id":181},{"active":false,"Giataid":"215297","cityId":94454,"cityName":"Gura Humorului","hotelId":215297,"hotelName":"La Roata","address":"Strada Wurzburg 21F,Gura Humorului 725300,Suceava,Romania","phones":"","fax":"","email":"","url":"","countryIso2":"RO","countryName":"Romania","hotelRating":"3","latitude":"47.5548","longitude":"25.881","state_id":4720,"state_name":"Suceava County","country_id":181},{"active":false,"Giataid":"215307","cityId":96332,"cityName":"Sibiu","hotelId":215307,"hotelName":"Pension Mai","address":"DJ 106A,km 16 la borna de,5 km Paltinis,Sibiu,Romania","phones":"+40269557269","fax":"","email":"info@pensiunea-mai.ro","url":"http://www.pensiunea-mai.ro","countryIso2":"RO","countryName":"Romania","hotelRating":"5","latitude":"45.7101","longitude":"24.0237","state_id":4755,"state_name":"Sibiu County","country_id":181},{"active":false,"Giataid":"215309","cityId":96332,"cityName":"Sibiu","hotelId":215309,"hotelName":"Pension Maria","address":"","phones":"","fax":"","email":"","url":"","countryIso2":"RO","countryName":"Romania","hotelRating":"4","latitude":"45.8041","longitude":"24.1401","state_id":4755,"state_name":"Sibiu County","country_id":181},{"active":false,"Giataid":"215327","cityId":90436,"cityName":"Busteni","hotelId":215327,"hotelName":"Pension Paunasul","address":"Crinului 8,105550 Busteni,Romania","phones":"","fax":"","email":"","url":"","countryIso2":"RO","countryName":"Romania","hotelRating":"3","latitude":"45.3919","longitude":"25.5364","state_id":4729,"state_name":"Prahova County","country_id":181},{"active":false,"Giataid":"215376","cityId":106102,"cityName":"Timisoara","hotelId":215376,"hotelName":"Pension Yasmine","address":"Uzinei No 6","phones":"","fax":"","email":"","url":"","countryIso2":"RO","countryName":"Romania","hotelRating":"3","latitude":"45.7601","longitude":"21.2618","state_id":4748,"state_name":"Timis County","country_id":181},{"active":false,"Giataid":"215395","cityId":95942,"cityName":"Predeal","hotelId":215395,"hotelName":"Pensiunea Casa Boltres","address":"","phones":"","fax":"","email":"","url":"","countryIso2":"RO","countryName":"Romania","hotelRating":"1","latitude":"45.5098","longitude":"25.5727","state_id":4759,"state_name":"Brasov County","country_id":181},{"active":false,"Giataid":"215396","cityId":96350,"cityName":"Sinaia","hotelId":215396,"hotelName":"Pensiunea Dona","address":"Republicii 34A,Sinaia City Center,106100 Sinaia,Romania","phones":"","fax":"","email":"","url":"","countryIso2":"RO","countryName":"Romania","hotelRating":"1","latitude":"45.3443","longitude":"25.548","state_id":4729,"state_name":"Prahova County","country_id":181},{"active":false,"Giataid":"215506","cityId":95942,"cityName":"Predeal","hotelId":215506,"hotelName":"Piemonte","address":"Bulevardul Mihail Saulescu 149,Predeal,Judetul Brasov,Romania","phones":"","fax":"","email":"","url":"","countryIso2":"RO","countryName":"Romania","hotelRating":"4","latitude":"45.5077","longitude":"25.5739","state_id":4759,"state_name":"Brasov County","country_id":181},{"active":false,"Giataid":"215640","cityId":90347,"cityName":"Bucharest","hotelId":215640,"hotelName":"Popisteanu","address":"","phones":"","fax":"","email":"","url":"","countryIso2":"RO","countryName":"Romania","hotelRating":"1","latitude":"44.4449","longitude":"26.0967","state_id":4730,"state_name":"Bucharest","country_id":181},{"active":false,"Giataid":"215724","cityId":95814,"cityName":"Ploiesti","hotelId":215724,"hotelName":"Prahova Plaza","address":"Strada Gh Dobrogeanu Gherea 11,Ploie?ti,Romania","phones":"+40244526850","fax":"","email":"","url":"","countryIso2":"RO","countryName":"Romania","hotelRating":"4","latitude":"44.9412","longitude":"26.0276","state_id":4729,"state_name":"Prahova County","country_id":181},{"active":false,"Giataid":"215733","cityId":96332,"cityName":"Sibiu","hotelId":215733,"hotelName":"Premier","address":"Bulevardul General Vasile Milea 76,Sibiu 550331,Romania","phones":"","fax":"","email":"","url":"","countryIso2":"RO","countryName":"Romania","hotelRating":"3","latitude":"45.7835","longitude":"24.1634","state_id":4755,"state_name":"Sibiu County","country_id":181},{"active":false,"Giataid":"216555","cityId":90347,"cityName":"Bucharest","hotelId":216555,"hotelName":"Rainbow Accommodation","address":"Bulevardul Nicolae Balcescu 23,Luterana Street 1,Sector 1,030166 Bucurest,Romania","phones":"","fax":"+40311056404","email":"reservation@rainbowaccommodations.com","url":"http://www.rainbowaccommodations.com","countryIso2":"RO","countryName":"Romania","hotelRating":"3","latitude":"44.4388","longitude":"26.1006","state_id":4730,"state_name":"Bucharest","country_id":181},{"active":false,"Giataid":"216587","cityId":106102,"cityName":"Timisoara","hotelId":216587,"hotelName":"Ramina","address":"Str. Strandului nr.12A,Calea Lugojului,Timisoara 300310,Romania","phones":"+40256272732","fax":"","email":"office@hotel-ramina.ro","url":"http://www.hotel-ramina.ro","countryIso2":"RO","countryName":"Romania","hotelRating":"3","latitude":"45.7684","longitude":"21.2682","state_id":4748,"state_name":"Timis County","country_id":181},{"active":false,"Giataid":"216589","cityId":94454,"cityName":"Gura Humorului","hotelId":216589,"hotelName":"Hotel Ramona","address":"Strada Stejarului 15,Gura Humorulu,Judetul Suceava,Romania","phones":"+40230235377","fax":"+40230235205","email":"hotelramonatourism.ro","url":"http://hotel.ramona.ro","countryIso2":"RO","countryName":"Romania","hotelRating":"3","latitude":"47.5551","longitude":"25.9014","state_id":4720,"state_name":"Suceava County","country_id":181},{"active":false,"Giataid":"216850","cityId":106102,"cityName":"Timisoara","hotelId":216850,"hotelName":"Residence Irlanda","address":"Str. Martir Silviu Motohon nr. 26,300265 Timisoara,Romania","phones":"+40256281004","fax":"+40256244069","email":"info@residenceirlanda.ro","url":"http://www.booking.com/hotel/ro/residence-irlanda.de.html","countryIso2":"RO","countryName":"Romania","hotelRating":"3","latitude":"45.7713","longitude":"21.2329","state_id":4748,"state_name":"Timis County","country_id":181},{"active":false,"Giataid":"217105","cityId":93704,"cityName":"Craiova","hotelId":217105,"hotelName":"Casa Cu Tei","address":"","phones":"","fax":"","email":"","url":"","countryIso2":"RO","countryName":"Romania","hotelRating":"4","latitude":"44.3253","longitude":"23.7923","state_id":4742,"state_name":"Dolj County","country_id":181},{"active":false,"Giataid":"217415","cityId":90347,"cityName":"Bucharest","hotelId":217415,"hotelName":"Romvision Apartments","address":"Burebista Avenue 1,Sector 3,Bucharest,Romania","phones":"","fax":"","email":"","url":"","countryIso2":"RO","countryName":"Romania","hotelRating":"3","latitude":"44.4246","longitude":"26.1292","state_id":4730,"state_name":"Bucharest","country_id":181},{"active":false,"Giataid":"217826","cityId":106102,"cityName":"Timisoara","hotelId":217826,"hotelName":"Savoy","address":"Splaiul Tudor Vladimirescu 2,Timi?oara 300193,Romania","phones":"+40256249900","fax":"","email":"contact@hotelsavoytimisoara.ro","url":"http://hotelsavoytimisoara.ro","countryIso2":"RO","countryName":"Romania","hotelRating":"4","latitude":"45.7479","longitude":"21.2244","state_id":4748,"state_name":"Timis County","country_id":181},{"active":false,"Giataid":"218057","cityId":95445,"cityName":"Oradea","hotelId":218057,"hotelName":"Silver","address":"Strada Louis Pasteur 102,Oradea,Romania","phones":"","fax":"","email":"","url":"","countryIso2":"RO","countryName":"Romania","hotelRating":"4","latitude":"47.0661","longitude":"21.9602","state_id":4723,"state_name":"Bihor County","country_id":181},{"active":false,"Giataid":"218072","cityId":90347,"cityName":"Bucharest","hotelId":218072,"hotelName":"Sir Colentina","address":"Str. Cremenita nr. 2A,sector 2,Bucuresti,Romania","phones":"+40212401158","fax":"+40212401159","email":"sirgrup3@gmail.com","url":"http://sirgrup.ro/index.php?page=pages&amp;type=system&amp;name=services","countryIso2":"RO","countryName":"Romania","hotelRating":"2","latitude":"44.4646","longitude":"26.1361","state_id":4730,"state_name":"Bucharest","country_id":181},{"active":false,"Giataid":"218368","cityId":95814,"cityName":"Ploiesti","hotelId":218368,"hotelName":"Star Rooms Hotel","address":"Bogdan Petriceicu Hasdeu 1,100538 Ploiesti,Romania","phones":"","fax":"","email":"","url":"","countryIso2":"RO","countryName":"Romania","hotelRating":"4","latitude":"44.928","longitude":"26.0293","state_id":4729,"state_name":"Prahova County","country_id":181},{"active":false,"Giataid":"218611","cityId":93704,"cityName":"Craiova","hotelId":218611,"hotelName":"Sydney","address":"Calea Bucuresti nr. 118,Craiova 200515,Dolj,Romania","phones":"+40251435162","fax":"+40351815714","email":"office@sydneyhotel.ro","url":"http://www.sydneyhotel.ro","countryIso2":"RO","countryName":"Romania","hotelRating":"3","latitude":"44.3127","longitude":"23.8528","state_id":4742,"state_name":"Dolj County","country_id":181},{"active":false,"Giataid":"218683","cityId":90347,"cityName":"Bucharest","hotelId":218683,"hotelName":"Tecadra","address":"Erou Iancu Nicolae Stra?e 67A,077190 Voluntari,Pipera Kreis Ilfov,Romania","phones":"+40212679393","fax":"+40212679397","email":"office@tecadra.ro","url":"http://www.tecadra.ro","countryIso2":"RO","countryName":"Romania","hotelRating":"4","latitude":"44.514","longitude":"26.1264","state_id":4730,"state_name":"Bucharest","country_id":181},{"active":false,"Giataid":"218686","cityId":null,"cityName":"Constanta","hotelId":218686,"hotelName":"Teen Studios Constanta","address":"NULL","phones":"","fax":"","email":"","url":"","countryIso2":"RO","countryName":"Romania","hotelRating":"1","latitude":"44.1598","longitude":"28.6348","state_id":null,"state_name":null,"country_id":null},{"active":false,"Giataid":"218687","cityId":null,"cityName":"Saturn","hotelId":218687,"hotelName":"Teen Studios Saturn","address":"","phones":"","fax":"","email":"","url":"","countryIso2":"RO","countryName":"Romania","hotelRating":"1","latitude":"43.8302","longitude":"28.5897","state_id":null,"state_name":null,"country_id":null},{"active":false,"Giataid":"218727","cityId":95445,"cityName":"Oradea","hotelId":218727,"hotelName":"Terra","address":"Strada Facliei 29,Oradea,Romania","phones":"","fax":"","email":"","url":"","countryIso2":"RO","countryName":"Romania","hotelRating":"2","latitude":"47.0526","longitude":"21.9611","state_id":4723,"state_name":"Bihor County","country_id":181},{"active":false,"Giataid":"219670","cityId":95814,"cityName":"Ploiesti","hotelId":219670,"hotelName":"Tiara","address":"Strada Tache Ionescu 6,100022 Ploiesti,Prahova,Romania","phones":"+40244590441","fax":"","email":"","url":"","countryIso2":"RO","countryName":"Romania","hotelRating":"3","latitude":"44.9399","longitude":"26.0225","state_id":4729,"state_name":"Prahova County","country_id":181},