[{"active":false,"Giataid":"137174","cityId":67285,"cityName":"Chisinau","hotelId":137174,"hotelName":"Cosmos","address":"2 Negruzzi,Chisinaau 2001,Moldova","phones":"+37322837505","fax":"+37322542744","email":"info@hotel-cosmos.com","url":"http://www.hotel-cosmos.com/","countryIso2":"MD","countryName":"Moldova","hotelRating":"3","latitude":"47.0142","longitude":"28.8533","state_id":4373,"state_name":"Chisinau Municipality","country_id":144},{"active":false,"Giataid":"138152","cityId":67285,"cityName":"Chisinau","hotelId":138152,"hotelName":"Club Royal Park","address":"6/2 Trandafirelor,2038 Chisinau,Moldova","phones":"+37322574080","fax":"+37322574084","email":"hotel@clubroyalpark.md","url":"http://www.clubroyalpark.md/en/hotel/","countryIso2":"MD","countryName":"Moldova","hotelRating":"5","latitude":"46.9995","longitude":"28.8548","state_id":4373,"state_name":"Chisinau Municipality","country_id":144},{"active":false,"Giataid":"139079","cityId":67285,"cityName":"Chisinau","hotelId":139079,"hotelName":"Radisson Blu Leogrand Hotel, Chisinau","address":"Mitropolit Varlaam Street 77,2012 Chisinau,Moldova","phones":"+37322201201","fax":"+37322201222","email":"info@leograndhotels.com","url":"http://www.leograndhotels.com/index.php?route=information/information_cat&amp;id=101","countryIso2":"MD","countryName":"Moldova","hotelRating":"4","latitude":"47.0242","longitude":"28.8367","state_id":4373,"state_name":"Chisinau Municipality","country_id":144},{"active":false,"Giataid":"187502","cityId":67285,"cityName":"Chisinau","hotelId":187502,"hotelName":"Dacia","address":"31 August 1989 Street 135,MD 2012 Chisinau,Moldova","phones":"+37322232251","fax":"+37322234647","email":"reception@daciahotel.md","url":"http://www.daciahotel.md","countryIso2":"MD","countryName":"Moldova","hotelRating":"4","latitude":"47.0266","longitude":"28.8233","state_id":4373,"state_name":"Chisinau Municipality","country_id":144},{"active":false,"Giataid":"232596","cityId":67285,"cityName":"Chisinau","hotelId":232596,"hotelName":"Maxim Pasha","address":"Hincesti 140/4,Chisinau 2070,Moldova","phones":"+37322209660","fax":"+37322288787","email":"info@maximpasha.md","url":"http://maximpasha.md/","countryIso2":"MD","countryName":"Moldova","hotelRating":"5","latitude":"46.9902","longitude":"28.7855","state_id":4373,"state_name":"Chisinau Municipality","country_id":144},{"active":false,"Giataid":"234512","cityId":67285,"cityName":"Chisinau","hotelId":234512,"hotelName":"Codru","address":"31 August 1989 Street,Chisinau,Moldova","phones":"+37322208104","fax":"+37322237948","email":"reception@codru.md","url":"http://www.codru.md","countryIso2":"MD","countryName":"Moldova","hotelRating":"4","latitude":"47.0228","longitude":"28.8291","state_id":4373,"state_name":"Chisinau Municipality","country_id":144},{"active":false,"Giataid":"234513","cityId":67285,"cityName":"Chisinau","hotelId":234513,"hotelName":"Manhattan","address":"1 Ciuflea Str.,2001 Chisinau,Moldova","phones":"+37322260888","fax":"+37322260886","email":"reception@manhattan-hotel.md","url":"http://www.manhattan-hotel.md","countryIso2":"MD","countryName":"Moldova","hotelRating":"4","latitude":"47.012","longitude":"28.8445","state_id":4373,"state_name":"Chisinau Municipality","country_id":144},{"active":false,"Giataid":"234515","cityId":67285,"cityName":"Chisinau","hotelId":234515,"hotelName":"Nobil Luxury Boutique","address":"49/1 M. Eminescu Street,2012 Chisinau,Moldova","phones":"+37322400400","fax":"+37322400444","email":"info@nobil.md","url":"http://www.nobil.md","countryIso2":"MD","countryName":"Moldova","hotelRating":"5","latitude":"47.0224","longitude":"28.8372","state_id":4373,"state_name":"Chisinau Municipality","country_id":144},{"active":false,"Giataid":"234516","cityId":67285,"cityName":"Chisinau","hotelId":234516,"hotelName":"Weekend Boutique Hotel","address":"7 Arborilor Street,2025 Chisinau,Moldova","phones":"+37322840484","fax":"+37322740485","email":"admin@wbh.md","url":"http://www.weekend-boutique-hotel.com","countryIso2":"MD","countryName":"Moldova","hotelRating":"4","latitude":"47.0035","longitude":"28.8405","state_id":4373,"state_name":"Chisinau Municipality","country_id":144},{"active":false,"Giataid":"239300","cityId":67285,"cityName":"Chisinau","hotelId":239300,"hotelName":"Ezio Palace","address":"str. Haiducilor 44,Chisinau 2028,Moldova","phones":"+37322281817","fax":"+37322290808","email":"ezio.palace@mail.ru","url":"http://www.ezio-palace.md","countryIso2":"MD","countryName":"Moldova","hotelRating":"3","latitude":"46.9932","longitude":"28.8009","state_id":4373,"state_name":"Chisinau Municipality","country_id":144},{"active":false,"Giataid":"242294","cityId":67285,"cityName":"Chisinau","hotelId":242294,"hotelName":"Elat Hotel","address":"140/1, Columna,Chisinau,Moldova","phones":"+37322292574","fax":"+37322292530","email":"booking@elathotel.md","url":"http://www.elathotel.md","countryIso2":"MD","countryName":"Moldova","hotelRating":"3","latitude":"47.0308","longitude":"28.83","state_id":4373,"state_name":"Chisinau Municipality","country_id":144},{"active":false,"Giataid":"359837","cityId":67285,"cityName":"Chisinau","hotelId":359837,"hotelName":"Villa Natali","address":"Strada Sfatul Tarii 15,Centru,2012 Chi?inau,Moldova","phones":"+37322233663","fax":"","email":"","url":"","countryIso2":"MD","countryName":"Moldova","hotelRating":"3","latitude":"47.025","longitude":"28.8214","state_id":4373,"state_name":"Chisinau Municipality","country_id":144},{"active":false,"Giataid":"369517","cityId":67285,"cityName":"Chisinau","hotelId":369517,"hotelName":"Art-Rustic Boutique Hotel","address":"Strada Alexandru Hajdeu 79/1,2005 Chisinau,Moldova","phones":"+37322232593","fax":"","email":"","url":"","countryIso2":"MD","countryName":"Moldova","hotelRating":"3","latitude":"47.0274","longitude":"28.8448","state_id":4373,"state_name":"Chisinau Municipality","country_id":144},{"active":false,"Giataid":"369518","cityId":67285,"cityName":"Chisinau","hotelId":369518,"hotelName":"Hotel Regency","address":"Strada Sfatul Tarii 17,2012 Chisinau,Moldova","phones":"+37322999100","fax":"","email":"","url":"","countryIso2":"MD","countryName":"Moldova","hotelRating":"4","latitude":"47.0249","longitude":"28.8214","state_id":4373,"state_name":"Chisinau Municipality","country_id":144},{"active":false,"Giataid":"369519","cityId":67285,"cityName":"Chisinau","hotelId":369519,"hotelName":"Iris Hotel- Chisinau","address":"17 PETRICANI","phones":"","fax":"","email":"","url":"","countryIso2":"MD","countryName":"Moldova","hotelRating":"4","latitude":"47.044","longitude":"28.8325","state_id":4373,"state_name":"Chisinau Municipality","country_id":144},{"active":false,"Giataid":"369520","cityId":67285,"cityName":"Chisinau","hotelId":369520,"hotelName":"Klassik Mini 1 Hotel","address":"Strada Kogalniceanu 6,2001 Chisinau,Moldova","phones":"","fax":"","email":"","url":"","countryIso2":"MD","countryName":"Moldova","hotelRating":"3","latitude":"47.0129","longitude":"28.8357","state_id":4373,"state_name":"Chisinau Municipality","country_id":144},{"active":false,"Giataid":"369522","cityId":67285,"cityName":"Chisinau","hotelId":369522,"hotelName":"Majami Hotel","address":"89/2 Alexei Mateevici street","phones":"","fax":"","email":"","url":"","countryIso2":"MD","countryName":"Moldova","hotelRating":"3","latitude":"47.021","longitude":"28.8197","state_id":4373,"state_name":"Chisinau Municipality","country_id":144},{"active":false,"Giataid":"369523","cityId":67285,"cityName":"Chisinau","hotelId":369523,"hotelName":"Mesogios Hotel","address":"Armeneasca Street 23,2012 Chisinau,Moldova","phones":"","fax":"","email":"","url":"","countryIso2":"MD","countryName":"Moldova","hotelRating":"4","latitude":"47.0154","longitude":"28.833","state_id":4373,"state_name":"Chisinau Municipality","country_id":144},{"active":false,"Giataid":"369524","cityId":67285,"cityName":"Chisinau","hotelId":369524,"hotelName":"Stella De Lux Hotel","address":"Strada Bulgara 26,2001 Chisinau,Moldova","phones":"+37322260250","fax":"","email":"","url":"","countryIso2":"MD","countryName":"Moldova","hotelRating":"3","latitude":"47.0135","longitude":"28.8342","state_id":4373,"state_name":"Chisinau Municipality","country_id":144},{"active":false,"Giataid":"372296","cityId":null,"cityName":"Balti","hotelId":372296,"hotelName":"Lido Hotel","address":"Strada Decebal 139,3107 Balti,Moldova","phones":"+37323178405","fax":"","email":"","url":"","countryIso2":"MD","countryName":"Moldova","hotelRating":"4","latitude":"47.7823","longitude":"27.889","state_id":null,"state_name":null,"country_id":null},{"active":false,"Giataid":"372297","cityId":67334,"cityName":"Ungheni","hotelId":372297,"hotelName":"Vila VerdE-Ungheni","address":"Strada Nationala 5,3600 Ungheni,Moldova","phones":"+37323623399","fax":"","email":"","url":"","countryIso2":"MD","countryName":"Moldova","hotelRating":"3","latitude":"47.205","longitude":"27.7979","state_id":4386,"state_name":"Ungheni District","country_id":144},{"active":false,"Giataid":"372298","cityId":67281,"cityName":"Cahul","hotelId":372298,"hotelName":"Azalia HoteL-Cahul","address":"Strada Alexei Mateevici 21,3900 Cahul,Moldova","phones":"+37329926546","fax":"","email":"","url":"","countryIso2":"MD","countryName":"Moldova","hotelRating":"3","latitude":"45.9055","longitude":"28.1908","state_id":4391,"state_name":"Cahul District","country_id":144},{"active":false,"Giataid":"382883","cityId":67285,"cityName":"Chisinau","hotelId":382883,"hotelName":"Zimbru Hotel","address":"Dacia Bulelvardul 45,MD 2062 Chisinau,Moldova,Moldova","phones":"","fax":"","email":"","url":"","countryIso2":"MD","countryName":"Moldova","hotelRating":"3","latitude":"46.9812","longitude":"28.8672","state_id":4373,"state_name":"Chisinau Municipality","country_id":144},{"active":false,"Giataid":"424368","cityId":null,"cityName":"Butuceni","hotelId":424368,"hotelName":"Agropensiunea Butuceni","address":"District Orhei,Historical-cultural complex Orheiul Vechi,Village Butuceni,Moldova","phones":"+37323556906","fax":"","email":"info@pensiuneabutuceni.md","url":"http://www.pensiuneabutuceni.md/en","countryIso2":"MD","countryName":"Moldova","hotelRating":"3","latitude":"47.5382","longitude":"29.0278","state_id":null,"state_name":null,"country_id":null},{"active":false,"Giataid":"451963","cityId":67331,"cityName":"Tiraspol","hotelId":451963,"hotelName":"VVP Club Hotel","address":"","phones":"","fax":"","email":"","url":"","countryIso2":"MD","countryName":"Moldova","hotelRating":"1","latitude":"46.8355","longitude":"29.6712","state_id":4395,"state_name":"Transnistria autonomous territorial unit","country_id":144},{"active":false,"Giataid":"466624","cityId":67306,"cityName":"Glodeni","hotelId":466624,"hotelName":"Sharm Hotel","address":"Suveranita?ii Street 16,Glodeni,Moldova","phones":"+37324923399","fax":"+37324922029","email":"info@hotel-glodeni.md","url":"http://www.hotel-glodeni.md/","countryIso2":"MD","countryName":"Moldova","hotelRating":"1","latitude":"47.7723","longitude":"27.5144","state_id":4367,"state_name":"Glodeni District","country_id":144},{"active":false,"Giataid":"472411","cityId":67338,"cityName":"Vatra","hotelId":472411,"hotelName":"Fenix","address":"","phones":"","fax":"","email":"","url":"","countryIso2":"MD","countryName":"Moldova","hotelRating":"1","latitude":"0","longitude":"0","state_id":4373,"state_name":"Chisinau Municipality","country_id":144},{"active":false,"Giataid":"472545","cityId":null,"cityName":"Edinet","hotelId":472545,"hotelName":"Florentina Hotel","address":"Strada Independentii 228,MD-4601 Edinet,Moldavien,Moldova","phones":"+37324684125","fax":"","email":"hoteledinet@mail.ru","url":"http://www.florentinahotel.md","countryIso2":"MD","countryName":"Moldova","hotelRating":"4","latitude":"48.1726","longitude":"27.3006","state_id":null,"state_name":null,"country_id":null},{"active":false,"Giataid":"474000","cityId":67324,"cityName":"Soroca","hotelId":474000,"hotelName":"Villa de la Nord","address":"Independentei 18,3000 Soroca,Moldova","phones":"","fax":"","email":"","url":"","countryIso2":"MD","countryName":"Moldova","hotelRating":"3","latitude":"48.155","longitude":"28.2873","state_id":4374,"state_name":"Soroca District","country_id":144},{"active":false,"Giataid":"474612","cityId":67273,"cityName":"Bender","hotelId":474612,"hotelName":"Hotel Prietenia","address":"Strada Pavel Tcacenco 18,3200 Bender,Moldova","phones":"+37355229660","fax":"+37355229622","email":"reservation@hotelprietenia.com","url":"http://hotelprietenia.com/","countryIso2":"MD","countryName":"Moldova","hotelRating":"3","latitude":"46.8223","longitude":"29.4892","state_id":4362,"state_name":"Bender Municipality","country_id":144},{"active":false,"Giataid":"476912","cityId":null,"cityName":"Scoreni","hotelId":476912,"hotelName":"Hotel Stejaris","address":"Soseaua Balcani 26 km,Raion Straseni,3730 Scoreni Chisinau,Moldova","phones":"+37326831705","fax":"+37326831704","email":"hotelstejaris@gmail.com","url":"http://www.stejaris.md","countryIso2":"MD","countryName":"Moldova","hotelRating":"3","latitude":"47.0275","longitude":"28.608","state_id":null,"state_name":null,"country_id":null},{"active":false,"Giataid":"559418","cityId":67285,"cityName":"Chisinau","hotelId":559418,"hotelName":"Mall Guest House","address":"","phones":"","fax":"","email":"","url":"","countryIso2":"MD","countryName":"Moldova","hotelRating":"3","latitude":"46.9997","longitude":"28.8409","state_id":4373,"state_name":"Chisinau Municipality","country_id":144},{"active":false,"Giataid":"622736","cityId":null,"cityName":"Edinet","hotelId":622736,"hotelName":"Vila Bomond","address":"Independentei 37a,4601 Edinet,Moldova","phones":"","fax":"","email":"","url":"","countryIso2":"MD","countryName":"Moldova","hotelRating":"3","latitude":"48.1709","longitude":"27.3032","state_id":null,"state_name":null,"country_id":null},{"active":false,"Giataid":"622779","cityId":67303,"cityName":"Falesti","hotelId":622779,"hotelName":"Hotel Laguna-VIP","address":"Sos.Balti-Sculeni km 22,5923 Falesti,Moldova","phones":"","fax":"","email":"","url":"","countryIso2":"MD","countryName":"Moldova","hotelRating":"1","latitude":"47.569","longitude":"27.7217","state_id":4381,"state_name":"Falesti District","country_id":144},{"active":false,"Giataid":"643029","cityId":67316,"cityName":"Orhei","hotelId":643029,"hotelName":"Chateau Vartely","address":"Eliberarii Street 170B,3501 Orhei,Moldova","phones":"+37323531013","fax":"","email":"office@vartely.md","url":"http://www.vartely.md/en/","countryIso2":"MD","countryName":"Moldova","hotelRating":"1","latitude":"47.3804","longitude":"28.8334","state_id":4361,"state_name":"Orhei District","country_id":144},{"active":false,"Giataid":"653833","cityId":67303,"cityName":"Falesti","hotelId":653833,"hotelName":"Hotel Milania","address":"Sos.Balti-Sculeni Km 25,5923 Falesti,Moldova","phones":"","fax":"","email":"","url":"","countryIso2":"MD","countryName":"Moldova","hotelRating":"1","latitude":"47.59","longitude":"27.7188","state_id":4381,"state_name":"Falesti District","country_id":144},{"active":false,"Giataid":"739260","cityId":67285,"cityName":"Chisinau","hotelId":739260,"hotelName":"Homestay Apartments","address":"Bulevardul Decebal 6/2,Scale 2,Apt. 133,At Strada Stolniceni,2038 Chisinau,Moldova","phones":"","fax":"","email":"","url":"","countryIso2":"MD","countryName":"Moldova","hotelRating":"1","latitude":"47.0061","longitude":"28.8579","state_id":4373,"state_name":"Chisinau Municipality","country_id":144},{"active":false,"Giataid":"752265","cityId":null,"cityName":"Balti","hotelId":752265,"hotelName":"Vispas Balti","address":"Stefan Cel Mare 1 A,3100 Balti,Moldova,Moldova","phones":"","fax":"","email":"","url":"","countryIso2":"MD","countryName":"Moldova","hotelRating":"1","latitude":"47.7687","longitude":"27.9433","state_id":null,"state_name":null,"country_id":null},{"active":false,"Giataid":"752401","cityId":67285,"cityName":"Chisinau","hotelId":752401,"hotelName":"Familion ApartHotel","address":"Cojocarilor Street 18,2001 Chisinau,Moldova","phones":"+37322999199","fax":"","email":"info@familion.md","url":"http://www.familion.md","countryIso2":"MD","countryName":"Moldova","hotelRating":"1","latitude":"47.0239","longitude":"28.8466","state_id":4373,"state_name":"Chisinau Municipality","country_id":144},{"active":false,"Giataid":"753800","cityId":67285,"cityName":"Chisinau","hotelId":753800,"hotelName":"Astoria Hotel","address":"Rabi Tirilson 4,2005 Chisinau,Moldova","phones":"","fax":"","email":"","url":"","countryIso2":"MD","countryName":"Moldova","hotelRating":"1","latitude":"47.0143","longitude":"28.8374","state_id":4373,"state_name":"Chisinau Municipality","country_id":144},{"active":false,"Giataid":"796951","cityId":67285,"cityName":"Chisinau","hotelId":796951,"hotelName":"Tapok Hostel","address":"Armeneasca 27A,Apartment 10,2201 Chisinau,Moldova","phones":"","fax":"","email":"tapokhostel@gmail.com","url":"http://www.tapokhostel.com","countryIso2":"MD","countryName":"Moldova","hotelRating":"1","latitude":"47.0193","longitude":"28.8383","state_id":4373,"state_name":"Chisinau Municipality","country_id":144},{"active":false,"Giataid":"796979","cityId":67285,"cityName":"Chisinau","hotelId":796979,"hotelName":"Funky Mamaliga Hostel","address":"Mihail Kogalniceanu Street 16,MD-2005 Chisinau,Moldova,Moldova","phones":"","fax":"","email":"funkymamaligahostel@gmail.com","url":"https://www.funkymamaligahostel.com","countryIso2":"MD","countryName":"Moldova","hotelRating":"1","latitude":"47.0143","longitude":"28.8374","state_id":4373,"state_name":"Chisinau Municipality","country_id":144},{"active":false,"Giataid":"796983","cityId":67285,"cityName":"Chisinau","hotelId":796983,"hotelName":"Retro Moldova Hostel","address":"Street Cosbuc 3,Apartment 24,2005 Chisinau,Moldova","phones":"","fax":"","email":"retromoldovahostel@gmail.com","url":"http://www.retromoldovahostel.com","countryIso2":"MD","countryName":"Moldova","hotelRating":"1","latitude":"47.0269","longitude":"28.8414","state_id":4373,"state_name":"Chisinau Municipality","country_id":144},{"active":false,"Giataid":"796988","cityId":67285,"cityName":"Chisinau","hotelId":796988,"hotelName":"Chill Chisinau Hostel","address":"Lev Tolstoi 52,Apartment 21,2201 Chisina,Moldova","phones":"","fax":"","email":"chisinauchill@gmail.com","url":"http://www.chisinauchillhostel.com/","countryIso2":"MD","countryName":"Moldova","hotelRating":"1","latitude":"47.0132","longitude":"28.845","state_id":4373,"state_name":"Chisinau Municipality","country_id":144},{"active":false,"Giataid":"797091","cityId":67285,"cityName":"Chisinau","hotelId":797091,"hotelName":"Amazing Ionika Hostel","address":"Strada Mihail Kogalniceanu 62/8,2000 Chisinau,Moldova","phones":"","fax":"","email":"","url":"","countryIso2":"MD","countryName":"Moldova","hotelRating":"1","latitude":"47.0143","longitude":"28.8374","state_id":4373,"state_name":"Chisinau Municipality","country_id":144},{"active":false,"Giataid":"797188","cityId":67324,"cityName":"Soroca","hotelId":797188,"hotelName":"Hotel Nistru","address":"Street Alecu Russo 12,3000 Soroca,Moldova","phones":"","fax":"","email":"","url":"","countryIso2":"MD","countryName":"Moldova","hotelRating":"1","latitude":"48.1551","longitude":"28.2932","state_id":4374,"state_name":"Soroca District","country_id":144},{"active":false,"Giataid":"798062","cityId":67285,"cityName":"Chisinau","hotelId":798062,"hotelName":"Hotel Shelter","address":"Strada Transnistria 5/1,2023 Chisinau,Moldova","phones":"","fax":"","email":"","url":"","countryIso2":"MD","countryName":"Moldova","hotelRating":"1","latitude":"47.0143","longitude":"28.8374","state_id":4373,"state_name":"Chisinau Municipality","country_id":144},{"active":false,"Giataid":"798090","cityId":67273,"cityName":"Bender","hotelId":798090,"hotelName":"Starye Bendery","address":"Gorkogo Street 12?,3200 Bender,Moldova","phones":"+37355220020","fax":"","email":"reception@starbendery.com","url":"http://www.starbendery.com","countryIso2":"MD","countryName":"Moldova","hotelRating":"1","latitude":"0","longitude":"0","state_id":4362,"state_name":"Bender Municipality","country_id":144},{"active":false,"Giataid":"798203","cityId":67285,"cityName":"Chisinau","hotelId":798203,"hotelName":"Nordwest Restaurant and Hotel","address":"Street Calea Lesilor 30A,2002 Chisinau,Moldova","phones":"","fax":"","email":"office@nordwest.md","url":"http://nordwest.md","countryIso2":"MD","countryName":"Moldova","hotelRating":"1","latitude":"47.0143","longitude":"28.8374","state_id":4373,"state_name":"Chisinau Municipality","country_id":144},{"active":false,"Giataid":"798668","cityId":67285,"cityName":"Chisinau","hotelId":798668,"hotelName":"Bazar Motel","address":"Strada Bulgara 99/1,2001 Chisinau,Moldova","phones":"","fax":"","email":"","url":"","countryIso2":"MD","countryName":"Moldova","hotelRating":"1","latitude":"47.0207","longitude":"28.845","state_id":4373,"state_name":"Chisinau Municipality","country_id":144},{"active":false,"Giataid":"799163","cityId":67285,"cityName":"Chisinau","hotelId":799163,"hotelName":"Osvald Hotel","address":"Strada M. Vralami 75,Chisinau,Moldova","phones":"","fax":"","email":"","url":"","countryIso2":"MD","countryName":"Moldova","hotelRating":"1","latitude":"47.0143","longitude":"28.8374","state_id":4373,"state_name":"Chisinau Municipality","country_id":144},{"active":false,"Giataid":"800158","cityId":67331,"cityName":"Tiraspol","hotelId":800158,"hotelName":"Elektromash Hotel","address":"9 Yanvarya 61A,3300 Tiraspol,Moldova","phones":"","fax":"","email":"","url":"","countryIso2":"MD","countryName":"Moldova","hotelRating":"1","latitude":"46.8357","longitude":"29.6289","state_id":4395,"state_name":"Transnistria autonomous territorial unit","country_id":144},{"active":false,"Giataid":"801150","cityId":67285,"cityName":"Chisinau","hotelId":801150,"hotelName":"IQ Hostel","address":"Street Alexei ?ciusev 19/4,Chisinau,Moldova","phones":"","fax":"","email":"","url":"","countryIso2":"MD","countryName":"Moldova","hotelRating":"1","latitude":"47.0143","longitude":"28.8374","state_id":4373,"state_name":"Chisinau Municipality","country_id":144},{"active":false,"Giataid":"801168","cityId":67316,"cityName":"Orhei","hotelId":801168,"hotelName":"La Maison Hotel","address":"11 Strada Valeriu Cupcea 4,2024 Orhei,Moldova","phones":"","fax":"","email":"info@lamaison.md","url":"http://www.lamaison.md","countryIso2":"MD","countryName":"Moldova","hotelRating":"1","latitude":"47.3794","longitude":"28.8373","state_id":4361,"state_name":"Orhei District","country_id":144},{"active":false,"Giataid":"801169","cityId":67331,"cityName":"Tiraspol","hotelId":801169,"hotelName":"Lenin Street Hostel","address":"Lenina Street 28,Apartment 58,3300 Tiraspol,Moldova","phones":"","fax":"","email":"","url":"","countryIso2":"MD","countryName":"Moldova","hotelRating":"1","latitude":"46.8357","longitude":"29.6289","state_id":4395,"state_name":"Transnistria autonomous territorial unit","country_id":144},{"active":false,"Giataid":"804666","cityId":67285,"cityName":"Chisinau","hotelId":804666,"hotelName":"Tree House","address":"Street Vadului Vodea R5,2059 Chisinau,Moldova","phones":"","fax":"","email":"","url":"","countryIso2":"MD","countryName":"Moldova","hotelRating":"1","latitude":"47.0143","longitude":"28.8374","state_id":4373,"state_name":"Chisinau Municipality","country_id":144},{"active":false,"Giataid":"804676","cityId":67285,"cityName":"Chisinau","hotelId":804676,"hotelName":"Tip Top Hotel","address":"Pushkin 47/1,2000 Chisinau,Moldova","phones":"","fax":"","email":"","url":"","countryIso2":"MD","countryName":"Moldova","hotelRating":"1","latitude":"47.0143","longitude":"28.8374","state_id":4373,"state_name":"Chisinau Municipality","country_id":144},{"active":false,"Giataid":"806940","cityId":null,"cityName":"Edinet","hotelId":806940,"hotelName":"La Paris Bastilia","address":"Traseu Brest-Chisinau-Odessa km 654,4634 Edinet,Moldova","phones":"","fax":"","email":"","url":"","countryIso2":"MD","countryName":"Moldova","hotelRating":"1","latitude":"48.1709","longitude":"27.3032","state_id":null,"state_name":null,"country_id":null},{"active":false,"Giataid":"808190","cityId":67331,"cityName":"Tiraspol","hotelId":808190,"hotelName":"Red Star Hostel & Camping","address":"Strada Gorplavni  7,3300 Tiraspol,Moldova","phones":"","fax":"","email":"","url":"","countryIso2":"MD","countryName":"Moldova","hotelRating":"1","latitude":"46.8357","longitude":"29.6289","state_id":4395,"state_name":"Transnistria autonomous territorial unit","country_id":144},{"active":false,"Giataid":"822043","cityId":67331,"cityName":"Tiraspol","hotelId":822043,"hotelName":"Sem Uglov","address":"Sverdlova 57B,3300 Tiraspol,Moldova","phones":"","fax":"","email":"","url":"","countryIso2":"MD","countryName":"Moldova","hotelRating":"1","latitude":"46.8357","longitude":"29.6289","state_id":4395,"state_name":"Transnistria autonomous territorial unit","country_id":144},{"active":false,"Giataid":"431884","cityId":67285,"cityName":"Chisinau","hotelId":10110855,"hotelName":"Berd's Design Hotel","address":"Boulevard Cantemir Dimitrie 12,2001 Chisinau,Moldova","phones":"+37322022222","fax":"NULL","email":"NULL","url":"NULL","countryIso2":"MD","countryName":"Moldova","hotelRating":"5","latitude":"47.017","longitude":"28.854","state_id":4373,"state_name":"Chisinau Municipality","country_id":144},{"active":false,"Giataid":"474898","cityId":67285,"cityName":"Chisinau","hotelId":20002445,"hotelName":"Zarea Hotel","address":"MD2005, 4, Anton Pann str.,Chisinau Municipality,Republic of Moldova,Moldova","phones":"+37322227625","fax":"+37322220658","email":"receptie@hotelzarea.com","url":"http://www.hotelzarea.com/","countryIso2":"MD","countryName":"Moldova","hotelRating":"0","latitude":"47.0311","longitude":"28.836","state_id":4373,"state_name":"Chisinau Municipality","country_id":144},{"active":false,"Giataid":"622717","cityId":67285,"cityName":"Chisinau","hotelId":20002679,"hotelName":"Aparthotel","address":"Grigore Vieru Street 17,2005 Chisinau,Moldova","phones":"","fax":"","email":"","url":"","countryIso2":"MD","countryName":"Moldova","hotelRating":"0","latitude":"47.0319","longitude":"28.8425","state_id":4373,"state_name":"Chisinau Municipality","country_id":144},{"active":false,"Giataid":"474365","cityId":67285,"cityName":"Chisinau","hotelId":20002887,"hotelName":"Hotel Gold Lion","address":"Strada Chiril Stirbu 15,2025 Chisinau,Moldova","phones":"","fax":"","email":"","url":"","countryIso2":"MD","countryName":"Moldova","hotelRating":"3","latitude":"46.9891","longitude":"28.8315","state_id":4373,"state_name":"Chisinau Municipality","country_id":144},{"active":false,"Giataid":"598915","cityId":67285,"cityName":"Chisinau","hotelId":20003091,"hotelName":"Bristol Central Park Hotel","address":"Pushkin 32,Chisinau,Moldova","phones":"+37322902222","fax":"","email":"info@bristol.md","url":"http://bristol.md/","countryIso2":"MD","countryName":"Moldova","hotelRating":"4","latitude":"47.0255","longitude":"28.8364","state_id":4373,"state_name":"Chisinau Municipality","country_id":144},{"active":false,"Giataid":"424186","cityId":67285,"cityName":"Chisinau","hotelId":20003266,"hotelName":"Hotel Villa Rossa","address":"Boulevard Dacia 3/3,2012 Chisinau,Moldova","phones":"+37322507375","fax":"+37322632106","email":"info@villarossa.md","url":"http://villarossa.md/en","countryIso2":"MD","countryName":"Moldova","hotelRating":"4","latitude":"46.991","longitude":"28.8508","state_id":4373,"state_name":"Chisinau Municipality","country_id":144},{"active":false,"Giataid":"451077","cityId":67285,"cityName":"Chisinau","hotelId":20003494,"hotelName":"Vila Olga","address":"Strada Dimbului 1/3,2009 Chisinau,Moldova","phones":"","fax":"","email":"","url":"","countryIso2":"MD","countryName":"Moldova","hotelRating":"0","latitude":"47.0152","longitude":"28.8209","state_id":4373,"state_name":"Chisinau Municipality","country_id":144},{"active":false,"Giataid":"457928","cityId":67285,"cityName":"Chisinau","hotelId":20003676,"hotelName":"Hotel Elm","address":"Spicului Strada 6,2070 Chisinau,Moldova","phones":"","fax":"","email":"","url":"","countryIso2":"MD","countryName":"Moldova","hotelRating":"0","latitude":"46.9958","longitude":"28.786","state_id":4373,"state_name":"Chisinau Municipality","country_id":144},{"active":false,"Giataid":"409204","cityId":67285,"cityName":"Chisinau","hotelId":20003872,"hotelName":"Shadow Boutique Hotel & Spa","address":"Strada Pietrariei 9/1,MD-2024 Chisinau,Moldova","phones":"+37322310792","fax":"","email":"info@shadow.md","url":"http://www.shadow.md","countryIso2":"MD","countryName":"Moldova","hotelRating":"4","latitude":"47.0353","longitude":"28.8502","state_id":4373,"state_name":"Chisinau Municipality","country_id":144},{"active":false,"Giataid":"598928","cityId":67285,"cityName":"Chisinau","hotelId":20004639,"hotelName":"Zentrum Apartments","address":"31 August 1989 103,1989 Chisinau,Moldova","phones":"","fax":"","email":"","url":"","countryIso2":"MD","countryName":"Moldova","hotelRating":"4","latitude":"47.0206","longitude":"28.8324","state_id":4373,"state_name":"Chisinau Municipality","country_id":144},{"active":false,"Giataid":"609419","cityId":67285,"cityName":"Chisinau","hotelId":20004791,"hotelName":"Aria Hotel Chisinau","address":"Alba Julia 7/1,Chisinau,Moldova","phones":"+37322999171","fax":"","email":"info@ariahotel.md","url":"http://ariahotel.md","countryIso2":"MD","countryName":"Moldova","hotelRating":"4","latitude":"47.0291","longitude":"28.7882","state_id":4373,"state_name":"Chisinau Municipality","country_id":144},{"active":false,"Giataid":"622367","cityId":67285,"cityName":"Chisinau","hotelId":20004946,"hotelName":"Mini Chisinau Hotel","address":"Poamei Street 17,MD-2062 Chisinau,Moldova","phones":"+37322530053","fax":"+37322550031","email":"minichisinau@gmail.com","url":"http://minichisinau.md","countryIso2":"MD","countryName":"Moldova","hotelRating":"3","latitude":"46.9824","longitude":"28.8681","state_id":4373,"state_name":"Chisinau Municipality","country_id":144},{"active":false,"Giataid":"475533","cityId":67285,"cityName":"Chisinau","hotelId":20005089,"hotelName":"Villa Kalyan Hotel","address":"Arheolog Ion Casian Suruceanu Street 15/1,2025 Chisinau,Moldova","phones":"","fax":"","email":"","url":"","countryIso2":"MD","countryName":"Moldova","hotelRating":"0","latitude":"46.9915","longitude":"28.8374","state_id":4373,"state_name":"Chisinau Municipality","country_id":144},{"active":false,"Giataid":"473202","cityId":67331,"cityName":"Tiraspol","hotelId":20005255,"hotelName":"Hotel Tiligul","address":"Karla Marksa Street 13,3300 Tiraspol,Moldova","phones":"","fax":"","email":"","url":"","countryIso2":"MD","countryName":"Moldova","hotelRating":"0","latitude":"46.8174","longitude":"29.5468","state_id":4395,"state_name":"Transnistria autonomous territorial unit","country_id":144},{"active":false,"Giataid":"514457","cityId":67285,"cityName":"Chisinau","hotelId":20005364,"hotelName":"Hotel Chisinau","address":"Negruzzi Boulevard 7,2001 Chisinau,Moldova","phones":"","fax":"","email":"","url":"","countryIso2":"MD","countryName":"Moldova","hotelRating":"3","latitude":"47.0131","longitude":"28.8491","state_id":4373,"state_name":"Chisinau Municipality","country_id":144},{"active":false,"Giataid":"562060","cityId":67285,"cityName":"Chisinau","hotelId":20005527,"hotelName":"Hotel Sunrise","address":"Mihai Grecu Street 9,2025 Chisinau,Moldova","phones":"","fax":"","email":"","url":"","countryIso2":"MD","countryName":"Moldova","hotelRating":"3","latitude":"46.9894","longitude":"28.8304","state_id":4373,"state_name":"Chisinau Municipality","country_id":144},{"active":false,"Giataid":"409609","cityId":67285,"cityName":"Chisinau","hotelId":20005689,"hotelName":"Times Rooms","address":"Strada Grigore Alexandrescu 5,Chisinau,Moldova","phones":"+37322746949","fax":"+37322719484","email":"info@timeshotel.md","url":"http://timeshotel.md/","countryIso2":"MD","countryName":"Moldova","hotelRating":"2","latitude":"47.0208","longitude":"28.8069","state_id":4373,"state_name":"Chisinau Municipality","country_id":144},{"active":false,"Giataid":"537481","cityId":67285,"cityName":"Chisinau","hotelId":20005795,"hotelName":"Fortuna Hotel Chisinau","address":"Buiucani Street 13A,Chisinau,Moldova","phones":"+37322755454","fax":"+37322593538","email":"info@fortuna-hotel.md","url":"http://www.fortuna-hotel.md/","countryIso2":"MD","countryName":"Moldova","hotelRating":"3","latitude":"47.0245","longitude":"28.8074","state_id":4373,"state_name":"Chisinau Municipality","country_id":144},{"active":false,"Giataid":"409611","cityId":67285,"cityName":"Chisinau","hotelId":20005933,"hotelName":"Hotel Sanrais","address":"Strada Grecu 9,Chisinau,Moldova","phones":"+37322806274","fax":"","email":"info@hotelsanrais.md","url":"http://www.hotelsanrais.md/","countryIso2":"MD","countryName":"Moldova","hotelRating":"3","latitude":"47.0107","longitude":"28.8583","state_id":4373,"state_name":"Chisinau Municipality","country_id":144},{"active":false,"Giataid":"637833","cityId":67285,"cityName":"Chisinau","hotelId":20006096,"hotelName":"Dream Hotel","address":"Alexandru Bernardazzi 56,2012 Chisinau,Moldova","phones":"","fax":"","email":"","url":"","countryIso2":"MD","countryName":"Moldova","hotelRating":"0","latitude":"47.0146","longitude":"28.8302","state_id":4373,"state_name":"Chisinau Municipality","country_id":144},{"active":false,"Giataid":"409610","cityId":67285,"cityName":"Chisinau","hotelId":20006286,"hotelName":"Hotel Lidia","address":"Strada Armeneaska 71,Chisinau,Moldova","phones":"+37322213693","fax":"+37322213693","email":"contact@lidia.md","url":"http://www.lidia.md/","countryIso2":"MD","countryName":"Moldova","hotelRating":"3","latitude":"47.0211","longitude":"28.8413","state_id":4373,"state_name":"Chisinau Municipality","country_id":144},{"active":false,"Giataid":"457928","cityId":67285,"cityName":"Chisinau","hotelId":20006437,"hotelName":"Hotel Elm","address":"Spicului Strada 6,2070 Chisinau,Moldova","phones":"","fax":"","email":"","url":"","countryIso2":"MD","countryName":"Moldova","hotelRating":"0","latitude":"47.0286","longitude":"28.7851","state_id":4373,"state_name":"Chisinau Municipality","country_id":144},{"active":false,"Giataid":"643020","cityId":67285,"cityName":"Chisinau","hotelId":20006600,"hotelName":"Hotel Apartments Adresa","address":"Boulevard Negruzzi 1,2001 Chisinau,Moldova","phones":"+37322544392","fax":"+37322272096","email":"adresa@adresa.md","url":"http://www.adresa.md","countryIso2":"MD","countryName":"Moldova","hotelRating":"0","latitude":"47.0133","longitude":"28.8535","state_id":4373,"state_name":"Chisinau Municipality","country_id":144},{"active":false,"Giataid":"622752","cityId":null,"cityName":"Balti","hotelId":20007068,"hotelName":"Elite Hotel","address":"Khotin Street 17,3121 Balti,Moldova","phones":"","fax":"","email":"moldova@me.com","url":"http://www.elitehotel.md/","countryIso2":"MD","countryName":"Moldova","hotelRating":"0","latitude":"47.7584","longitude":"27.9226","state_id":null,"state_name":null,"country_id":null},{"active":false,"Giataid":"451619","cityId":67331,"cityName":"Tiraspol","hotelId":20007209,"hotelName":"Korona Hotel","address":"Odesskoe Shosse 3,3300 Tiraspol,Moldova","phones":"","fax":"","email":"","url":"","countryIso2":"MD","countryName":"Moldova","hotelRating":"0","latitude":"46.8423","longitude":"29.6842","state_id":4395,"state_name":"Transnistria autonomous territorial unit","country_id":144},{"active":false,"Giataid":"724608","cityId":67285,"cityName":"Chisinau","hotelId":20007550,"hotelName":"Park Lane Hotel","address":"Street Mihail Kogalniceanu 93V,2009 Chisinau,Moldova","phones":"+37322901177","fax":"","email":"parklane.moldova@gmail.com","url":"http://www.parklane.md","countryIso2":"MD","countryName":"Moldova","hotelRating":"0","latitude":"47.0235","longitude":"28.8181","state_id":4373,"state_name":"Chisinau Municipality","country_id":144},{"active":false,"Giataid":"451056","cityId":67285,"cityName":"Chisinau","hotelId":20007698,"hotelName":"Komilfo Hotel","address":"Strada Pushkin 47/1,2005 Chisinau,Moldova","phones":"+37322229521","fax":"+37322221284","email":"hotel@komilfo.md","url":"http://komilfo.md","countryIso2":"MD","countryName":"Moldova","hotelRating":"3","latitude":"47.0294","longitude":"28.8434","state_id":4373,"state_name":"Chisinau Municipality","country_id":144},{"active":false,"Giataid":"458592","cityId":67285,"cityName":"Chisinau","hotelId":20007863,"hotelName":"Stil 3 Hotel","address":"Strada Trandafirilo 1,Stauceni,2081 Chisinau,Moldova","phones":"","fax":"","email":"","url":"","countryIso2":"MD","countryName":"Moldova","hotelRating":"0","latitude":"47.096","longitude":"28.87","state_id":4373,"state_name":"Chisinau Municipality","country_id":144},{"active":false,"Giataid":"159751","cityId":67285,"cityName":"Chisinau","hotelId":20008014,"hotelName":"National","address":"Stefan Cel Mare Boulevard 4,2058 Chisinau,Moldova","phones":"","fax":"","email":"","url":"","countryIso2":"MD","countryName":"Moldova","hotelRating":"2","latitude":"47.0143","longitude":"28.848","state_id":4373,"state_name":"Chisinau Municipality","country_id":144},{"active":false,"Giataid":"622759","cityId":67285,"cityName":"Chisinau","hotelId":20008327,"hotelName":"Institutul Muncii Hotel","address":"Street Zimbrului 10,2024 Chisinau,Moldova","phones":"+37322443095","fax":"+37322443095","email":"office@institutulmuncii.md","url":"http://institutulmuncii.md/","countryIso2":"MD","countryName":"Moldova","hotelRating":"0","latitude":"47.0538","longitude":"28.8799","state_id":4373,"state_name":"Chisinau Municipality","country_id":144},{"active":false,"Giataid":"382884","cityId":67285,"cityName":"Chisinau","hotelId":20008619,"hotelName":"Villa Muntenia","address":"Gheorghe Ghimpu 9-1,2075 Chisinau,Moldova","phones":"","fax":"","email":"","url":"","countryIso2":"MD","countryName":"Moldova","hotelRating":"3","latitude":"47.0577","longitude":"28.8953","state_id":4373,"state_name":"Chisinau Municipality","country_id":144},{"active":false,"Giataid":"472526","cityId":67285,"cityName":"Chisinau","hotelId":20008750,"hotelName":"Hotel BACHUS","address":"Strada Calea Ie?ilor 15,MD-2069 Chisinau,Moldavien,Moldova","phones":"+37322592161","fax":"","email":"","url":"","countryIso2":"MD","countryName":"Moldova","hotelRating":"4","latitude":"47.0386","longitude":"28.8026","state_id":4373,"state_name":"Chisinau Municipality","country_id":144},{"active":false,"Giataid":"471527","cityId":67285,"cityName":"Chisinau","hotelId":20008889,"hotelName":"Summit Hotel","address":"StradaTighina 49/3,Ground Floor,2001 Chisinau,Moldova","phones":"+37322888273","fax":"","email":"office@summit.md","url":"http://summit.md","countryIso2":"MD","countryName":"Moldova","hotelRating":"0","latitude":"47.0161","longitude":"28.8419","state_id":4373,"state_name":"Chisinau Municipality","country_id":144},{"active":false,"Giataid":"598924","cityId":67285,"cityName":"Chisinau","hotelId":20009041,"hotelName":"Luxury Apart","address":"Primaverii 11,Chisinau,Moldova","phones":"","fax":"","email":"","url":"","countryIso2":"MD","countryName":"Moldova","hotelRating":"4","latitude":"47.0143","longitude":"28.8374","state_id":4373,"state_name":"Chisinau Municipality","country_id":144},{"active":false,"Giataid":"689431","cityId":67285,"cityName":"Chisinau","hotelId":20009169,"hotelName":"Wine Hotel","address":"Florica Nita Street 20,2024 Chisinau,Moldova","phones":"+37322106650","fax":"","email":"winehotel.moldova@gmail.com","url":"http://www.wine-hotel-chisinau.com/","countryIso2":"MD","countryName":"Moldova","hotelRating":"0","latitude":"47.0383","longitude":"28.8574","state_id":4373,"state_name":"Chisinau Municipality","country_id":144},{"active":false,"Giataid":"467032","cityId":67324,"cityName":"Soroca","hotelId":20009319,"hotelName":"Central Hotel","address":"Mihai Kogalniceanu Street  20,Soroca,Moldova","phones":"+37323023456","fax":"+37323023616","email":"","url":"http://www.soroca-hotel.com/","countryIso2":"MD","countryName":"Moldova","hotelRating":"3","latitude":"48.1552","longitude":"28.2992","state_id":4374,"state_name":"Soroca District","country_id":144},{"active":false,"Giataid":"471085","cityId":67281,"cityName":"Cahul","hotelId":20009408,"hotelName":"Hotel Oasis","address":"Pacii Street 39/9,3909 Cahul,Moldova","phones":"","fax":"","email":"","url":"","countryIso2":"MD","countryName":"Moldova","hotelRating":"0","latitude":"45.8875","longitude":"28.1942","state_id":4391,"state_name":"Cahul District","country_id":144},{"active":false,"Giataid":"426973","cityId":67331,"cityName":"Tiraspol","hotelId":20009690,"hotelName":"Timoty Hotel","address":"Strada Karla Libknehta 395A,3300 Tiraspol,Transnistria,Moldova","phones":"+37353384742","fax":"+37353384921","email":"hotel.timoty@gmail.com","url":"http://www.hotel-timoty.com","countryIso2":"MD","countryName":"Moldova","hotelRating":"3","latitude":"46.8409","longitude":"29.6291","state_id":4395,"state_name":"Transnistria autonomous territorial unit","country_id":144},{"active":false,"Giataid":"466586","cityId":67331,"cityName":"Tiraspol","hotelId":20009859,"hotelName":"Hotel Russia","address":"Ulitsa Sverdlova 69,3300 Tiraspol,Pridnestrovye,Moldova","phones":"+37353338000","fax":"","email":"info@hotelrussia.biz","url":"http://hotelrussia.biz/","countryIso2":"MD","countryName":"Moldova","hotelRating":"4","latitude":"46.8358","longitude":"29.6284","state_id":4395,"state_name":"Transnistria autonomous territorial unit","country_id":144},{"active":false,"Giataid":"726900","cityId":67285,"cityName":"Chisinau","hotelId":20009973,"hotelName":"London Boutique Hotel","address":"Ismail Street 17,2001 Chisinau,Moldova","phones":"","fax":"","email":"","url":"http://londonhotel.md/","countryIso2":"MD","countryName":"Moldova","hotelRating":"0","latitude":"47.0149","longitude":"28.844","state_id":4373,"state_name":"Chisinau Municipality","country_id":144},{"active":false,"Giataid":"613308","cityId":67285,"cityName":"Chisinau","hotelId":20010219,"hotelName":"Hotel Turist","address":"Grigore Vieru Street 9,2005 Chisinau,Moldova","phones":"","fax":"","email":"","url":"","countryIso2":"MD","countryName":"Moldova","hotelRating":"2","latitude":"47.0303","longitude":"28.84","state_id":4373,"state_name":"Chisinau Municipality","country_id":144},{"active":false,"Giataid":"467103","cityId":null,"cityName":"Purcari","hotelId":20010345,"hotelName":"Purcari","address":"4229 Purcari,Stefan-Voda,Moldova","phones":"+37322856022","fax":"","email":"purcari@purcari.md","url":"http://purcari.md/acasa/","countryIso2":"MD","countryName":"Moldova","hotelRating":"4","latitude":"46.5295","longitude":"29.8719","state_id":null,"state_name":null,"country_id":null},{"active":false,"Giataid":"564766","cityId":67285,"cityName":"Chisinau","hotelId":20010689,"hotelName":"Thomas Albert","address":"Strada Lev Tolstoi 3/1,2001 Chisinau,Moldova","phones":"+37322902090","fax":"","email":"info@thomasalbert.md","url":"http://thomasalbert.md/","countryIso2":"MD","countryName":"Moldova","hotelRating":"4","latitude":"47.0108","longitude":"28.8394","state_id":4373,"state_name":"Chisinau Municipality","country_id":144},{"active":false,"Giataid":"471112","cityId":67285,"cityName":"Chisinau","hotelId":20010791,"hotelName":"Nobel Hotel","address":"Alexei Mateevici street 3,Centru,2001 Chisinau,Moldova","phones":"","fax":"","email":"","url":"","countryIso2":"MD","countryName":"Moldova","hotelRating":"3","latitude":"47.0165","longitude":"28.8252","state_id":4373,"state_name":"Chisinau Municipality","country_id":144},{"active":false,"Giataid":"543006","cityId":67285,"cityName":"Chisinau","hotelId":20010932,"hotelName":"Vila Lolo","address":"Lomonosov st., 35,,Chisinau,,Moldawien,Moldova","phones":"","fax":"","email":"","url":"","countryIso2":"MD","countryName":"Moldova","hotelRating":"4","latitude":"46.9998","longitude":"28.8248","state_id":4373,"state_name":"Chisinau Municipality","country_id":144},{"active":false,"Giataid":"643013","cityId":67285,"cityName":"Chisinau","hotelId":20011064,"hotelName":"Suisse Guest House Apartments","address":"Boulevard Stefan cel Mare 148,Chisinau,Moldova","phones":"+37369993338","fax":"","email":"suisse@suisse.md","url":"http://suisse.md/","countryIso2":"MD","countryName":"Moldova","hotelRating":"0","latitude":"47.026","longitude":"28.8307","state_id":4373,"state_name":"Chisinau Municipality","country_id":144},{"active":false,"Giataid":"426974","cityId":67285,"cityName":"Chisinau","hotelId":20011220,"hotelName":"Hotel Olimpia","address":"Decebal Boulevard 72,Building 2,2038 Chisinau,Moldova","phones":"+37369066112","fax":"","email":"mail@hotelolimpia.ru","url":"http://hotelolimpia.ru","countryIso2":"MD","countryName":"Moldova","hotelRating":"2","latitude":"46.9956","longitude":"28.8594","state_id":4373,"state_name":"Chisinau Municipality","country_id":144},{"active":false,"Giataid":"598922","cityId":67285,"cityName":"Chisinau","hotelId":20011360,"hotelName":"City Park Hotel","address":"Eugen Doga 2a,2005 Chisinau,Moldova","phones":"+37322249249","fax":"+37322272766","email":"citypark@citypark.md","url":"http://www.citypark.md/","countryIso2":"MD","countryName":"Moldova","hotelRating":"4","latitude":"47.0273","longitude":"28.8367","state_id":4373,"state_name":"Chisinau Municipality","country_id":144},{"active":false,"Giataid":"472422","cityId":67285,"cityName":"Chisinau","hotelId":20011630,"hotelName":"Ruta88","address":"Uzinelor 88,Ciocana,2023 Chi?inau,Moldova","phones":"","fax":"","email":"","url":"http://www.agoda.com/en-sg/ruta88/hotel/chisinau-md.html","countryIso2":"MD","countryName":"Moldova","hotelRating":"2","latitude":"47.0002","longitude":"28.8943","state_id":4373,"state_name":"Chisinau Municipality","country_id":144},{"active":false,"Giataid":"884359","cityId":67331,"cityName":"Tiraspol","hotelId":20350242,"hotelName":"Like Home","address":"Garden Lane 9b,Tiraspol,Moldova","phones":"","fax":"","email":"","url":"http://like-home-hostel.business.site/","countryIso2":"MD","countryName":"Moldova","hotelRating":"0","latitude":"46.8357","longitude":"29.6289","state_id":4395,"state_name":"Transnistria autonomous territorial unit","country_id":144},{"active":false,"Giataid":"870221","cityId":null,"cityName":"Butuceni","hotelId":20350243,"hotelName":"Resedinta Rotundu","address":"Butuceni Main Road,3503 Butuceni,Moldova","phones":"","fax":"","email":"","url":"","countryIso2":"MD","countryName":"Moldova","hotelRating":"0","latitude":"47.2987","longitude":"28.9806","state_id":null,"state_name":null,"country_id":null},{"active":false,"Giataid":"942583","cityId":null,"cityName":"Balti","hotelId":20350245,"hotelName":"Consul Hotel","address":"Mircea Cel Batrin 81,3100 Balti,Moldova","phones":"","fax":"","email":"","url":"","countryIso2":"MD","countryName":"Moldova","hotelRating":"0","latitude":"47.7523","longitude":"27.9354","state_id":null,"state_name":null,"country_id":null},{"active":false,"Giataid":"905199","cityId":67285,"cityName":"Chisinau","hotelId":20350250,"hotelName":"Mon Ami Villa","address":"Strada Mihai Eminescu 44/1,2012 Chisinau,Moldova","phones":"+37360636969","fax":"","email":"","url":"http://mon-ami-villa.business.site/","countryIso2":"MD","countryName":"Moldova","hotelRating":"0","latitude":"47.0143","longitude":"28.8374","state_id":4373,"state_name":"Chisinau Municipality","country_id":144},{"active":false,"Giataid":"970362","cityId":67285,"cityName":"Chisinau","hotelId":20412856,"hotelName":"U Baby Mariny","address":"Valeriy Cupcea 38,Private House,2009 Chisinau,Moldova","phones":"","fax":"","email":"","url":"","countryIso2":"MD","countryName":"Moldova","hotelRating":"1","latitude":"47.0143","longitude":"28.8374","state_id":4373,"state_name":"Chisinau Municipality","country_id":144},{"active":false,"Giataid":"970421","cityId":67285,"cityName":"Chisinau","hotelId":20412858,"hotelName":"Roxen Hotel & Spa","address":"Cojocarilor 17,2001 Chisinau,Moldova","phones":"+37322101022","fax":"","email":"info@roxen.md","url":"http://roxen.md","countryIso2":"MD","countryName":"Moldova","hotelRating":"4","latitude":"47.0143","longitude":"28.8374","state_id":4373,"state_name":"Chisinau Municipality","country_id":144},{"active":false,"Giataid":"969281","cityId":67285,"cityName":"Chisinau","hotelId":20412860,"hotelName":"Aquaterra Hotel & SPA","address":"Bulevardul  Decebal 6/3,2038 Chisinau,Moldova","phones":"+37322005775","fax":"","email":"info@aquaterrahotel.md","url":"http://www.aquaterrahotel.md","countryIso2":"MD","countryName":"Moldova","hotelRating":"1","latitude":"47.0143","longitude":"28.8374","state_id":4373,"state_name":"Chisinau Municipality","country_id":144},{"active":false,"Giataid":"969302","cityId":67285,"cityName":"Chisinau","hotelId":20412862,"hotelName":"Catherine Hotel","address":"Strada Calarasi 45,2069 Chisinau,Moldova","phones":"","fax":"","email":"","url":"","countryIso2":"MD","countryName":"Moldova","hotelRating":"1","latitude":"47.0143","longitude":"28.8374","state_id":4373,"state_name":"Chisinau Municipality","country_id":144},{"active":false,"Giataid":"969150","cityId":67285,"cityName":"Chisinau","hotelId":20412864,"hotelName":"Hostel Center City","address":"Alexander Pushkin Street 32,2012 Chisinau,Moldova","phones":"","fax":"","email":"","url":"http://city-hostel.md","countryIso2":"MD","countryName":"Moldova","hotelRating":"1","latitude":"47.0143","longitude":"28.8374","state_id":4373,"state_name":"Chisinau Municipality","country_id":144},{"active":false,"Giataid":"970491","cityId":67285,"cityName":"Chisinau","hotelId":20412865,"hotelName":"Casa Lion","address":"Strada Colina Puskin 4,2025 Chisinau,Moldova","phones":"","fax":"","email":"","url":"","countryIso2":"MD","countryName":"Moldova","hotelRating":"1","latitude":"47.0143","longitude":"28.8374","state_id":4373,"state_name":"Chisinau Municipality","country_id":144},{"active":false,"Giataid":"969240","cityId":67285,"cityName":"Chisinau","hotelId":20412866,"hotelName":"Casa Daca Boutique Hotel","address":"Street Mitropolit Gavriil Banulescu-Bodoni 17A,2012 Chisinau,Moldova","phones":"","fax":"","email":"hotel@casadaca.com","url":"http://casadaca.com","countryIso2":"MD","countryName":"Moldova","hotelRating":"1","latitude":"47.0143","longitude":"28.8374","state_id":4373,"state_name":"Chisinau Municipality","country_id":144},{"active":false,"Giataid":"970340","cityId":67285,"cityName":"Chisinau","hotelId":20412868,"hotelName":"Fides","address":"Strada Musatinilor 1/3,2071 Chisinau,Moldova","phones":"","fax":"","email":"","url":"","countryIso2":"MD","countryName":"Moldova","hotelRating":"1","latitude":"47.0143","longitude":"28.8374","state_id":4373,"state_name":"Chisinau Municipality","country_id":144},{"active":false,"Giataid":"970392","cityId":null,"cityName":"Balti","hotelId":20412870,"hotelName":"Astoria Boutique Hotel","address":"Strada Nicolae Lorga 26,3100 Balti,Moldova","phones":"","fax":"","email":"","url":"","countryIso2":"MD","countryName":"Moldova","hotelRating":"1","latitude":"47.7635","longitude":"27.929","state_id":null,"state_name":null,"country_id":null},{"active":false,"Giataid":"970463","cityId":67285,"cityName":"Chisinau","hotelId":20412871,"hotelName":"Hostel Artico","address":"Boulevard ?tefan Cel Mare 169,2004 Mun Chisinau,Moldova","phones":"+37322856200","fax":"+37322296355","email":"info@artico.md","url":"http://artico.md","countryIso2":"MD","countryName":"Moldova","hotelRating":"1","latitude":"47.0143","longitude":"28.8374","state_id":4373,"state_name":"Chisinau Municipality","country_id":144},{"active":false,"Giataid":"974549","cityId":67331,"cityName":"Tiraspol","hotelId":20412872,"hotelName":"Hostel at the Center of Tiraspol","address":"Karla Marksa Street 129,Apartment 35,3300 Tiraspol,Moldova","phones":"","fax":"","email":"","url":"","countryIso2":"MD","countryName":"Moldova","hotelRating":"1","latitude":"46.8357","longitude":"29.6289","state_id":4395,"state_name":"Transnistria autonomous territorial unit","country_id":144},{"active":false,"Giataid":"1003934","cityId":67273,"cityName":"Bender","hotelId":20436663,"hotelName":"Dnestrovskie Zori","address":"Ozdorovitel'nyi Kompleks,Selo Mereneshty,3200 Bender,Moldova","phones":"","fax":"","email":"","url":"","countryIso2":"MD","countryName":"Moldova","hotelRating":"1","latitude":"46.8197","longitude":"29.4813","state_id":4362,"state_name":"Bender Municipality","country_id":144},{"active":false,"Giataid":"1003898","cityId":67285,"cityName":"Chisinau","hotelId":20436665,"hotelName":"Hostel Durlesti","address":"Street Alexei Mateevici 2,Durlesti,2003 Chisinau,Moldova","phones":"","fax":"","email":"","url":"","countryIso2":"MD","countryName":"Moldova","hotelRating":"1","latitude":"47.0143","longitude":"28.8374","state_id":4373,"state_name":"Chisinau Municipality","country_id":144}]