[{"active":false,"Giataid":"16399","cityId":null,"cityName":"Virgin Gorda","hotelId":16399,"hotelName":"Rosewood Little Dix Bay","address":"P.O. Box 70,Virgin Gorda 1150,Virgin Islands, British","phones":"+12844955555","fax":"+12844955661","email":"littledixbay@rosewoodhotels.com","url":"http://www.littledixbay.com","countryIso2":"VG","countryName":"Virgin Islands, British","hotelRating":"5","latitude":"18.4594","longitude":"-64.435","state_id":null,"state_name":null,"country_id":null},{"active":false,"Giataid":"16452","cityId":null,"cityName":"Long Bay Beach","hotelId":16452,"hotelName":"Long Bay Beach Club","address":"P.O. Box 433,Road Town,West End,Long Bay Beach,Tortola,Virgin Islands, British","phones":"+12848523460","fax":"","email":"","url":"http://www.longbay.com/","countryIso2":"VG","countryName":"Virgin Islands, British","hotelRating":"3","latitude":"18.397","longitude":"-64.6889","state_id":null,"state_name":null,"country_id":null},{"active":false,"Giataid":"18982","cityId":null,"cityName":"Tortola","hotelId":18982,"hotelName":"Peter Island Resort & Spa","address":"P.O. Box 211,Road Town  ,Tortola 00801 2409,Peter Island,Virgin Islands, British","phones":"+12844952000","fax":"+12844952500","email":"","url":"http://www.peterisland.com","countryIso2":"VG","countryName":"Virgin Islands, British","hotelRating":"4","latitude":"18.359","longitude":"-64.5754","state_id":null,"state_name":null,"country_id":null},{"active":false,"Giataid":"23011","cityId":null,"cityName":"Apple Bay","hotelId":23011,"hotelName":"The Sugar Mill","address":"Apple Bay,Tortola,Virgin Islands, British","phones":"+12844954355","fax":"+12844954696","email":"sugmill@surfbvi.com","url":"http://www.sugarmillhotel.com","countryIso2":"VG","countryName":"Virgin Islands, British","hotelRating":"4","latitude":"18.4019","longitude":"-64.6769","state_id":null,"state_name":null,"country_id":null},{"active":false,"Giataid":"27353","cityId":null,"cityName":"Road Town","hotelId":27353,"hotelName":"Prospect Reef Resort","address":"","phones":"","fax":"","email":"","url":"","countryIso2":"VG","countryName":"Virgin Islands, British","hotelRating":"3","latitude":"18.4167","longitude":"-64.64","state_id":null,"state_name":null,"country_id":null},{"active":false,"Giataid":"182807","cityId":null,"cityName":"Guana Island","hotelId":182807,"hotelName":"Guana Island","address":"Guana Island,Virgin Islands, British","phones":"+12842124826247","fax":"+12849175916631","email":"reservations@guana.com","url":"http://www.guana.com/contact/contact.php","countryIso2":"VG","countryName":"Virgin Islands, British","hotelRating":"4","latitude":"18.4789","longitude":"-64.5771","state_id":null,"state_name":null,"country_id":null},{"active":false,"Giataid":"247751","cityId":null,"cityName":"Virgin Gorda","hotelId":247751,"hotelName":"Gordian Terrace","address":"P.O. Box 1102,Little Hill,Spanish Town,Virgin Gorda VG1150,Tortola,Virgin Islands, British","phones":"+12844955338","fax":"+12844955761","email":"info@gordianhouse.com","url":"http://www.gordianhouse.com/index.php?pagename=Home&amp;menuname=Home","countryIso2":"VG","countryName":"Virgin Islands, British","hotelRating":"3","latitude":"18.4889","longitude":"-64.3908","state_id":null,"state_name":null,"country_id":null},{"active":false,"Giataid":"505879","cityId":null,"cityName":"Road Town","hotelId":505879,"hotelName":"Fort Burt Hotel","address":"","phones":"","fax":"","email":"","url":"","countryIso2":"VG","countryName":"Virgin Islands, British","hotelRating":"2","latitude":"18.4128","longitude":"-64.6144","state_id":null,"state_name":null,"country_id":null},{"active":false,"Giataid":"552564","cityId":null,"cityName":"Virgin Gorda","hotelId":552564,"hotelName":"Oil Nut Bay","address":"Virgin Gorda,Virgin Islands, British","phones":"+128418007610377","fax":"","email":"info@oilnutbay.com","url":"http://www.oilnutbay.com/","countryIso2":"VG","countryName":"Virgin Islands, British","hotelRating":"5","latitude":"18.4999","longitude":"-64.3301","state_id":null,"state_name":null,"country_id":null},{"active":false,"Giataid":"497626","cityId":null,"cityName":"Road Town","hotelId":10059701,"hotelName":"Maria's By The Sea Hotel","address":"PO Box 2364,Road Town VG1110,Tortola,Virgin Islands, British","phones":"+12844942595","fax":"","email":"","url":"","countryIso2":"VG","countryName":"Virgin Islands, British","hotelRating":"3","latitude":"18.4212","longitude":"-64.6174","state_id":null,"state_name":null,"country_id":null},{"active":false,"Giataid":"495987","cityId":null,"cityName":"Tortola","hotelId":10062890,"hotelName":"Allamanda Estate Villa","address":"PO Box 848,Tortola VG1110,Beef Island,Virgin Islands, British","phones":"","fax":"","email":"","url":"","countryIso2":"VG","countryName":"Virgin Islands, British","hotelRating":"3","latitude":"18.4504","longitude":"-64.5519","state_id":null,"state_name":null,"country_id":null},{"active":false,"Giataid":"495987","cityId":null,"cityName":"Tortola","hotelId":10062890,"hotelName":"Allamanda Estate Villa","address":"PO Box 848,Tortola VG1110,Beef Island,Virgin Islands, British","phones":"","fax":"","email":"","url":"","countryIso2":"VG","countryName":"Virgin Islands, British","hotelRating":"3","latitude":"18.4504","longitude":"-64.5519","state_id":null,"state_name":null,"country_id":null},{"active":false,"Giataid":"423458","cityId":null,"cityName":"Tortola","hotelId":10070264,"hotelName":"Icis Villas","address":"Palms Valley,Brewers Bay,Tortola,Virgin Islands, British","phones":"+12844946979","fax":"","email":"","url":"","countryIso2":"VG","countryName":"Virgin Islands, British","hotelRating":"3","latitude":"18.4335","longitude":"-64.6333","state_id":null,"state_name":null,"country_id":null},{"active":false,"Giataid":"428675","cityId":null,"cityName":"Anegada Island","hotelId":10070323,"hotelName":"Anegada Beach Club","address":"Keel Point,Anegada VG1140,Virgin Islands, British","phones":"+12848524500","fax":"","email":"","url":"","countryIso2":"VG","countryName":"Virgin Islands, British","hotelRating":"3","latitude":"18.7458","longitude":"-64.3791","state_id":null,"state_name":null,"country_id":null},{"active":false,"Giataid":"531599","cityId":null,"cityName":"Tortola","hotelId":10073817,"hotelName":"Sea Crest Inn","address":"Great Harbour,Jost Van Dyke,Virgin Islands, British","phones":"","fax":"","email":"","url":"","countryIso2":"VG","countryName":"Virgin Islands, British","hotelRating":"2","latitude":"18.4435","longitude":"-64.7488","state_id":null,"state_name":null,"country_id":null},{"active":false,"Giataid":"90575","cityId":null,"cityName":"Virgin Gorda","hotelId":10091980,"hotelName":"Mango Bay Resort","address":"Virgin Gorda,British Virgin Islands,Virgin Islands, British","phones":"+12844955672","fax":"NULL","email":"NULL","url":"NULL","countryIso2":"VG","countryName":"Virgin Islands, British","hotelRating":"3","latitude":"18.4479","longitude":"-64.4292","state_id":null,"state_name":null,"country_id":null},{"active":false,"Giataid":"497703","cityId":null,"cityName":"Road Town","hotelId":10097724,"hotelName":"The Mariner Inn Hotel","address":"2 Wickhams Cay,Road Town,Tortola,Virgin Islands, British","phones":"NULL","fax":"NULL","email":"NULL","url":"NULL","countryIso2":"VG","countryName":"Virgin Islands, British","hotelRating":"3","latitude":"18.4263","longitude":"-64.614","state_id":null,"state_name":null,"country_id":null},{"active":false,"Giataid":"529659","cityId":null,"cityName":"Jost Van Dyke","hotelId":10103599,"hotelName":"White Bay Villas","address":"White Bay,Jost Van Dyke,Virgin Islands, British","phones":"+128418007788066","fax":"NULL","email":"NULL","url":"NULL","countryIso2":"VG","countryName":"Virgin Islands, British","hotelRating":"4","latitude":"18.4409","longitude":"-64.7574","state_id":null,"state_name":null,"country_id":null},{"active":false,"Giataid":"670294","cityId":null,"cityName":"Road Town","hotelId":10107078,"hotelName":"Sea View Hotel","address":"2 McNamara Road,Road Town,Tortola,Virgin Islands, British","phones":"+12844942483","fax":"NULL","email":"NULL","url":"NULL","countryIso2":"VG","countryName":"Virgin Islands, British","hotelRating":"2","latitude":"18.4139","longitude":"-64.6166","state_id":null,"state_name":null,"country_id":null},{"active":false,"Giataid":"503283","cityId":null,"cityName":"Beef Island","hotelId":10110566,"hotelName":"Beef Island Guest House","address":"Box 494 East End,Beef Island,Tortola,Virgin Islands, British","phones":"NULL","fax":"NULL","email":"NULL","url":"NULL","countryIso2":"VG","countryName":"Virgin Islands, British","hotelRating":"2","latitude":"18.4443","longitude":"-64.5334","state_id":null,"state_name":null,"country_id":null},{"active":false,"Giataid":"497282","cityId":null,"cityName":"Virgin Gorda","hotelId":10118750,"hotelName":"Fischer's Cove Beach Hotel & Restaurant","address":"The Valley,PO Box 60,Virgin Gorda,Virgin Islands, British","phones":"+12844955252","fax":"NULL","email":"NULL","url":"NULL","countryIso2":"VG","countryName":"Virgin Islands, British","hotelRating":"3","latitude":"18.444","longitude":"-64.4394","state_id":null,"state_name":null,"country_id":null},{"active":false,"Giataid":"497193","cityId":null,"cityName":"Road Town","hotelId":10120725,"hotelName":"Greenbank Estate Villas","address":"Ridge Road,Greenbank Estate,Road Town VG1150,Anderson,Virgin Islands, British","phones":"NULL","fax":"NULL","email":"NULL","url":"NULL","countryIso2":"VG","countryName":"Virgin Islands, British","hotelRating":"3","latitude":"18.4315","longitude":"-64.6415","state_id":null,"state_name":null,"country_id":null},{"active":false,"Giataid":"503998","cityId":null,"cityName":"Road Town","hotelId":10122816,"hotelName":"Hotel Castle Maria","address":"Road Town,Tortola,Virgin Islands, British","phones":"NULL","fax":"NULL","email":"NULL","url":"NULL","countryIso2":"VG","countryName":"Virgin Islands, British","hotelRating":"2","latitude":"18.4137","longitude":"-64.6178","state_id":null,"state_name":null,"country_id":null},{"active":false,"Giataid":"300280","cityId":null,"cityName":"Road Town","hotelId":20001713,"hotelName":"Limeberry House by Villas Caribe","address":"Belmont,Tortola,Britisch Virgin Islands,Virgin Islands, British","phones":"","fax":"","email":"","url":"http://tortola.villascaribe.com/villa-listing/limeberry-house/print/","countryIso2":"VG","countryName":"Virgin Islands, British","hotelRating":"0","latitude":"18.3928","longitude":"-64.6931","state_id":null,"state_name":null,"country_id":null},{"active":false,"Giataid":"407282","cityId":null,"cityName":"Tortola","hotelId":20001899,"hotelName":"Surfsong Villa Resort","address":"Well Bay,Beef Island,Tortola,Virgin Islands, British","phones":"+12844951864","fax":"","email":"info@surfsong.net","url":"http://www.surfsong.net","countryIso2":"VG","countryName":"Virgin Islands, British","hotelRating":"4","latitude":"18.4391","longitude":"-64.5441","state_id":null,"state_name":null,"country_id":null},{"active":false,"Giataid":"109470","cityId":null,"cityName":"Virgin Gorda","hotelId":20002062,"hotelName":"Virgin Gorda Village","address":"PO Box 26,The Valley,Virgin Gorda VG1150,Virgin Islands, British","phones":"+12844955544","fax":"","email":"","url":"http://www.virgingordavillage.com/","countryIso2":"VG","countryName":"Virgin Islands, British","hotelRating":"0","latitude":"18.4943","longitude":"-64.4003","state_id":null,"state_name":null,"country_id":null},{"active":false,"Giataid":"299877","cityId":null,"cityName":"Tortola","hotelId":20002284,"hotelName":"Lemongrass by Villas Caribe","address":"Cane Garden Bay,Tortola,Virgin Islands, British","phones":"+12842844048159855","fax":"","email":"","url":"http://www.villascaribe.com/villa-listing/lemon-grass","countryIso2":"VG","countryName":"Virgin Islands, British","hotelRating":"3","latitude":"18.4308","longitude":"-64.6619","state_id":null,"state_name":null,"country_id":null},{"active":false,"Giataid":"300351","cityId":null,"cityName":"Tortola","hotelId":20002463,"hotelName":"Captain's House by Villas Caribe","address":"Long Bay Beach,Belmont,Tortola,Virgin Islands, British","phones":"","fax":"","email":"","url":"http://www.villascaribe.com/villa-listing/captains-house","countryIso2":"VG","countryName":"Virgin Islands, British","hotelRating":"0","latitude":"18.3969","longitude":"-64.6889","state_id":null,"state_name":null,"country_id":null},{"active":false,"Giataid":"690251","cityId":null,"cityName":"Virgin Gorda","hotelId":20002673,"hotelName":"Valley Trunk Villa Resort","address":"Tower Road,Virgin Gorda VG1150,Virgin Islands, British","phones":"","fax":"","email":"info@valleytrunk.com","url":"http://valleytrunk.com/","countryIso2":"VG","countryName":"Virgin Islands, British","hotelRating":"0","latitude":"18.4366","longitude":"-64.4418","state_id":null,"state_name":null,"country_id":null},{"active":false,"Giataid":"645727","cityId":null,"cityName":"Virgin Gorda","hotelId":20002882,"hotelName":"Necker Island","address":"Necker Island,British Virgin Islands,Virgin Islands, British","phones":"+1284442086000430","fax":"","email":"enquiries@virginlimitededition.com","url":"http://www.virginlimitededition.com/en/necker-island","countryIso2":"VG","countryName":"Virgin Islands, British","hotelRating":"0","latitude":"18.5272","longitude":"-64.3577","state_id":null,"state_name":null,"country_id":null},{"active":false,"Giataid":"295806","cityId":null,"cityName":"Little Harbour","hotelId":20003121,"hotelName":"Cinnamon Reef Beach Club","address":"Little Harbour,Anguilla,Virgin Islands, British","phones":"","fax":"","email":"","url":"","countryIso2":"VG","countryName":"Virgin Islands, British","hotelRating":"0","latitude":"18.188","longitude":"-63.0703","state_id":null,"state_name":null,"country_id":null},{"active":false,"Giataid":"27352","cityId":null,"cityName":"Lambert Bay","hotelId":20003356,"hotelName":"Lambert Beach Resort","address":"Tortola,British Virgin Islands,Virgin Islands, British","phones":"+12844952877","fax":"+12844952876","email":"Manager@LambertResort.com","url":"http://www.lambertresort.com/england/home.htm","countryIso2":"VG","countryName":"Virgin Islands, British","hotelRating":"3","latitude":"18.4498","longitude":"-64.5784","state_id":null,"state_name":null,"country_id":null},{"active":false,"Giataid":"509492","cityId":null,"cityName":"Little Harbour","hotelId":20003586,"hotelName":"Secret's Oceanfront Vacation Villa","address":"Island Harbour,Virgin Islands, British","phones":"","fax":"","email":"","url":"","countryIso2":"VG","countryName":"Virgin Islands, British","hotelRating":"4","latitude":"18.2578","longitude":"-63.0047","state_id":null,"state_name":null,"country_id":null},{"active":false,"Giataid":"509500","cityId":null,"cityName":"Little Harbour","hotelId":20003748,"hotelName":"Seawater Villa","address":"Island Harbour,Virgin Islands, British","phones":"","fax":"","email":"","url":"","countryIso2":"VG","countryName":"Virgin Islands, British","hotelRating":"4","latitude":"18.2564","longitude":"-63.0009","state_id":null,"state_name":null,"country_id":null},{"active":false,"Giataid":"163114","cityId":null,"cityName":"Tortola","hotelId":20003964,"hotelName":"Nanny Cay Resort Marina","address":"Road Town,Nanny Cay,Tortola,Virgin Islands, British","phones":"+12843452657","fax":"","email":"hotelreservations@nannycay.com","url":"http://nannycay.com/","countryIso2":"VG","countryName":"Virgin Islands, British","hotelRating":"3","latitude":"18.3987","longitude":"-64.6343","state_id":null,"state_name":null,"country_id":null},{"active":false,"Giataid":"556979","cityId":null,"cityName":"Lambert Bay","hotelId":20004142,"hotelName":"Turtle Bay Resort","address":"PO Box 53415,East End,Tortola,Virgin Islands, British","phones":"+12844952877","fax":"","email":"info@turtlebaybvi.com","url":"http://turtlebaybvi.com/","countryIso2":"VG","countryName":"Virgin Islands, British","hotelRating":"4","latitude":"18.4501","longitude":"-64.579","state_id":null,"state_name":null,"country_id":null},{"active":false,"Giataid":"300347","cityId":null,"cityName":"Beef Island","hotelId":20004323,"hotelName":"Surfside at Surfsong by Villas Caribe","address":"Well Bay Beach,Road Town,Beef Island,Virgin Islands, British","phones":"","fax":"","email":"","url":"http://www.villascaribe.com/villa-listing/surfside-at-surfsong","countryIso2":"VG","countryName":"Virgin Islands, British","hotelRating":"0","latitude":"18.439","longitude":"-64.5437","state_id":null,"state_name":null,"country_id":null},{"active":false,"Giataid":"300343","cityId":null,"cityName":"Beef Island","hotelId":20004509,"hotelName":"Driftwood at Surfsong by Villas Caribe","address":"Well Bay,Beef Island,Virgin Islands, British","phones":"","fax":"","email":"","url":"http://www.villascaribe.com/villa-listing/driftwood-at-surfsong","countryIso2":"VG","countryName":"Virgin Islands, British","hotelRating":"0","latitude":"18.4399","longitude":"-64.5449","state_id":null,"state_name":null,"country_id":null},{"active":false,"Giataid":"726438","cityId":null,"cityName":"Road Town","hotelId":20004674,"hotelName":"Village Cay Hotel and Marina","address":"Nibbs Street,Road Town 1110,Tortola,Virgin Islands, British","phones":"+12844942771","fax":"","email":"info@villagecaybvi.com","url":"http://villagecaybvi.com","countryIso2":"VG","countryName":"Virgin Islands, British","hotelRating":"0","latitude":"18.4167","longitude":"-64.64","state_id":null,"state_name":null,"country_id":null},{"active":false,"Giataid":"594157","cityId":null,"cityName":"Virgin Gorda","hotelId":20004848,"hotelName":"Sea Palms Luxury 4 bedroom Villa","address":"Plum Bay Road,Virgin Gorda VG1150,Virgin Islands, British","phones":"","fax":"","email":"","url":"","countryIso2":"VG","countryName":"Virgin Islands, British","hotelRating":"3","latitude":"18.4759","longitude":"-64.4036","state_id":null,"state_name":null,"country_id":null},{"active":false,"Giataid":"51761","cityId":null,"cityName":"Virgin Gorda","hotelId":20005079,"hotelName":"Leverick Bay Resort & Marina","address":"Virgin Gorda,British Virgin Islands,Virgin Islands, British","phones":"+12842844957421","fax":"+12842844957367","email":"leverick@surfbvi.com","url":"http://www.leverickbay.com","countryIso2":"VG","countryName":"Virgin Islands, British","hotelRating":"3","latitude":"18.4972","longitude":"-64.3859","state_id":null,"state_name":null,"country_id":null},{"active":false,"Giataid":"300346","cityId":null,"cityName":"Beef Island","hotelId":20005227,"hotelName":"Seascape at Surfsong by Villas Caribe","address":"Well Bay,Road Town,Beef Island,Virgin Islands, British","phones":"","fax":"","email":"","url":"http://www.villascaribe.com/villa-listing/seascape-at-surfsong","countryIso2":"VG","countryName":"Virgin Islands, British","hotelRating":"0","latitude":"18.4402","longitude":"-64.5449","state_id":null,"state_name":null,"country_id":null},{"active":false,"Giataid":"300281","cityId":null,"cityName":"Road Town","hotelId":20005422,"hotelName":"Limeberry Villa by Villas Caribe","address":"Belmont,Tortola,Britisch Virgin Islands,Virgin Islands, British","phones":"","fax":"","email":"","url":"http://tortola.villascaribe.com/villa-listing/limeberry-villa/print/","countryIso2":"VG","countryName":"Virgin Islands, British","hotelRating":"0","latitude":"18.3928","longitude":"-64.6931","state_id":null,"state_name":null,"country_id":null},{"active":false,"Giataid":"513323","cityId":null,"cityName":"Tortola","hotelId":20005588,"hotelName":"The Tamarind Club","address":"P.O. Box 509,East End,Tortola VG1120,Virgin Islands, British","phones":"+12844952477","fax":"+12844952795","email":"tamarind@tamarindclub.com","url":"http://tamarindclub.com/","countryIso2":"VG","countryName":"Virgin Islands, British","hotelRating":"0","latitude":"18.4169","longitude":"-64.6439","state_id":null,"state_name":null,"country_id":null},{"active":false,"Giataid":"299913","cityId":null,"cityName":"Tortola","hotelId":20005754,"hotelName":"Pool House by Villas Caribe","address":"Wells Bay,East End,Tortola,Virgin Islands, British","phones":"+128414048159855","fax":"","email":"","url":"http://tortola.villascaribe.com/villa-listing/pool-house-at-surfsong","countryIso2":"VG","countryName":"Virgin Islands, British","hotelRating":"0","latitude":"18.4409","longitude":"-64.5447","state_id":null,"state_name":null,"country_id":null},{"active":false,"Giataid":"531970","cityId":null,"cityName":"Tortola","hotelId":20005923,"hotelName":"The Lighthouse Villas","address":"Malcia A. Rymer Bean  C/O Rush - It,Cane Garden Bay,Virgin Islands, British","phones":"+12844945482","fax":"","email":"","url":"http://lighthousevillasbvi.com/","countryIso2":"VG","countryName":"Virgin Islands, British","hotelRating":"3","latitude":"18.4261","longitude":"-64.6569","state_id":null,"state_name":null,"country_id":null},{"active":false,"Giataid":"48357","cityId":null,"cityName":"Virgin Gorda","hotelId":20006104,"hotelName":"Katitche Point Greathouse","address":"P.O. Box 1192,Virgin Gorda VG 1150,Virgin Islands, British","phones":"","fax":"","email":"","url":"http://www.katitchepoint.com","countryIso2":"VG","countryName":"Virgin Islands, British","hotelRating":"5","latitude":"18.4759","longitude":"-64.4036","state_id":null,"state_name":null,"country_id":null},{"active":false,"Giataid":"656221","cityId":null,"cityName":"Tortola","hotelId":20006287,"hotelName":"La Vida Villa","address":"Nail Bay,Spanish Town,Tortola,Virgin Islands, British","phones":"","fax":"","email":"","url":"","countryIso2":"VG","countryName":"Virgin Islands, British","hotelRating":"0","latitude":"18.4343","longitude":"-64.6329","state_id":null,"state_name":null,"country_id":null},{"active":false,"Giataid":"521581","cityId":null,"cityName":"Anegada Island","hotelId":20006599,"hotelName":"Keel Point Cottages","address":"Anegada Island,Virgin Islands, British","phones":"+12844410296","fax":"","email":"keelpointcottages@yahoo.com","url":"http://www.keelpointcottages.com/","countryIso2":"VG","countryName":"Virgin Islands, British","hotelRating":"0","latitude":"18.7435","longitude":"-64.3792","state_id":null,"state_name":null,"country_id":null},{"active":false,"Giataid":"261039","cityId":null,"cityName":"Tortola","hotelId":20006761,"hotelName":"Frenchman's Cay Resort","address":"Frenchman Cay,Tortola,Virgin Islands, British","phones":"+12844948811","fax":"","email":"info@frenchmansbvi.com","url":"https://www.frenchmansbvi.com","countryIso2":"VG","countryName":"Virgin Islands, British","hotelRating":"4","latitude":"18.3843","longitude":"-64.6936","state_id":null,"state_name":null,"country_id":null},{"active":false,"Giataid":"300350","cityId":null,"cityName":"Tortola","hotelId":20006928,"hotelName":"BVI Villa by Villas Caribe","address":"Belmont,Tortola,Virgin Islands, British","phones":"","fax":"","email":"","url":"http://www.villascaribe.com/villa-listing/bvi-villa","countryIso2":"VG","countryName":"Virgin Islands, British","hotelRating":"0","latitude":"18.3916","longitude":"-64.6968","state_id":null,"state_name":null,"country_id":null},{"active":false,"Giataid":"556979","cityId":null,"cityName":"Lambert Bay","hotelId":20007254,"hotelName":"Turtle Bay Lambert Beach Resort","address":"PO Box 534,East End,Tortola,British Virgin Islands,Virgin Islands, British","phones":"+12844952877","fax":"","email":"info@turtlebaybvi.com","url":"http://turtlebaybvi.com/","countryIso2":"VG","countryName":"Virgin Islands, British","hotelRating":"4","latitude":"18.4502","longitude":"-64.5789","state_id":null,"state_name":null,"country_id":null},{"active":false,"Giataid":"486304","cityId":null,"cityName":"Road Town","hotelId":20007442,"hotelName":"JY Harbour View Marina","address":"East End,Parham Town,Road Town VG1120,Virgin Islands, British","phones":"","fax":"","email":"","url":"http://www.bviharbourview.com/","countryIso2":"VG","countryName":"Virgin Islands, British","hotelRating":"0","latitude":"18.4286","longitude":"-64.6185","state_id":null,"state_name":null,"country_id":null},{"active":false,"Giataid":"525072","cityId":null,"cityName":"Road Town","hotelId":20007633,"hotelName":"The Refuge","address":"P.O. Box 676 Road Town,Tortola,Virgin Islands, British","phones":"+12845413001","fax":"","email":"info@therefugebvi.com","url":"http://www.therefugebvi.com","countryIso2":"VG","countryName":"Virgin Islands, British","hotelRating":"0","latitude":"18.4167","longitude":"-64.64","state_id":null,"state_name":null,"country_id":null},{"active":false,"Giataid":"300340","cityId":null,"cityName":"Virgin Gorda","hotelId":20007745,"hotelName":"Amateras by Villas Caribe","address":"Windy Hill,Virgin Gorda,Virgin Islands, British","phones":"","fax":"","email":"","url":"http://www.villascaribe.com/villa-listing/amateras","countryIso2":"VG","countryName":"Virgin Islands, British","hotelRating":"0","latitude":"18.442","longitude":"-64.4334","state_id":null,"state_name":null,"country_id":null},{"active":false,"Giataid":"521496","cityId":null,"cityName":"Tortola","hotelId":20007921,"hotelName":"The Heritage Inn","address":"Windy Hill, Cane Garden Bay,Tortola Island,Virgin Islands, British","phones":"+128418778317230","fax":"","email":"","url":"http://heritageinnbvi.com/","countryIso2":"VG","countryName":"Virgin Islands, British","hotelRating":"3","latitude":"18.4165","longitude":"-64.6703","state_id":null,"state_name":null,"country_id":null},{"active":false,"Giataid":"759962","cityId":null,"cityName":"Tortola","hotelId":20385345,"hotelName":"Cielo Villa","address":"44 Luck Hill,Tortola,Virgin Islands, British","phones":"+128419784627091","fax":"","email":"nancyshawkilty@comcast.net","url":"http://www.cielovilla.co/","countryIso2":"VG","countryName":"Virgin Islands, British","hotelRating":"0","latitude":"18.4169","longitude":"-64.6439","state_id":null,"state_name":null,"country_id":null},{"active":false,"Giataid":"752137","cityId":null,"cityName":"Road Town","hotelId":20385346,"hotelName":"The Fish'n Lime Inn","address":"PO Box 3566,Road Town VG1110,Tortola,Virgin Islands, British","phones":"+12844954276","fax":"","email":"willyt09@surfbvi.com","url":"http://www.fishnlime.com","countryIso2":"VG","countryName":"Virgin Islands, British","hotelRating":"0","latitude":"18.4167","longitude":"-64.64","state_id":null,"state_name":null,"country_id":null},{"active":false,"Giataid":"500695","cityId":null,"cityName":"Jost Van Dyke","hotelId":20385347,"hotelName":"Ocean View Villa","address":"Great Harbour,Jost Van Dyke VG1160,Tortola,Virgin Islands, British","phones":"+12843424573","fax":"","email":"","url":"http://www.oceanviewvillabvi.com/","countryIso2":"VG","countryName":"Virgin Islands, British","hotelRating":"0","latitude":"18.4437","longitude":"-64.7544","state_id":null,"state_name":null,"country_id":null},{"active":false,"Giataid":"760339","cityId":null,"cityName":"Tortola","hotelId":20385348,"hotelName":"Ke Villas","address":"Route 1,Carrot Bay,West End,Tortola 1110,Virgin Islands, British","phones":"","fax":"","email":"","url":"","countryIso2":"VG","countryName":"Virgin Islands, British","hotelRating":"0","latitude":"18.4169","longitude":"-64.6439","state_id":null,"state_name":null,"country_id":null},{"active":false,"Giataid":"759793","cityId":null,"cityName":"Tortola","hotelId":20385350,"hotelName":"Spyglass","address":"Spyglass Hill,West End,Tortola,Virgin Islands, British","phones":"","fax":"","email":"","url":"","countryIso2":"VG","countryName":"Virgin Islands, British","hotelRating":"0","latitude":"18.4169","longitude":"-64.6439","state_id":null,"state_name":null,"country_id":null},{"active":false,"Giataid":"966069","cityId":null,"cityName":"Tortola","hotelId":20422969,"hotelName":"Myettï¿½s Garden Inn","address":"Cane Garden Bay,Tortola,Virgin Islands, British","phones":"+12844959649","fax":"","email":"thebeatgoeson@myetts.com","url":"http://myetts.com/hotel/","countryIso2":"VG","countryName":"Virgin Islands, British","hotelRating":"1","latitude":"18.4169","longitude":"-64.6439","state_id":null,"state_name":null,"country_id":null}]