[{"active":false,"Giataid":"8648","cityId":null,"cityName":"Providenciales","hotelId":8648,"hotelName":"Beaches Turks & Caicos Resort Villages & Spa","address":"P.O. Box 186,Lower Bight Road,Providenciales,Turks and Caicos Islands","phones":"+16499468000","fax":"+164994680016499468001","email":"","url":"http://www.beaches.com/main/tc/tc-home.cfm","countryIso2":"TC","countryName":"Turks and Caicos Islands","hotelRating":"5","latitude":"21.7867","longitude":"-72.1953","state_id":null,"state_name":null,"country_id":null},{"active":false,"Giataid":"9734","cityId":null,"cityName":"Grace Bay","hotelId":9734,"hotelName":"Caribbean Paradise Inn","address":"Grace Bay Beach,Providenciales,Turks and Caicos Islands","phones":"+16499465020","fax":"","email":"","url":"","countryIso2":"TC","countryName":"Turks and Caicos Islands","hotelRating":"3","latitude":"21.7986","longitude":"-72.1708","state_id":null,"state_name":null,"country_id":null},{"active":false,"Giataid":"10670","cityId":null,"cityName":"Grace Bay","hotelId":10670,"hotelName":"Ports of Call Resort Turks & Caicos","address":"11 Sandcastle Road,Grace Bay,Providenciales,Turks and Caicos Islands","phones":"+16499468888","fax":"","email":"comfort@tciway.tc","url":"http://www.portsofcallresort.com/","countryIso2":"TC","countryName":"Turks and Caicos Islands","hotelRating":"3","latitude":"21.7948","longitude":"-72.1762","state_id":null,"state_name":null,"country_id":null},{"active":false,"Giataid":"13361","cityId":null,"cityName":"Grace Bay","hotelId":13361,"hotelName":"Grace Bay Club","address":"Grace Bay Circle Road,P.O. Box 128,Grace Bay,Providenciales,Turks and Caicos Islands","phones":"+16499465050","fax":"","email":"reservations@gracebayresorts.com","url":"http://www.gracebayclub.com","countryIso2":"TC","countryName":"Turks and Caicos Islands","hotelRating":"5","latitude":"21.7993","longitude":"-72.1729","state_id":null,"state_name":null,"country_id":null},{"active":false,"Giataid":"18845","cityId":null,"cityName":"Parrot Cay","hotelId":18845,"hotelName":"COMO Parrot Cay","address":"None Sandy Point,PO Box 164,Parrot Cay TKCA 1ZZ,Turks and Caicos Islands","phones":"+16499467788","fax":"+16499467789","email":"res@parrotcay.como.bz","url":"http://www.parrotcay.como.bz","countryIso2":"TC","countryName":"Turks and Caicos Islands","hotelRating":"5","latitude":"21.9349","longitude":"-72.0532","state_id":null,"state_name":null,"country_id":null},{"active":false,"Giataid":"19238","cityId":null,"cityName":"Grace Bay","hotelId":19238,"hotelName":"Point Grace","address":"Grace Bay,Island Providenciales,Turks and Caicos Islands","phones":"+164918882095582","fax":"","email":"reservations@pointgrace.com","url":"http://www.pointgrace.com/","countryIso2":"TC","countryName":"Turks and Caicos Islands","hotelRating":"5","latitude":"21.7972","longitude":"-72.1857","state_id":null,"state_name":null,"country_id":null},{"active":false,"Giataid":"22936","cityId":null,"cityName":"North Caicos","hotelId":22936,"hotelName":"The Prospect of Whitby","address":"","phones":"","fax":"","email":"","url":"","countryIso2":"TC","countryName":"Turks and Caicos Islands","hotelRating":"5","latitude":"21.9552","longitude":"-71.9616","state_id":null,"state_name":null,"country_id":null},{"active":false,"Giataid":"42454","cityId":null,"cityName":"Grace Bay","hotelId":42454,"hotelName":"Royal West Indies Resort","address":"Grace Bay,P.O. Box 482,Providenciales,Turks and Caicos Islands","phones":"+16499465004","fax":"","email":"info@royalwestindies.com","url":"http://www.royalwestindies.com/","countryIso2":"TC","countryName":"Turks and Caicos Islands","hotelRating":"4","latitude":"21.8004","longitude":"-72.1707","state_id":null,"state_name":null,"country_id":null},{"active":false,"Giataid":"42455","cityId":null,"cityName":"Grace Bay","hotelId":42455,"hotelName":"The Sands","address":"Providenciales,Turks,Turks and Caicos Islands","phones":"+16499465199","fax":"+16499413433","email":"reservations@thesandstc.com","url":"http://www.thesandsresort.com","countryIso2":"TC","countryName":"Turks and Caicos Islands","hotelRating":"4","latitude":"21.7955","longitude":"-72.188","state_id":null,"state_name":null,"country_id":null},{"active":false,"Giataid":"144190","cityId":null,"cityName":"Grace Bay","hotelId":144190,"hotelName":"The Tuscany","address":"PO Box 623,Grace Bay Beach,Grace Bay,Providenciales Island,Caicos Islands,Turks and Caicos Islands","phones":"+16499414667","fax":"","email":"","url":"","countryIso2":"TC","countryName":"Turks and Caicos Islands","hotelRating":"4","latitude":"21.7963","longitude":"-72.1815","state_id":null,"state_name":null,"country_id":null},{"active":false,"Giataid":"177202","cityId":null,"cityName":"Grace Bay","hotelId":177202,"hotelName":"The Regent Grand","address":"Regent Street,Grace Bay,Providenciales,Turks and Caicos Islands","phones":"+16499417770","fax":"","email":"","url":"","countryIso2":"TC","countryName":"Turks and Caicos Islands","hotelRating":"5","latitude":"21.7964","longitude":"-72.1808","state_id":null,"state_name":null,"country_id":null},{"active":false,"Giataid":"187393","cityId":null,"cityName":"Grace Bay","hotelId":187393,"hotelName":"Club Med Turkoise","address":"Grace Bay TKCA 1ZZ,Providenciales,Turks and Caicos Islands","phones":"","fax":"","email":"","url":"","countryIso2":"TC","countryName":"Turks and Caicos Islands","hotelRating":"3","latitude":"21.7951","longitude":"-72.1829","state_id":null,"state_name":null,"country_id":null},{"active":false,"Giataid":"187394","cityId":null,"cityName":"Providenciales","hotelId":187394,"hotelName":"St. Charles","address":"","phones":"","fax":"","email":"","url":"","countryIso2":"TC","countryName":"Turks and Caicos Islands","hotelRating":"1","latitude":"21.793","longitude":"-72.2071","state_id":null,"state_name":null,"country_id":null},{"active":false,"Giataid":"201655","cityId":null,"cityName":"Providenciales","hotelId":201655,"hotelName":"Gansevoort Turks & Caicos, a Wymara Resort ","address":"Lower Bight Road,Grace Bay,Turks and Caicos Islands,Turks and Caicos Islands","phones":"+16499417555","fax":"+164913092109091","email":"condosales@gansevoorttc.com","url":"http://www.gansevoortturksandcaicos.com/","countryIso2":"TC","countryName":"Turks and Caicos Islands","hotelRating":"4","latitude":"21.782","longitude":"-72.2101","state_id":null,"state_name":null,"country_id":null},{"active":false,"Giataid":"234498","cityId":null,"cityName":"The Bight Settlement","hotelId":234498,"hotelName":"Windsong Resort","address":"Stubbs Road,Providenciales TKCA 1ZZ,Turks and Caicos Islands","phones":"+16493337700","fax":"","email":"reservations@windsongresort.com","url":"http://www.windsongresort.com/","countryIso2":"TC","countryName":"Turks and Caicos Islands","hotelRating":"4","latitude":"21.7855","longitude":"-72.2038","state_id":null,"state_name":null,"country_id":null},{"active":false,"Giataid":"234498","cityId":null,"cityName":"Providenciales","hotelId":234498,"hotelName":"Windsong Resort","address":"Stubbs Road,Providenciales TKCA 1ZZ,Turks and Caicos Islands","phones":"+16493337700","fax":"","email":"reservations@windsongresort.com","url":"http://www.windsongresort.com/","countryIso2":"TC","countryName":"Turks and Caicos Islands","hotelRating":"4","latitude":"21.7855","longitude":"-72.2038","state_id":null,"state_name":null,"country_id":null},{"active":false,"Giataid":"235111","cityId":null,"cityName":"Providenciales","hotelId":235111,"hotelName":"La vista Azul","address":"Turtle Cove,Providenciales,Turks & Caicos Islands,Turks and Caicos Islands","phones":"+16499468522","fax":"+16499417392","email":"reservations@lvaresort.com","url":"http://www.lavistaazulresorttci.com/","countryIso2":"TC","countryName":"Turks and Caicos Islands","hotelRating":"3","latitude":"21.7842","longitude":"-72.2255","state_id":null,"state_name":null,"country_id":null},{"active":false,"Giataid":"236400","cityId":null,"cityName":"Providenciales","hotelId":236400,"hotelName":"The Veranda Resort & Residences","address":"Princess Drive,Providenciales,Turks and Caicos Islands,Turks and Caicos Islands","phones":"+16493395050","fax":"","email":"reservations@verandatci.com","url":"http://www.verandatci.com/contact.htm","countryIso2":"TC","countryName":"Turks and Caicos Islands","hotelRating":"5","latitude":"21.7901","longitude":"-72.1944","state_id":null,"state_name":null,"country_id":null},{"active":false,"Giataid":"236507","cityId":null,"cityName":"Providenciales","hotelId":236507,"hotelName":"The West Bay Club","address":"Lower Bight Road,Grace Bay,Providenciales TKCA 1ZZ,Turks and Caicos Islands","phones":"+16499468550","fax":"+16499413722","email":"reservations@thewestbayclub.com","url":"http://www.thewestbayclub.com/","countryIso2":"TC","countryName":"Turks and Caicos Islands","hotelRating":"4","latitude":"21.7826","longitude":"-72.2088","state_id":null,"state_name":null,"country_id":null},{"active":false,"Giataid":"367592","cityId":null,"cityName":"Grace Bay","hotelId":367592,"hotelName":"Sun Place Lodge-grace Bay Beach","address":"","phones":"","fax":"","email":"","url":"","countryIso2":"TC","countryName":"Turks and Caicos Islands","hotelRating":"1","latitude":"21.7951","longitude":"-72.1829","state_id":null,"state_name":null,"country_id":null},{"active":false,"Giataid":"368084","cityId":null,"cityName":"Providenciales","hotelId":368084,"hotelName":"Esencia Villas","address":"","phones":"","fax":"","email":"","url":"","countryIso2":"TC","countryName":"Turks and Caicos Islands","hotelRating":"1","latitude":"21.793","longitude":"-72.2071","state_id":null,"state_name":null,"country_id":null},{"active":false,"Giataid":"368086","cityId":null,"cityName":"Providenciales","hotelId":368086,"hotelName":"One On Marlin","address":"38 Marlin Street,Providenciales TKCA 1ZZ,Turks & Caicos Islands,Turks and Caicos Islands","phones":"+16494330000","fax":"","email":"","url":"","countryIso2":"TC","countryName":"Turks and Caicos Islands","hotelRating":"4","latitude":"21.7736","longitude":"-72.2213","state_id":null,"state_name":null,"country_id":null},{"active":false,"Giataid":"368087","cityId":null,"cityName":"Grace Bay","hotelId":368087,"hotelName":"The Venetian Resort Grace Bay","address":"Grace Bay Road,East Grace Bay Beach,Grace Bay,Providenciales Island,Caicos Islands,Turks and Caicos Islands","phones":"+16499413512","fax":"","email":"","url":"","countryIso2":"TC","countryName":"Turks and Caicos Islands","hotelRating":"4","latitude":"21.7958","longitude":"-72.1812","state_id":null,"state_name":null,"country_id":null},{"active":false,"Giataid":"368088","cityId":null,"cityName":"Providenciales","hotelId":368088,"hotelName":"Kokomo Botanical Resort & Spa","address":"31 Downwind Street,P.O. Box 220,Providenciales,Turks & Caicos Islands,Turks and Caicos Islands","phones":"+16499413121","fax":"","email":"","url":"","countryIso2":"TC","countryName":"Turks and Caicos Islands","hotelRating":"3","latitude":"21.7769","longitude":"-72.2157","state_id":null,"state_name":null,"country_id":null},{"active":false,"Giataid":"368089","cityId":null,"cityName":"Providenciales","hotelId":368089,"hotelName":"Villa Wyakha","address":"","phones":"","fax":"","email":"","url":"","countryIso2":"TC","countryName":"Turks and Caicos Islands","hotelRating":"1","latitude":"21.793","longitude":"-72.2071","state_id":null,"state_name":null,"country_id":null},{"active":false,"Giataid":"423452","cityId":null,"cityName":"Providenciales","hotelId":423452,"hotelName":"Ridge Residences Inn","address":"Providenciales,Turks and Caicos Islands","phones":"+16494334000","fax":"","email":"reservations@ridgeresidencesinn.com","url":"http://ridgeresidencesinn.com","countryIso2":"TC","countryName":"Turks and Caicos Islands","hotelRating":"3","latitude":"21.7772","longitude":"-72.2126","state_id":null,"state_name":null,"country_id":null},{"active":false,"Giataid":"469173","cityId":null,"cityName":"South Caicos","hotelId":469173,"hotelName":"South Caicos Ocean and Beach Resort","address":"Tucker Hill,South Caicos,Turks and Caicos Islands,Turks and Caicos Islands","phones":"+16499463219","fax":"+16499463508","email":"oceanandbeach@turksandcaicosreservations.tc","url":"http://oceanandbeachresort.com/","countryIso2":"TC","countryName":"Turks and Caicos Islands","hotelRating":"1","latitude":"21.4887","longitude":"-71.5279","state_id":null,"state_name":null,"country_id":null},{"active":false,"Giataid":"488029","cityId":null,"cityName":"Providenciales","hotelId":488029,"hotelName":"Island Club","address":"375 Grace Bay Road,Providenciales,Turks and Caicos Islands","phones":"","fax":"","email":"","url":"","countryIso2":"TC","countryName":"Turks and Caicos Islands","hotelRating":"3","latitude":"21.793","longitude":"-72.2071","state_id":null,"state_name":null,"country_id":null},{"active":false,"Giataid":"490562","cityId":null,"cityName":"Providenciales","hotelId":490562,"hotelName":"Sunview Villas","address":"","phones":"","fax":"","email":"","url":"","countryIso2":"TC","countryName":"Turks and Caicos Islands","hotelRating":"3","latitude":"21.7896","longitude":"-72.1875","state_id":null,"state_name":null,"country_id":null},{"active":false,"Giataid":"490893","cityId":null,"cityName":"Providenciales","hotelId":490893,"hotelName":"Eva's View","address":"","phones":"","fax":"","email":"","url":"","countryIso2":"TC","countryName":"Turks and Caicos Islands","hotelRating":"1","latitude":"21.8111","longitude":"-72.1389","state_id":null,"state_name":null,"country_id":null},{"active":false,"Giataid":"503172","cityId":null,"cityName":"Providenciales","hotelId":503172,"hotelName":"Sunset Point Oceanfront Villa","address":"","phones":"","fax":"","email":"","url":"","countryIso2":"TC","countryName":"Turks and Caicos Islands","hotelRating":"1","latitude":"21.793","longitude":"-72.2071","state_id":null,"state_name":null,"country_id":null},{"active":false,"Giataid":"503394","cityId":null,"cityName":"Providenciales","hotelId":503394,"hotelName":"Casa de Isle","address":"","phones":"","fax":"","email":"","url":"","countryIso2":"TC","countryName":"Turks and Caicos Islands","hotelRating":"3","latitude":"21.748","longitude":"-72.2911","state_id":null,"state_name":null,"country_id":null},{"active":false,"Giataid":"503805","cityId":15690,"cityName":"Cockburn Town","hotelId":503805,"hotelName":"Osprey Beach Hotel","address":"","phones":"","fax":"","email":"","url":"","countryIso2":"TC","countryName":"Turks and Caicos Islands","hotelRating":"3","latitude":"21.4596","longitude":"-71.1474","state_id":3627,"state_name":"San Salvador Island","country_id":17},{"active":false,"Giataid":"503835","cityId":15690,"cityName":"Cockburn Town","hotelId":503835,"hotelName":"Grand Turk Inn","address":"","phones":"","fax":"","email":"","url":"","countryIso2":"TC","countryName":"Turks and Caicos Islands","hotelRating":"1","latitude":"21.4667","longitude":"-71.1467","state_id":3627,"state_name":"San Salvador Island","country_id":17},{"active":false,"Giataid":"507911","cityId":null,"cityName":"Providenciales","hotelId":507911,"hotelName":"Silver Palm Beach House Turks and Caicos","address":"","phones":"","fax":"","email":"","url":"","countryIso2":"TC","countryName":"Turks and Caicos Islands","hotelRating":"3","latitude":"21.793","longitude":"-72.2071","state_id":null,"state_name":null,"country_id":null},{"active":false,"Giataid":"513216","cityId":null,"cityName":"Providenciales","hotelId":513216,"hotelName":"Serenity Pointe","address":"","phones":"","fax":"","email":"","url":"","countryIso2":"TC","countryName":"Turks and Caicos Islands","hotelRating":"1","latitude":"21.7686","longitude":"-72.2198","state_id":null,"state_name":null,"country_id":null},{"active":false,"Giataid":"518657","cityId":51868,"cityName":"Whitby","hotelId":518657,"hotelName":"Palmetto Villa","address":"","phones":"","fax":"","email":"","url":"","countryIso2":"TC","countryName":"Turks and Caicos Islands","hotelRating":"1","latitude":"21.9545","longitude":"-71.9639","state_id":2336,"state_name":"England","country_id":232},{"active":false,"Giataid":"671096","cityId":null,"cityName":"South Caicos","hotelId":671096,"hotelName":"Sailrock Resort","address":"Front Street,South Caicos TKCA 1ZZ,Turks and Caicos Islands","phones":"","fax":"","email":"info@sailrockresort.com","url":"https://sailrockresort.com","countryIso2":"TC","countryName":"Turks and Caicos Islands","hotelRating":"4","latitude":"21.5358","longitude":"-71.4995","state_id":null,"state_name":null,"country_id":null},{"active":false,"Giataid":"724897","cityId":null,"cityName":"Providenciales","hotelId":724897,"hotelName":"Beach Enclave North Shore","address":"North Shore,35 International Drive,Providenciales,Turks and Caicos Islands","phones":"+16499417577","fax":"","email":"experiences@beachenclave.com","url":"https://www.beachenclave.com","countryIso2":"TC","countryName":"Turks and Caicos Islands","hotelRating":"1","latitude":"21.7851","longitude":"-72.2368","state_id":null,"state_name":null,"country_id":null},{"active":false,"Giataid":"418421","cityId":null,"cityName":"Grace Bay","hotelId":10043609,"hotelName":"Beach House Turks & Caicos","address":"Lower Bight Rd 218,Grace Bay,Providenciales,Turks and Caicos Islands","phones":"+164918559465800","fax":"","email":"","url":"","countryIso2":"TC","countryName":"Turks and Caicos Islands","hotelRating":"4","latitude":"21.7829","longitude":"-72.2064","state_id":null,"state_name":null,"country_id":null},{"active":false,"Giataid":"408727","cityId":null,"cityName":"Providenciales","hotelId":10051086,"hotelName":"Blue Haven Resort & Marina","address":"Leeward,Providenciales,Turks and Caicos Islands","phones":"+16499469900","fax":"","email":"","url":"","countryIso2":"TC","countryName":"Turks and Caicos Islands","hotelRating":"4","latitude":"21.7963","longitude":"-72.1636","state_id":null,"state_name":null,"country_id":null},{"active":false,"Giataid":"532909","cityId":null,"cityName":"Providenciales","hotelId":10051856,"hotelName":"Turks And Caicos Airport Hotel","address":"Airport Road 83,Providenciales,Turks and Caicos Islands","phones":"+16499464701","fax":"","email":"","url":"","countryIso2":"TC","countryName":"Turks and Caicos Islands","hotelRating":"2","latitude":"21.7746","longitude":"-72.2594","state_id":null,"state_name":null,"country_id":null},{"active":false,"Giataid":"720980","cityId":51868,"cityName":"Whitby","hotelId":10068350,"hotelName":"Caicos Beach Condominiums","address":"Drake Court,Whitby,North Caicos,Turks and Caicos Islands","phones":"","fax":"","email":"","url":"","countryIso2":"TC","countryName":"Turks and Caicos Islands","hotelRating":"2","latitude":"21.9538","longitude":"-71.9659","state_id":2336,"state_name":"England","country_id":232},{"active":false,"Giataid":"532906","cityId":null,"cityName":"North Caicos","hotelId":10069096,"hotelName":"Pelican Beach Hotel","address":"North Caicos,Whitby,Turks and Caicos Islands","phones":"+16496499467112","fax":"","email":"","url":"","countryIso2":"TC","countryName":"Turks and Caicos Islands","hotelRating":"3","latitude":"21.955","longitude":"-71.9617","state_id":null,"state_name":null,"country_id":null},{"active":false,"Giataid":"660687","cityId":null,"cityName":"Providenciales","hotelId":10127347,"hotelName":"Juba Sound Villas","address":"11 Reo Drive,Providenciales,Turks and Caicos Islands","phones":"NULL","fax":"NULL","email":"NULL","url":"NULL","countryIso2":"TC","countryName":"Turks and Caicos Islands","hotelRating":"3","latitude":"21.793","longitude":"-72.2071","state_id":null,"state_name":null,"country_id":null},{"active":false,"Giataid":"7413","cityId":null,"cityName":"Grace Bay","hotelId":20007516,"hotelName":"Allegro Resort Turks & Caicos","address":"P.O. Box 205,Providenciales,Grace Bay,Turks and Caicos Islands","phones":"+164916459465555","fax":"","email":"","url":"","countryIso2":"TC","countryName":"Turks and Caicos Islands","hotelRating":"3","latitude":"21.7896","longitude":"-72.2565","state_id":null,"state_name":null,"country_id":null},{"active":false,"Giataid":"471090","cityId":15690,"cityName":"Cockburn Town","hotelId":20007705,"hotelName":"Bohio Dive Resort","address":"Pillory Beach,PO Box 179,Cockburn Town,Grand Turk,Turks and Caicos Islands","phones":"+16499462135","fax":"","email":"info@bohioresort.com","url":"http://www.bohioresort.com/contact/","countryIso2":"TC","countryName":"Turks and Caicos Islands","hotelRating":"3","latitude":"21.4807","longitude":"-71.1482","state_id":3627,"state_name":"San Salvador Island","country_id":17},{"active":false,"Giataid":"541444","cityId":null,"cityName":"Providenciales","hotelId":20007838,"hotelName":"Peridot Place","address":"32 Leeside Avenue,Providenciales,Turks and Caicos Islands","phones":"","fax":"","email":"","url":"","countryIso2":"TC","countryName":"Turks and Caicos Islands","hotelRating":"0","latitude":"21.808","longitude":"-72.1486","state_id":null,"state_name":null,"country_id":null},{"active":false,"Giataid":"724654","cityId":null,"cityName":"Providenciales","hotelId":20008004,"hotelName":"Aquamarine Beach Resort","address":"8 Turtle Cove Drive,Providenciales,Turks and Caicos Islands","phones":"","fax":"","email":"","url":"","countryIso2":"TC","countryName":"Turks and Caicos Islands","hotelRating":"0","latitude":"21.7827","longitude":"-72.2134","state_id":null,"state_name":null,"country_id":null},{"active":false,"Giataid":"683808","cityId":null,"cityName":"Providenciales","hotelId":20008295,"hotelName":"South Fleetwood Grace Bay","address":"9 Manor Street Grace Bay,Providenciales,Turks and Caicos Islands","phones":"","fax":"","email":"","url":"","countryIso2":"TC","countryName":"Turks and Caicos Islands","hotelRating":"0","latitude":"21.793","longitude":"-72.2071","state_id":null,"state_name":null,"country_id":null},{"active":false,"Giataid":"724781","cityId":null,"cityName":"North Caicos","hotelId":20008732,"hotelName":"Caicos Cactus Residence","address":"Major Hill Road,Bottle Creek,North Caicos,Turks and Caicos,Turks and Caicos Islands","phones":"","fax":"","email":"","url":"","countryIso2":"TC","countryName":"Turks and Caicos Islands","hotelRating":"0","latitude":"21.9186","longitude":"-71.9277","state_id":null,"state_name":null,"country_id":null},{"active":false,"Giataid":"531407","cityId":null,"cityName":"Salt Cay","hotelId":20008881,"hotelName":"Purple Conch Cottage","address":"Chapel Street,Balfour Town,Salt Cay,Turks and Caicos Islands","phones":"+164918883195802","fax":"","email":"owner@purpleconch.com","url":"http://www.purpleconch.com","countryIso2":"TC","countryName":"Turks and Caicos Islands","hotelRating":"0","latitude":"21.3293","longitude":"-71.2072","state_id":null,"state_name":null,"country_id":null},{"active":false,"Giataid":"520499","cityId":null,"cityName":"Providenciales","hotelId":20008982,"hotelName":"Jubilee Gardens Vacation Home","address":"#19 Tropical Street,Grace Bay,Providenciales,Turks and Caicos Islands","phones":"","fax":"","email":"","url":"","countryIso2":"TC","countryName":"Turks and Caicos Islands","hotelRating":"4","latitude":"21.7884","longitude":"-72.19","state_id":null,"state_name":null,"country_id":null},{"active":false,"Giataid":"546766","cityId":null,"cityName":"Providenciales","hotelId":20009135,"hotelName":"The Lodgings","address":"34B Old Airport Road,Williams Plaza,Providenciales,Turks and Caicos Islands","phones":"","fax":"","email":"","url":"","countryIso2":"TC","countryName":"Turks and Caicos Islands","hotelRating":"3","latitude":"21.7752","longitude":"-72.2601","state_id":null,"state_name":null,"country_id":null},{"active":false,"Giataid":"560490","cityId":null,"cityName":"Providenciales","hotelId":20009260,"hotelName":"The Oasis at Grace Bay","address":"2 Crescent Street,Grace Bay,Providenciales,Turks and Caicos Islands","phones":"+16499418821","fax":"","email":"info@oasisgracebay.com","url":"http://www.oasisgracebay.com/","countryIso2":"TC","countryName":"Turks and Caicos Islands","hotelRating":"4","latitude":"21.7978","longitude":"-72.1714","state_id":null,"state_name":null,"country_id":null},{"active":false,"Giataid":"726561","cityId":null,"cityName":"Providenciales","hotelId":20009618,"hotelName":"Villa Stark","address":"Blue Mountain,Grace Bay,Providenciales,Turks and Caicos Islands","phones":"","fax":"","email":"info@villastark.com","url":"http://www.villastark.com","countryIso2":"TC","countryName":"Turks and Caicos Islands","hotelRating":"0","latitude":"21.793","longitude":"-72.2071","state_id":null,"state_name":null,"country_id":null},{"active":false,"Giataid":"611152","cityId":null,"cityName":"Providenciales","hotelId":20009777,"hotelName":"The Shore Club Turks and Caicos","address":"Long Bay Beach,Providenciales TKCA 1ZZ,Turks and Caicos Islands","phones":"+16499413339","fax":"","email":"reservations@theshoreclubtc.com","url":"http://theshoreclubtc.com","countryIso2":"TC","countryName":"Turks and Caicos Islands","hotelRating":"5","latitude":"21.7943","longitude":"-72.1521","state_id":null,"state_name":null,"country_id":null},{"active":false,"Giataid":"525246","cityId":null,"cityName":"Salt Cay","hotelId":20010043,"hotelName":"Castaway Salt Cay","address":"North District,Turks and Caicos Islands","phones":"+16499466977","fax":"","email":"haidee127@gmail.com","url":"http://www.castawayonsaltcay.com/","countryIso2":"TC","countryName":"Turks and Caicos Islands","hotelRating":"0","latitude":"21.3392","longitude":"-71.1991","state_id":null,"state_name":null,"country_id":null},{"active":false,"Giataid":"547070","cityId":15690,"cityName":"Cockburn Town","hotelId":20010185,"hotelName":"Turks Head Inne","address":"Duke Street,Cockburn Town TKCA 1ZZ,Turks & Caicos Islands,Turks and Caicos Islands","phones":"+16499461830","fax":"","email":"info@turksheadinne.com","url":"http://www.turksheadinne.com/","countryIso2":"TC","countryName":"Turks and Caicos Islands","hotelRating":"0","latitude":"21.4667","longitude":"-71.1467","state_id":3627,"state_name":"San Salvador Island","country_id":17},{"active":false,"Giataid":"526551","cityId":null,"cityName":"Providenciales","hotelId":20010322,"hotelName":"Villa Oasis","address":"Treasure Beach Villa  Ianthe Pratt Road,Providenciales,Turks and Caicos Islands","phones":"","fax":"","email":"","url":"","countryIso2":"TC","countryName":"Turks and Caicos Islands","hotelRating":"3","latitude":"21.793","longitude":"-72.2071","state_id":null,"state_name":null,"country_id":null},{"active":false,"Giataid":"724700","cityId":null,"cityName":"Providenciales","hotelId":20010475,"hotelName":"Venetian Breeze Suites","address":"47 Downwind Drive,Venetian Road Settlement,Richmond Hills,Providenciales,Turks and Caicos Islands","phones":"","fax":"","email":"","url":"http://www.hotels.com/ho648625","countryIso2":"TC","countryName":"Turks and Caicos Islands","hotelRating":"0","latitude":"21.7771","longitude":"-72.2157","state_id":null,"state_name":null,"country_id":null},{"active":false,"Giataid":"726118","cityId":null,"cityName":"Providenciales","hotelId":20010757,"hotelName":"Caribbean Sea Breeze Villas","address":"137 Long Bay Beach Drive,Providenciales,Turks & Caicos Islands,Turks and Caicos Islands","phones":"+16493332210","fax":"","email":"","url":"http://caribbeanseabreezevillas.com","countryIso2":"TC","countryName":"Turks and Caicos Islands","hotelRating":"0","latitude":"21.793","longitude":"-72.2071","state_id":null,"state_name":null,"country_id":null},{"active":false,"Giataid":"522430","cityId":null,"cityName":"South Caicos","hotelId":20011180,"hotelName":"East Bay Resort","address":"Fourth Street 1,Cockburn Harbour,South Caicos TKCA 1ZZ,Turks and Caicos Islands","phones":"","fax":"","email":"","url":"","countryIso2":"TC","countryName":"Turks and Caicos Islands","hotelRating":"4","latitude":"21.49","longitude":"-71.5225","state_id":null,"state_name":null,"country_id":null},{"active":false,"Giataid":"516433","cityId":null,"cityName":"Providenciales","hotelId":20011316,"hotelName":"Breezy Palms Villa","address":"Chalk Sound Drive 207,Providenciales,Turks and Caicos Islands","phones":"","fax":"","email":"","url":"","countryIso2":"TC","countryName":"Turks and Caicos Islands","hotelRating":"0","latitude":"21.7593","longitude":"-72.3043","state_id":null,"state_name":null,"country_id":null},{"active":false,"Giataid":"502868","cityId":null,"cityName":"Providenciales","hotelId":20011566,"hotelName":"Neptune Villas","address":"Chalk Sound Drive 533,Five Cays,Providenciales TKCA 1ZZ,Turks and Caicos Islands","phones":"+16493314328","fax":"+16499417339","email":"NeptuneVillas@aol.com","url":"http://www.neptunevillastci.com","countryIso2":"TC","countryName":"Turks and Caicos Islands","hotelRating":"3","latitude":"21.7436","longitude":"-72.2826","state_id":null,"state_name":null,"country_id":null},{"active":false,"Giataid":"526565","cityId":null,"cityName":"Providenciales","hotelId":20011711,"hotelName":"Caribbean Diamond Residence","address":"Grace Bay,Providenciales,The Turks and Caicos Islands,Turks and Caicos Islands","phones":"","fax":"","email":"","url":"http://www.caribbeandiamondresorts.com","countryIso2":"TC","countryName":"Turks and Caicos Islands","hotelRating":"3","latitude":"21.793","longitude":"-72.2071","state_id":null,"state_name":null,"country_id":null},{"active":false,"Giataid":"529999","cityId":null,"cityName":"Providenciales","hotelId":20011779,"hotelName":"Emerald Shores Estate","address":"Chalk Sound National Park,Providenciales,Turks and Caicos Islands","phones":"","fax":"","email":"EmeraldShorestci@aol.com","url":"http://www.emeraldshorestci.com/","countryIso2":"TC","countryName":"Turks and Caicos Islands","hotelRating":"0","latitude":"21.7557","longitude":"-72.3003","state_id":null,"state_name":null,"country_id":null},{"active":false,"Giataid":"742191","cityId":null,"cityName":"Providenciales","hotelId":20370895,"hotelName":"Bianca Sands on Grace Bay","address":"Regent Street,Grace Bay,Providenciales TKCA 1ZZ,Turks and Caicos Islands","phones":"+164918773805750","fax":"","email":"reservations@biancasandsresort.com","url":"http://www.biancasandsongracebay.com/","countryIso2":"TC","countryName":"Turks and Caicos Islands","hotelRating":"4","latitude":"21.7962","longitude":"-72.1805","state_id":null,"state_name":null,"country_id":null},{"active":false,"Giataid":"787860","cityId":15690,"cityName":"Cockburn Town","hotelId":20370897,"hotelName":"The Sands Hotel","address":"Cockburn Town,Grand Turk Island,Turks and Caicos Islands","phones":"","fax":"","email":"","url":"","countryIso2":"TC","countryName":"Turks and Caicos Islands","hotelRating":"0","latitude":"21.4667","longitude":"-71.1467","state_id":3627,"state_name":"San Salvador Island","country_id":17},{"active":false,"Giataid":"733069","cityId":null,"cityName":"Providenciales","hotelId":20370898,"hotelName":"White House Villa at Coral Gardens","address":"The Bight Settlement PO BOX 281,End of Penns Road,Grace Bay Beach,Providenciales TKCA 1ZZ,Turks & Caicos Islands,Turks and Caicos Islands","phones":"+16496042690033","fax":"","email":"leanne@coralgardens.com","url":"https://www.coralgardens.com/gallery/white-house-villa-3-bedroom","countryIso2":"TC","countryName":"Turks and Caicos Islands","hotelRating":"0","latitude":"21.793","longitude":"-72.2071","state_id":null,"state_name":null,"country_id":null},{"active":false,"Giataid":"746263","cityId":null,"cityName":"Providenciales","hotelId":20370900,"hotelName":"White Villas","address":"Long Bay Beach Road 62,Providenciales TKCA 1ZZ,Turks and Caicos Islands","phones":"+164915145745272","fax":"","email":"whitevillas@365villas.com","url":"https://www.whitevillas.net","countryIso2":"TC","countryName":"Turks and Caicos Islands","hotelRating":"0","latitude":"21.7859","longitude":"-72.1566","state_id":null,"state_name":null,"country_id":null},{"active":false,"Giataid":"738846","cityId":null,"cityName":"Providenciales","hotelId":20370901,"hotelName":"Blue Opal Villa Bed And Breakfast","address":"303 Donkey Lane,Providenciales TKCA 1ZZ,Turks and Caicos Islands","phones":"+16492328590","fax":"","email":"contact@blueopalvillabandb.com","url":"http://www.blueopalvillabandb.com","countryIso2":"TC","countryName":"Turks and Caicos Islands","hotelRating":"0","latitude":"21.7835","longitude":"-72.22","state_id":null,"state_name":null,"country_id":null},{"active":false,"Giataid":"901537","cityId":null,"cityName":"Providenciales","hotelId":20370902,"hotelName":"Beach Enclave Long Bay","address":"Joe Wood Drive 47,Long Bay,Long Bay Heights,Providenciales,Turks and Caicos Islands","phones":"+16499417577","fax":"","email":"experiences@beachenclave.com","url":"http://www.beachenclave.com/","countryIso2":"TC","countryName":"Turks and Caicos Islands","hotelRating":"0","latitude":"21.793","longitude":"-72.2071","state_id":null,"state_name":null,"country_id":null},{"active":false,"Giataid":"741322","cityId":null,"cityName":"Providenciales","hotelId":20370903,"hotelName":"Sunset Ridge Hotel","address":"9 Walkers Lane,Airport Road,Providenciales TKCA 1ZZ,Turks and Caicos Islands","phones":"","fax":"","email":"","url":"","countryIso2":"TC","countryName":"Turks and Caicos Islands","hotelRating":"0","latitude":"21.793","longitude":"-72.2071","state_id":null,"state_name":null,"country_id":null},{"active":false,"Giataid":"875820","cityId":null,"cityName":"Providenciales","hotelId":20370905,"hotelName":"Cobalt Villa","address":"Blue Mountain,Providenciales,Turks and Caicos Islands","phones":"","fax":"","email":"emma@bluemountain.tc","url":"","countryIso2":"TC","countryName":"Turks and Caicos Islands","hotelRating":"0","latitude":"21.793","longitude":"-72.2071","state_id":null,"state_name":null,"country_id":null},{"active":false,"Giataid":"979020","cityId":null,"cityName":"Providenciales","hotelId":20418497,"hotelName":"Villa Viatu","address":"43 Nightjar Road,Leeward Settlement,Providenciales,Turks and Caicos Islands","phones":"","fax":"","email":"","url":"http://www.villaviatu.com/","countryIso2":"TC","countryName":"Turks and Caicos Islands","hotelRating":"4","latitude":"21.793","longitude":"-72.2071","state_id":null,"state_name":null,"country_id":null},{"active":false,"Giataid":"978981","cityId":null,"cityName":"Providenciales","hotelId":20418498,"hotelName":"Adam And Eve Villa","address":"Passion Flower Lane 4,Leeward,Providenciales,Turks and Caicos Islands","phones":"","fax":"","email":"","url":"","countryIso2":"TC","countryName":"Turks and Caicos Islands","hotelRating":"3","latitude":"21.793","longitude":"-72.2071","state_id":null,"state_name":null,"country_id":null},{"active":false,"Giataid":"955968","cityId":15690,"cityName":"Cockburn Town","hotelId":20418499,"hotelName":"Pillory Club","address":"Pillory Beach,Cockburn Town TKCA 1ZZ,Grand Turk,Turks and Caicos Islands","phones":"","fax":"","email":"info@pilloryclub.com","url":"http://www.pilloryclub.com/","countryIso2":"TC","countryName":"Turks and Caicos Islands","hotelRating":"1","latitude":"21.4667","longitude":"-71.1467","state_id":3627,"state_name":"San Salvador Island","country_id":17},{"active":false,"Giataid":"979026","cityId":null,"cityName":"Providenciales","hotelId":20418500,"hotelName":"Turtle Ridge Villa","address":"Alamandra Lane 2,Richmond Hill,Providenciales,Turks and Caicos Islands","phones":"","fax":"","email":"","url":"","countryIso2":"TC","countryName":"Turks and Caicos Islands","hotelRating":"4","latitude":"21.793","longitude":"-72.2071","state_id":null,"state_name":null,"country_id":null},{"active":false,"Giataid":"979042","cityId":null,"cityName":"Providenciales","hotelId":20418501,"hotelName":"Villa Sundra","address":"Prince Of Wales Drive,Leeward,Providenciales,Turks and Caicos Islands","phones":"","fax":"","email":"","url":"","countryIso2":"TC","countryName":"Turks and Caicos Islands","hotelRating":"3","latitude":"21.793","longitude":"-72.2071","state_id":null,"state_name":null,"country_id":null},{"active":false,"Giataid":"955992","cityId":15690,"cityName":"Cockburn Town","hotelId":20418502,"hotelName":"Love Villas","address":"West Road 21916,Cockburn Town TKCA 1ZZ,Grand Turk,Turks and Caicos Islands","phones":"+164918043663150","fax":"","email":"richard@lovegrandturk.com","url":"http://www.lovegrandturk.com/","countryIso2":"TC","countryName":"Turks and Caicos Islands","hotelRating":"1","latitude":"21.4667","longitude":"-71.1467","state_id":3627,"state_name":"San Salvador Island","country_id":17},{"active":false,"Giataid":"978988","cityId":null,"cityName":"Providenciales","hotelId":20418503,"hotelName":"Sandytoes","address":"21 Sandpiper Road,Leeward,Providenciales,Turks and Caicos Islands","phones":"","fax":"","email":"","url":"","countryIso2":"TC","countryName":"Turks and Caicos Islands","hotelRating":"3","latitude":"21.793","longitude":"-72.2071","state_id":null,"state_name":null,"country_id":null},{"active":false,"Giataid":"978965","cityId":null,"cityName":"Providenciales","hotelId":20418504,"hotelName":"Seabreeze Villa","address":"Corella Ridge 9,The Bight,Turtle Cove,Providenciales,Turks and Caicos Islands","phones":"","fax":"","email":"","url":"","countryIso2":"TC","countryName":"Turks and Caicos Islands","hotelRating":"1","latitude":"21.7815","longitude":"-72.2098","state_id":null,"state_name":null,"country_id":null},{"active":false,"Giataid":"992398","cityId":null,"cityName":"Providenciales","hotelId":20439111,"hotelName":"Sea Foam Villa","address":"5 Passion Flower Lane,Leeward,Providenciales,Turks and Caicos Islands","phones":"","fax":"","email":"","url":"","countryIso2":"TC","countryName":"Turks and Caicos Islands","hotelRating":"4","latitude":"21.793","longitude":"-72.2071","state_id":null,"state_name":null,"country_id":null},{"active":false,"Giataid":"988231","cityId":null,"cityName":"Providenciales","hotelId":20439112,"hotelName":"Beach Daze","address":"Nightjar Road 43,Providenciales,Turks and Caicos Islands","phones":"","fax":"","email":"","url":"","countryIso2":"TC","countryName":"Turks and Caicos Islands","hotelRating":"4","latitude":"21.793","longitude":"-72.2071","state_id":null,"state_name":null,"country_id":null},{"active":false,"Giataid":"986771","cityId":null,"cityName":"Providenciales","hotelId":20439113,"hotelName":"I Land Time","address":"Bouganvilla Drive 98,Providenciales,Turks and Caicos Islands","phones":"","fax":"","email":"","url":"","countryIso2":"TC","countryName":"Turks and Caicos Islands","hotelRating":"3","latitude":"21.793","longitude":"-72.2071","state_id":null,"state_name":null,"country_id":null}]