[{"active":false,"Giataid":"8560","cityId":77270,"cityName":"San Rafael del Sur","hotelId":8560,"hotelName":"Barcelo Montelimar","address":"Carretera a Masachapa Km. 65,01262 Municipio San Rafael del Sur,Managua,Nicaragua","phones":"+50522649310","fax":"+5052696754","email":"montelimar.beach@barcelo.com","url":"http://www.barcelo.com/BarceloHotels/de_DE/hotels/Nicaragua/Playa-Montelimar/hotel-barcelo-montelimar-beach/Beschreibung-allgemein.aspx","countryIso2":"NI","countryName":"Nicaragua","hotelRating":"3","latitude":"11.8079","longitude":"-86.5184","state_id":941,"state_name":"Managua","country_id":159},{"active":false,"Giataid":"128955","cityId":77213,"cityName":"Managua","hotelId":128955,"hotelName":"Seminole Plaza Hotel","address":"Bancentro Carretera a Masaya 1c Oeste,1c al Sur,Managua,Nicaragua","phones":"+50522700061","fax":"","email":"","url":"","countryIso2":"NI","countryName":"Nicaragua","hotelRating":"4","latitude":"12.1237","longitude":"-86.266","state_id":941,"state_name":"Managua","country_id":159},{"active":false,"Giataid":"136372","cityId":20893,"cityName":"Granada","hotelId":136372,"hotelName":"Colonial","address":"Calle La Libertad,25 mtrs al Oeste,Parque Central,Granada,Nicaragua","phones":"+50525527299","fax":"","email":"","url":"","countryIso2":"NI","countryName":"Nicaragua","hotelRating":"3","latitude":"11.9301","longitude":"-85.9563","state_id":2890,"state_name":"Antioquia","country_id":48},{"active":false,"Giataid":"139187","cityId":20893,"cityName":"Granada","hotelId":139187,"hotelName":"Plaza Colon","address":"Parque Central,Granada,Nicaragua","phones":"+50525528489","fax":"","email":"","url":"","countryIso2":"NI","countryName":"Nicaragua","hotelRating":"3","latitude":"11.9297","longitude":"-85.9545","state_id":2890,"state_name":"Antioquia","country_id":48},{"active":false,"Giataid":"187427","cityId":77213,"cityName":"Managua","hotelId":187427,"hotelName":"El Conquistador","address":"From the BDF Bank of Plaza Inter,1 Block West,Managua,Nicaragua","phones":"+50522224789","fax":"","email":"","url":"","countryIso2":"NI","countryName":"Nicaragua","hotelRating":"3","latitude":"12.1438","longitude":"-86.276","state_id":941,"state_name":"Managua","country_id":159},{"active":false,"Giataid":"187428","cityId":77213,"cityName":"Managua","hotelId":187428,"hotelName":"Monte Hiedra Inn","address":"27 de Mayo,De La Estatua De Montoya 1/2 Cuadra Al Este Managua,Managua,Nicaragua","phones":"","fax":"","email":"","url":"","countryIso2":"NI","countryName":"Nicaragua","hotelRating":"3","latitude":"12.1419","longitude":"-86.2675","state_id":941,"state_name":"Managua","country_id":159},{"active":false,"Giataid":"228909","cityId":null,"cityName":"Le?n","hotelId":228909,"hotelName":"Europa","address":"3ra Calle Noreste,4ta Avenida,De Petronic San Juan,1 cuadra al Norte,Le?n,Nicaragua","phones":"+50523110016","fax":"","email":"heuropaleon@hotmail.com","url":"","countryIso2":"NI","countryName":"Nicaragua","hotelRating":"1","latitude":"12.4385","longitude":"-86.8746","state_id":null,"state_name":null,"country_id":null},{"active":false,"Giataid":"228914","cityId":77216,"cityName":"Masaya","hotelId":228914,"hotelName":"Ivania's","address":"Iglesia el Calvario 3 1/2 c al Oesta,Calle Calvario,Masaya,Nicaragua","phones":"+5055227632","fax":"+5055227632","email":"hotelivanias@hotmail.com","url":"http://www.hotelivanias.com","countryIso2":"NI","countryName":"Nicaragua","hotelRating":"3","latitude":"11.9771","longitude":"-86.0906","state_id":953,"state_name":"Masaya","country_id":159},{"active":false,"Giataid":"232053","cityId":20893,"cityName":"Granada","hotelId":232053,"hotelName":"Jicaro Island Ecolodge","address":"Granada Isleta,Lake Nicaragua,Nicaragua,Nicaragua","phones":"+50584031236","fax":"","email":"info@jicarolodge.com","url":"http://www.jicarolodge.com","countryIso2":"NI","countryName":"Nicaragua","hotelRating":"4","latitude":"11.873","longitude":"-85.8999","state_id":2890,"state_name":"Antioquia","country_id":48},{"active":false,"Giataid":"235101","cityId":20893,"cityName":"Granada","hotelId":235101,"hotelName":"Hotel El Almirante","address":"Calle Corrales 111,Ferreteria Datisa,1/2 Cuadra al Lago,Granada,Nicaragua","phones":"+50550225524628","fax":"","email":"info@hotelelalmirante.com","url":"http://www.hotelelalmirante.com","countryIso2":"NI","countryName":"Nicaragua","hotelRating":"3","latitude":"11.9278","longitude":"-85.9536","state_id":2890,"state_name":"Antioquia","country_id":48},{"active":false,"Giataid":"238859","cityId":77264,"cityName":"San Juan del Sur","hotelId":238859,"hotelName":"Pelican Eyes Resort & Spa","address":"1? cuadras al este,San Juan del Sur,Nicaragua","phones":"+5051150525637000","fax":"","email":"reservations@pelicaneyesresort.com","url":"http://www.pelicaneyesresort.com/","countryIso2":"NI","countryName":"Nicaragua","hotelRating":"4","latitude":"11.2532","longitude":"-85.8681","state_id":942,"state_name":"Rivas","country_id":159},{"active":false,"Giataid":"239152","cityId":77213,"cityName":"Managua","hotelId":239152,"hotelName":"Brandt's Los Robles de San Juan","address":"Los Robles de San Juan,Zona Hippo's,1c al Sur 1c al Oeste,Managua,Nicaragua","phones":"+50522702114","fax":"","email":"bbbho@cablenet.com.ni","url":"http://www.brandtshotel.com.ni","countryIso2":"NI","countryName":"Nicaragua","hotelRating":"3","latitude":"12.1213","longitude":"-86.2674","state_id":941,"state_name":"Managua","country_id":159},{"active":false,"Giataid":"239153","cityId":77213,"cityName":"Managua","hotelId":239153,"hotelName":"Brandt's Colonial Los Robles","address":"Bancentro Carretera a Masaya 2c al Este 150 mtrs al Norte 132,Managua,Colonial Los Robles,Nicaragua","phones":"+50522771884","fax":"","email":"bbb@brandtshotel.com.ni","url":"http://www.brandtshotel.com.ni","countryIso2":"NI","countryName":"Nicaragua","hotelRating":"4","latitude":"12.1281","longitude":"-86.2628","state_id":941,"state_name":"Managua","country_id":159},{"active":false,"Giataid":"242308","cityId":77213,"cityName":"Managua","hotelId":242308,"hotelName":"Contempo","address":"km 11, carretera masaya,400 metros Oeste Residencial las praderas,Managua,Nicaragua","phones":"+50522649160","fax":"","email":"info@contempohb.com","url":"http://www.contempohb.com/en-us/index.htm","countryIso2":"NI","countryName":"Nicaragua","hotelRating":"4","latitude":"12.0746","longitude":"-86.225","state_id":941,"state_name":"Managua","country_id":159},{"active":false,"Giataid":"247796","cityId":77264,"cityName":"San Juan del Sur","hotelId":247796,"hotelName":"Bahia del Sol Villas & Condo","address":"San Juan del Sur,Rivas,Nicaragua","phones":"+50525682828","fax":"+50525682830","email":"reservations@bahiadelsolnica.com","url":"http://www.bahiadelsolnica.com/","countryIso2":"NI","countryName":"Nicaragua","hotelRating":"3","latitude":"11.2627","longitude":"-85.8762","state_id":942,"state_name":"Rivas","country_id":159},{"active":false,"Giataid":"368749","cityId":77213,"cityName":"Managua","hotelId":368749,"hotelName":"Hotel Central Park Managua","address":"km 4? Carretera a Masaya,Colonial Los Robles,Edificio BAC,2 c. Arriba 1 ? al Sur,Managua,Nicaragua","phones":"+50522706155","fax":"","email":"","url":"","countryIso2":"NI","countryName":"Nicaragua","hotelRating":"3","latitude":"12.1207","longitude":"-86.2592","state_id":941,"state_name":"Managua","country_id":159},{"active":false,"Giataid":"368750","cityId":21383,"cityName":"San Marcos","hotelId":368750,"hotelName":"Hotel Boutique Hacienda San Pedro","address":"Km. 37 1/2 road to la Concha,Central Park 350 meters north,San Marcos,Nicaragua","phones":"","fax":"","email":"","url":"","countryIso2":"NI","countryName":"Nicaragua","hotelRating":"3","latitude":"11.9127","longitude":"-86.206","state_id":2902,"state_name":"Sucre","country_id":48},{"active":false,"Giataid":"370694","cityId":77264,"cityName":"San Juan del Sur","hotelId":370694,"hotelName":"Balcones De Majagual Eco Resort","address":"","phones":"","fax":"","email":"","url":"","countryIso2":"NI","countryName":"Nicaragua","hotelRating":"1","latitude":"11.262","longitude":"-85.872","state_id":942,"state_name":"Rivas","country_id":159},{"active":false,"Giataid":"370695","cityId":77264,"cityName":"San Juan del Sur","hotelId":370695,"hotelName":"Gran Oceano Hotel","address":"","phones":"","fax":"","email":"","url":"","countryIso2":"NI","countryName":"Nicaragua","hotelRating":"1","latitude":"11.262","longitude":"-85.872","state_id":942,"state_name":"Rivas","country_id":159},{"active":false,"Giataid":"372328","cityId":77289,"cityName":"Tola","hotelId":372328,"hotelName":"Aqua Wellness Resort","address":"1 Redonda Bay,48500  Tola,Rivas,Nicaragua","phones":"+50575307979","fax":"","email":"","url":"","countryIso2":"NI","countryName":"Nicaragua","hotelRating":"4","latitude":"11.3822","longitude":"-86.0296","state_id":942,"state_name":"Rivas","country_id":159},{"active":false,"Giataid":"410812","cityId":77213,"cityName":"Managua","hotelId":410812,"hotelName":"Hotel Real Altamira","address":"Altamira d' Este 539,una cuadra al Este, en rotonda mano izquierda,Conico,Managua,Nicaragua","phones":"+50522780839","fax":"","email":"informacion@hotelrealaltamira.com","url":"http://www.hotelrealaltamira.com/en/index.html","countryIso2":"NI","countryName":"Nicaragua","hotelRating":"3","latitude":"12.1221","longitude":"-86.2525","state_id":941,"state_name":"Managua","country_id":159},{"active":false,"Giataid":"429847","cityId":null,"cityName":"Little Corn Island","hotelId":429847,"hotelName":"Yemaya Island Hideaway & Spa","address":"Northern End,82100 Little Corn Island,Nicaragua","phones":"","fax":"","email":"","url":"","countryIso2":"NI","countryName":"Nicaragua","hotelRating":"4","latitude":"12.3016","longitude":"-82.9851","state_id":null,"state_name":null,"country_id":null},{"active":false,"Giataid":"429848","cityId":77213,"cityName":"Managua","hotelId":429848,"hotelName":"Elements Hotel Boutique","address":"Colonial Los Robles,Adjacent To Plaza Cuba,Managua,Nicaragua","phones":"+50522700052","fax":"","email":"","url":"","countryIso2":"NI","countryName":"Nicaragua","hotelRating":"5","latitude":"12.1225","longitude":"-86.2655","state_id":941,"state_name":"Managua","country_id":159},{"active":false,"Giataid":"453324","cityId":20893,"cityName":"Granada","hotelId":453324,"hotelName":"Hotel Casa Barcelona","address":"Puente Palmira 1 Cuadra al Este 1,Cuadra al Sur 1/2 Cuadra al Este,Granada,Nicaragua","phones":"+50525527438","fax":"","email":"info@hotelcasabarcelona.com","url":"https://hotelcasabarcelona.com","countryIso2":"NI","countryName":"Nicaragua","hotelRating":"2","latitude":"11.9236","longitude":"-85.9544","state_id":2890,"state_name":"Antioquia","country_id":48},{"active":false,"Giataid":"453350","cityId":20893,"cityName":"Granada","hotelId":453350,"hotelName":"Hotel El Club","address":"","phones":"","fax":"","email":"","url":"","countryIso2":"NI","countryName":"Nicaragua","hotelRating":"3","latitude":"11.931","longitude":"-85.9579","state_id":2890,"state_name":"Antioquia","country_id":48},{"active":false,"Giataid":"455414","cityId":77213,"cityName":"Managua","hotelId":455414,"hotelName":"Hotel Asturias Nicaragua","address":"","phones":"","fax":"","email":"","url":"","countryIso2":"NI","countryName":"Nicaragua","hotelRating":"2","latitude":"12.1461","longitude":"-86.285","state_id":941,"state_name":"Managua","country_id":159},{"active":false,"Giataid":"455415","cityId":77213,"cityName":"Managua","hotelId":455415,"hotelName":"Hotel Colibri","address":"Colonial Los Robles 9,De Funeraria Monte,De Los Olivos 1c,Norte y 1 1/2 c Oeste,505 Managua,000-000-0 Managua,Nicaragua","phones":"","fax":"","email":"","url":"","countryIso2":"NI","countryName":"Nicaragua","hotelRating":"3","latitude":"12.1238","longitude":"-86.2626","state_id":941,"state_name":"Managua","country_id":159},{"active":false,"Giataid":"455641","cityId":77213,"cityName":"Managua","hotelId":455641,"hotelName":"Hotel Don Carmelo","address":"","phones":"","fax":"","email":"","url":"","countryIso2":"NI","countryName":"Nicaragua","hotelRating":"3","latitude":"12.1422","longitude":"-86.2519","state_id":941,"state_name":"Managua","country_id":159},{"active":false,"Giataid":"455667","cityId":77213,"cityName":"Managua","hotelId":455667,"hotelName":"Hotel Lomas del Valle","address":"","phones":"","fax":"","email":"","url":"","countryIso2":"NI","countryName":"Nicaragua","hotelRating":"3","latitude":"12.1099","longitude":"-86.2457","state_id":941,"state_name":"Managua","country_id":159},{"active":false,"Giataid":"455994","cityId":20893,"cityName":"Granada","hotelId":455994,"hotelName":"Hotel Los Chilamates","address":"","phones":"","fax":"","email":"","url":"","countryIso2":"NI","countryName":"Nicaragua","hotelRating":"1","latitude":"11.935","longitude":"-85.9602","state_id":2890,"state_name":"Antioquia","country_id":48},{"active":false,"Giataid":"456169","cityId":20893,"cityName":"Granada","hotelId":456169,"hotelName":"Hostal San Angel","address":"","phones":"","fax":"","email":"","url":"","countryIso2":"NI","countryName":"Nicaragua","hotelRating":"1","latitude":"11.928","longitude":"-85.9599","state_id":2890,"state_name":"Antioquia","country_id":48},{"active":false,"Giataid":"456258","cityId":77264,"cityName":"San Juan del Sur","hotelId":456258,"hotelName":"Hotel La Estacion","address":"","phones":"","fax":"","email":"","url":"","countryIso2":"NI","countryName":"Nicaragua","hotelRating":"3","latitude":"11.2531","longitude":"-85.8722","state_id":942,"state_name":"Rivas","country_id":159},{"active":false,"Giataid":"456539","cityId":20893,"cityName":"Granada","hotelId":456539,"hotelName":"Hotel El Internacional","address":"From Supermarket la Colonia,La Union 2 Blocks South,1/2 Block East,In Front of Driving School Malespin,Granada,Nicaragua","phones":"+50525523377","fax":"","email":"info@higranada.com","url":"http://www.higranada.com/","countryIso2":"NI","countryName":"Nicaragua","hotelRating":"2","latitude":"11.9344","longitude":"-85.9588","state_id":2890,"state_name":"Antioquia","country_id":48},{"active":false,"Giataid":"457392","cityId":20893,"cityName":"Granada","hotelId":457392,"hotelName":"Hotel Economico","address":"","phones":"","fax":"","email":"","url":"","countryIso2":"NI","countryName":"Nicaragua","hotelRating":"1","latitude":"11.9296","longitude":"-85.9536","state_id":2890,"state_name":"Antioquia","country_id":48},{"active":false,"Giataid":"457713","cityId":20893,"cityName":"Granada","hotelId":457713,"hotelName":"Hotel La Estacion","address":"Gasolinera UNO Guapinol 1 1/2 al sur","phones":"","fax":"","email":"","url":"","countryIso2":"NI","countryName":"Nicaragua","hotelRating":"4","latitude":"11.9347","longitude":"-85.9623","state_id":2890,"state_name":"Antioquia","country_id":48},{"active":false,"Giataid":"457839","cityId":20893,"cityName":"Granada","hotelId":457839,"hotelName":"Zopango Island","address":"","phones":"","fax":"","email":"","url":"","countryIso2":"NI","countryName":"Nicaragua","hotelRating":"1","latitude":"11.8844","longitude":"-85.9015","state_id":2890,"state_name":"Antioquia","country_id":48},{"active":false,"Giataid":"458362","cityId":77214,"cityName":"Masachapa","hotelId":458362,"hotelName":"EME Hotel Masachapa","address":"","phones":"","fax":"","email":"","url":"","countryIso2":"NI","countryName":"Nicaragua","hotelRating":"1","latitude":"11.7843","longitude":"-86.5154","state_id":941,"state_name":"Managua","country_id":159},{"active":false,"Giataid":"458523","cityId":77264,"cityName":"San Juan del Sur","hotelId":458523,"hotelName":"Hotel Villa Mar","address":"","phones":"","fax":"","email":"","url":"","countryIso2":"NI","countryName":"Nicaragua","hotelRating":"1","latitude":"11.2871","longitude":"-85.902","state_id":942,"state_name":"Rivas","country_id":159},{"active":false,"Giataid":"458551","cityId":77264,"cityName":"San Juan del Sur","hotelId":458551,"hotelName":"Orquidea del Sur","address":"","phones":"","fax":"","email":"","url":"","countryIso2":"NI","countryName":"Nicaragua","hotelRating":"1","latitude":"11.1829","longitude":"-85.8124","state_id":942,"state_name":"Rivas","country_id":159},{"active":false,"Giataid":"458909","cityId":77194,"cityName":"Jinotega","hotelId":458909,"hotelName":"Hotel y Restaurante la Casona","address":"Catedral San Juan 1 1/2,Cuadra al Norte,Contiguo al BAC Jinotega,Jinotega,Nicaragua","phones":"","fax":"","email":"","url":"","countryIso2":"NI","countryName":"Nicaragua","hotelRating":"1","latitude":"13.0929","longitude":"-86.0018","state_id":955,"state_name":"Jinotega","country_id":159},{"active":false,"Giataid":"458933","cityId":77213,"cityName":"Managua","hotelId":458933,"hotelName":"Hotel y Apartamento Los Cisneros","address":"Casa del Obrero 2,Cuadras Al Sur,Media Cuadra Al Este Managua,Managua,Nicaragua","phones":"","fax":"","email":"","url":"","countryIso2":"NI","countryName":"Nicaragua","hotelRating":"2","latitude":"12.1448","longitude":"-86.2818","state_id":941,"state_name":"Managua","country_id":159},{"active":false,"Giataid":"459059","cityId":20893,"cityName":"Granada","hotelId":459059,"hotelName":"Bubu Hotel","address":"","phones":"","fax":"","email":"","url":"","countryIso2":"NI","countryName":"Nicaragua","hotelRating":"1","latitude":"11.9308","longitude":"-85.9578","state_id":2890,"state_name":"Antioquia","country_id":48},{"active":false,"Giataid":"459160","cityId":77217,"cityName":"Matagalpa","hotelId":459160,"hotelName":"Hotel Roca de la Cumbre","address":"","phones":"","fax":"","email":"","url":"","countryIso2":"NI","countryName":"Nicaragua","hotelRating":"3","latitude":"12.9251","longitude":"-85.9166","state_id":947,"state_name":"Matagalpa","country_id":159},{"active":false,"Giataid":"459260","cityId":null,"cityName":"Le?n","hotelId":459260,"hotelName":"Hostal Leon De Oro","address":"","phones":"","fax":"","email":"","url":"","countryIso2":"NI","countryName":"Nicaragua","hotelRating":"1","latitude":"12.4419","longitude":"-86.876","state_id":null,"state_name":null,"country_id":null},{"active":false,"Giataid":"459310","cityId":20893,"cityName":"Granada","hotelId":459310,"hotelName":"El Maltese","address":"Plaza Espa?a 50 mts al Sur - Malec?n de Granada,11101 Granada,Nicaragua","phones":"+50525527641","fax":"","email":"info@elmaltesehotel.com","url":"http://www.elmaltesehotel.com/","countryIso2":"NI","countryName":"Nicaragua","hotelRating":"2","latitude":"11.9288","longitude":"-85.9421","state_id":2890,"state_name":"Antioquia","country_id":48},{"active":false,"Giataid":"459433","cityId":77213,"cityName":"Managua","hotelId":459433,"hotelName":"Hotel Montserrat","address":"","phones":"","fax":"","email":"","url":"","countryIso2":"NI","countryName":"Nicaragua","hotelRating":"3","latitude":"12.1294","longitude":"-86.26","state_id":941,"state_name":"Managua","country_id":159},{"active":false,"Giataid":"466662","cityId":null,"cityName":"Mechapa","hotelId":466662,"hotelName":"Redwood Beach Resort","address":"13 km Norte del Empalme Cosiguina 3 km Al Oeste,Las Cabanas,11111 Mechapa,Chinandega,Nicaragua","phones":"+50589960328","fax":"","email":"info@rbrmechapa.com","url":"http://www.redwoodbeachresort.com","countryIso2":"NI","countryName":"Nicaragua","hotelRating":"3","latitude":"12.8361","longitude":"-87.5846","state_id":null,"state_name":null,"country_id":null},{"active":false,"Giataid":"467779","cityId":149139,"cityName":"Ocotal","hotelId":467779,"hotelName":"Hotel Mirador","address":"De la terminal de buses 100 m al norte sobre la carretera,63012 Ocotal,Nicaragua","phones":"","fax":"","email":"","url":"","countryIso2":"NI","countryName":"Nicaragua","hotelRating":"1","latitude":"13.6235","longitude":"-86.4759","state_id":4964,"state_name":"Nueva Segovia","country_id":159},{"active":false,"Giataid":"467836","cityId":null,"cityName":"San Ram?n","hotelId":467836,"hotelName":"Hotel y Restaurante El Sueno de la Campana","address":"Contiguo al Instituto de San Ram?n,San Ram?n ï¿½ Matagalpa,Nicaragua","phones":"+50527729730","fax":"","email":"fundacionlacampana@gmail.com","url":"http://fundacionlacampana.es/web/index.php","countryIso2":"NI","countryName":"Nicaragua","hotelRating":"1","latitude":"12.9251","longitude":"-85.8432","state_id":null,"state_name":null,"country_id":null},{"active":false,"Giataid":"468098","cityId":77176,"cityName":"Diriamba","hotelId":468098,"hotelName":"Hotel Mi Bohio","address":"Costado Esta de la Policia Nacional,Diriamba,Nicaragua","phones":"+50525343300","fax":"","email":"hotelmibohio@gmail.com","url":"http://www.hotelmibohio.com/","countryIso2":"NI","countryName":"Nicaragua","hotelRating":"1","latitude":"11.8604","longitude":"-86.2418","state_id":950,"state_name":"Carazo","country_id":159},{"active":false,"Giataid":"468858","cityId":77220,"cityName":"Moyogalpa","hotelId":468858,"hotelName":"Hotel Museo El Ceibo","address":"KM 8.2,10000 Moyogalpa,Rivas,Nicaragua","phones":"","fax":"","email":"","url":"","countryIso2":"NI","countryName":"Nicaragua","hotelRating":"2","latitude":"11.4801","longitude":"-85.6726","state_id":942,"state_name":"Rivas","country_id":159},{"active":false,"Giataid":"470243","cityId":null,"cityName":"Le?n","hotelId":470243,"hotelName":"Hotel Flor De Sarta","address":"Parque San Juan, 2c. Oeste, 1/2 c. Norte","phones":"","fax":"","email":"","url":"","countryIso2":"NI","countryName":"Nicaragua","hotelRating":"3","latitude":"12.4402","longitude":"-86.8786","state_id":null,"state_name":null,"country_id":null},{"active":false,"Giataid":"470295","cityId":20893,"cityName":"Granada","hotelId":470295,"hotelName":"Hotel El Familiar Granada","address":"Parque Central 100 metros al este,100 metros al sur y 50 metros al este,Granada,Nicaragua","phones":"+50525524350","fax":"","email":"reservas@hotelelfamiliargranada.com","url":"http://www.hotelelfamiliargranada.com/en","countryIso2":"NI","countryName":"Nicaragua","hotelRating":"2","latitude":"11.928","longitude":"-85.952","state_id":2890,"state_name":"Antioquia","country_id":48},{"active":false,"Giataid":"470758","cityId":77166,"cityName":"Chinandega","hotelId":470758,"hotelName":"Farallones Hotel","address":"Carr Chinandega-Guasaule Km 133,Chinandega,Nicaragua,Nicaragua","phones":"+50523429160","fax":"","email":"info@faralloneshotel.com","url":"http://www.faralloneshotel.com","countryIso2":"NI","countryName":"Nicaragua","hotelRating":"4","latitude":"12.882","longitude":"-87.1423","state_id":954,"state_name":"Chinandega","country_id":159},{"active":false,"Giataid":"471320","cityId":20893,"cityName":"Granada","hotelId":471320,"hotelName":"Hotel Real Destino","address":"","phones":"","fax":"","email":"","url":"","countryIso2":"NI","countryName":"Nicaragua","hotelRating":"3","latitude":"11.929","longitude":"-85.9509","state_id":2890,"state_name":"Antioquia","country_id":48},{"active":false,"Giataid":"471463","cityId":77264,"cityName":"San Juan del Sur","hotelId":471463,"hotelName":"O?Sheas San Juan del Sur","address":"","phones":"","fax":"","email":"","url":"","countryIso2":"NI","countryName":"Nicaragua","hotelRating":"1","latitude":"11.2361","longitude":"-85.8362","state_id":942,"state_name":"Rivas","country_id":159},{"active":false,"Giataid":"471505","cityId":77217,"cityName":"Matagalpa","hotelId":471505,"hotelName":"Hotel Casa Celebertti","address":"","phones":"","fax":"","email":"","url":"","countryIso2":"NI","countryName":"Nicaragua","hotelRating":"1","latitude":"12.923","longitude":"-85.9179","state_id":947,"state_name":"Matagalpa","country_id":159},{"active":false,"Giataid":"473094","cityId":104871,"cityName":"El Transito","hotelId":473094,"hotelName":"Green Surf Nicaragua","address":"El Transito,Le?n,Nicaragua","phones":"","fax":"","email":"","url":"http://www.greensurfnicaragua.com","countryIso2":"NI","countryName":"Nicaragua","hotelRating":"1","latitude":"0","longitude":"0","state_id":4135,"state_name":"San Miguel Department","country_id":66},{"active":false,"Giataid":"473115","cityId":null,"cityName":"Estel?","hotelId":473115,"hotelName":"Hotel Los Arcos","address":"Del costado noroeste de la Catedral 1/2 c al norte,31000 Estel?,Nicaragua","phones":"+50527133830","fax":"","email":"info@hotelosarcosesteli.com","url":"http://www.hotelosarcosesteli.com/","countryIso2":"NI","countryName":"Nicaragua","hotelRating":"3","latitude":"13.0851","longitude":"-86.363","state_id":null,"state_name":null,"country_id":null},{"active":false,"Giataid":"473582","cityId":77159,"cityName":"Boaco","hotelId":473582,"hotelName":"Hotel Tijerinos","address":"Frente al Parque Central,51000 Boaco,Nicaragua","phones":"","fax":"","email":"","url":"","countryIso2":"NI","countryName":"Nicaragua","hotelRating":"1","latitude":"12.4699","longitude":"-85.6589","state_id":946,"state_name":"Boaco","country_id":159},{"active":false,"Giataid":"473940","cityId":77220,"cityName":"Moyogalpa","hotelId":473940,"hotelName":"Hotelito y Restaurante Aly","address":"Main Street Moyogalpa,De la Gasolimera Santa Ana media calle arriba,Moyogalpa,Ometepe,Nicaragua","phones":"","fax":"","email":"","url":"","countryIso2":"NI","countryName":"Nicaragua","hotelRating":"1","latitude":"11.5401","longitude":"-85.6982","state_id":942,"state_name":"Rivas","country_id":159},{"active":false,"Giataid":"473984","cityId":77220,"cityName":"Moyogalpa","hotelId":473984,"hotelName":"Hotel Nicaraus","address":"Hospital Militar 100mts,Al Sur Moyogalpa,48700 Moyogalpa,Isla de Ometepe,Nicaragua","phones":"+50525694233","fax":"","email":"hostal_nicaraus@hotmail.com","url":"http://www.hotelnicaraus.com/","countryIso2":"NI","countryName":"Nicaragua","hotelRating":"1","latitude":"11.5378","longitude":"-85.6963","state_id":942,"state_name":"Rivas","country_id":159},{"active":false,"Giataid":"474218","cityId":77220,"cityName":"Moyogalpa","hotelId":474218,"hotelName":"Hotel Ometepetl","address":"","phones":"","fax":"","email":"","url":"","countryIso2":"NI","countryName":"Nicaragua","hotelRating":"1","latitude":"11.5406","longitude":"-85.7003","state_id":942,"state_name":"Rivas","country_id":159},{"active":false,"Giataid":"474533","cityId":77220,"cityName":"Moyogalpa","hotelId":474533,"hotelName":"The Landing Hotel","address":"Main road,30 METRES east of the port,Moyogalpa,Nicaragua","phones":"+50525694113","fax":"","email":"thelandinghotel@gmail.com","url":"http://www.thelandinghotel.com","countryIso2":"NI","countryName":"Nicaragua","hotelRating":"1","latitude":"11.5408","longitude":"-85.7003","state_id":942,"state_name":"Rivas","country_id":159},{"active":false,"Giataid":"475035","cityId":77166,"cityName":"Chinandega","hotelId":475035,"hotelName":"Hotel Apastepe","address":"Carretera panamericana Le?n-Chinandega Km. 125.5,Chinandega 25000,Chinandega Region,Nicaragua","phones":"+50523501571","fax":"","email":"apastepe@gmail.com","url":"http://www.hotelapastepe.com.ni/","countryIso2":"NI","countryName":"Nicaragua","hotelRating":"1","latitude":"12.6091","longitude":"-87.0755","state_id":954,"state_name":"Chinandega","country_id":159},{"active":false,"Giataid":"475324","cityId":20779,"cityName":"Dolores","hotelId":475324,"hotelName":"Hotel Majestic Nicaragua","address":"km 43 1/2 Carretera Dolores,Diriamba,En Residencial Bonicsa,Dolores,Nicaragua","phones":"+50525325471","fax":"","email":"hotelmajesticnic@yahoo.com","url":"http://www.hotelmajesticnicaragua.com/#!contact/c24vq","countryIso2":"NI","countryName":"Nicaragua","hotelRating":"1","latitude":"11.8605","longitude":"-86.2208","state_id":2883,"state_name":"Tolima","country_id":48},{"active":false,"Giataid":"475739","cityId":20893,"cityName":"Granada","hotelId":475739,"hotelName":"Hotel Palacio Real","address":"Carretera Masaya Granada Km 43.5,00011 Granada,Nicaragua","phones":"+50525529900","fax":"","email":"hotelpalaciorealgranada@gmail.com","url":"http://www.hotelpalaciorealgranada.com","countryIso2":"NI","countryName":"Nicaragua","hotelRating":"3","latitude":"11.9458","longitude":"-85.9816","state_id":2890,"state_name":"Antioquia","country_id":48},{"active":false,"Giataid":"475744","cityId":77176,"cityName":"Diriamba","hotelId":475744,"hotelName":"Eco posada Tortuga Verde","address":"Residencial Regina, Km. 40 1/2 carretera sur,Diriamba,Carazo,Nicaragua","phones":"+50525342948","fax":"","email":"roberto.r5540@gmail.com","url":"http://www.ecolodgecarazo.com/index_es.php","countryIso2":"NI","countryName":"Nicaragua","hotelRating":"1","latitude":"11.8582","longitude":"-86.2414","state_id":950,"state_name":"Carazo","country_id":159},{"active":false,"Giataid":"475772","cityId":20893,"cityName":"Granada","hotelId":475772,"hotelName":"Hotel Real Granada","address":"Avenida Guzman,250m from Central Park,43000 Granada,Nicaragua","phones":"+50525527861","fax":"","email":"hotelrealgranada@hotmail.com","url":"http://hotelrealgranada.nicaturismo.com/contact.html","countryIso2":"NI","countryName":"Nicaragua","hotelRating":"1","latitude":"11.9296","longitude":"-85.9536","state_id":2890,"state_name":"Antioquia","country_id":48},{"active":false,"Giataid":"475984","cityId":62367,"cityName":"Bluefields","hotelId":475984,"hotelName":"Hotel Lobster Pot","address":"Barrio Punta fria,Bluefields,Nicaragua","phones":"+50587315961","fax":"","email":"hotellobsterpot@hotmail.es","url":"http://www.lobsterpot.mex.tl","countryIso2":"NI","countryName":"Nicaragua","hotelRating":"2","latitude":"12.0109","longitude":"-83.7698","state_id":3742,"state_name":"Westmoreland Parish","country_id":108},{"active":false,"Giataid":"476212","cityId":77166,"cityName":"Chinandega","hotelId":476212,"hotelName":"Hotel Los Balcones de Chinandega","address":"1 Avenida Este,entre Calle Central y 1 Calle Norte,Esquina de los Bancos 50 metros al Norte,25000 Chinandega,Nicaragua","phones":"+50523418952","fax":"","email":"administracion@hotelbalcones.com","url":"http://www.hotelbalconeschinandega.com","countryIso2":"NI","countryName":"Nicaragua","hotelRating":"2","latitude":"12.6312","longitude":"-87.1324","state_id":954,"state_name":"Chinandega","country_id":159},{"active":false,"Giataid":"476684","cityId":21383,"cityName":"San Marcos","hotelId":476684,"hotelName":"Hotel The Place Inn San Marcos","address":"San Marcos km 42.5,Masatepe,10000 San Marcos,Nicaragua","phones":"","fax":"","email":"","url":"","countryIso2":"NI","countryName":"Nicaragua","hotelRating":"1","latitude":"11.9119","longitude":"-86.1971","state_id":2902,"state_name":"Sucre","country_id":48},{"active":false,"Giataid":"477156","cityId":77166,"cityName":"Chinandega","hotelId":477156,"hotelName":"Hotel Plaza Cosiguina","address":"Esquina de los Bancos 50 MTS al sur,Chinandega,Nicaragua","phones":"+50523413636","fax":"","email":"reservaciones@hotelplazacosiguina.com","url":"http://www.hotelplazacosiguina.com","countryIso2":"NI","countryName":"Nicaragua","hotelRating":"3","latitude":"12.6248","longitude":"-87.1272","state_id":954,"state_name":"Chinandega","country_id":159},{"active":false,"Giataid":"477170","cityId":null,"cityName":"Poneloya","hotelId":477170,"hotelName":"Hotel Suyapa Beach","address":"Las Penitas Poneloya,Poneloya,Nicaragua","phones":"+50523170217","fax":"+50523116257","email":"info@suyapabeach.com","url":"http://www.suyapabeach.com/?q=en","countryIso2":"NI","countryName":"Nicaragua","hotelRating":"3","latitude":"12.3593","longitude":"-87.0221","state_id":null,"state_name":null,"country_id":null},{"active":false,"Giataid":"477200","cityId":20779,"cityName":"Dolores","hotelId":477200,"hotelName":"D' Santos Hotel Boutique","address":"Km 43 Carretera Panamericana Sur, 300 Metros Al Norte Dolores,Nicaragua","phones":"+50583958582","fax":"","email":"reservas.dsantoshb@gmail.com","url":"http://www.dsantoshotelboutique.com","countryIso2":"NI","countryName":"Nicaragua","hotelRating":"1","latitude":"11.8621","longitude":"-86.2127","state_id":2883,"state_name":"Tolima","country_id":48},{"active":false,"Giataid":"489059","cityId":77264,"cityName":"San Juan del Sur","hotelId":489059,"hotelName":"Malibu At Pacific Marlin","address":"","phones":"","fax":"","email":"","url":"","countryIso2":"NI","countryName":"Nicaragua","hotelRating":"1","latitude":"11.262","longitude":"-85.872","state_id":942,"state_name":"Rivas","country_id":159},{"active":false,"Giataid":"489885","cityId":77213,"cityName":"Managua","hotelId":489885,"hotelName":"Hotel HolyH","address":"","phones":"","fax":"","email":"","url":"","countryIso2":"NI","countryName":"Nicaragua","hotelRating":"1","latitude":"12.1294","longitude":"-86.26","state_id":941,"state_name":"Managua","country_id":159},{"active":false,"Giataid":"491608","cityId":77213,"cityName":"Managua","hotelId":491608,"hotelName":"Lost Inn Managua Hostel","address":"14034 Managua,Nicaragua","phones":"","fax":"","email":"","url":"","countryIso2":"NI","countryName":"Nicaragua","hotelRating":"1","latitude":"12.1294","longitude":"-86.26","state_id":941,"state_name":"Managua","country_id":159},{"active":false,"Giataid":"491879","cityId":77264,"cityName":"San Juan del Sur","hotelId":491879,"hotelName":"Hostel Los March","address":"","phones":"","fax":"","email":"","url":"","countryIso2":"NI","countryName":"Nicaragua","hotelRating":"1","latitude":"11.262","longitude":"-85.872","state_id":942,"state_name":"Rivas","country_id":159},{"active":false,"Giataid":"508208","cityId":null,"cityName":"Estel?","hotelId":508208,"hotelName":"Hostal Moderno","address":"Costado este de Catedral 2 1/2 al sur,Esteli,Nicaragua","phones":"","fax":"","email":"","url":"","countryIso2":"NI","countryName":"Nicaragua","hotelRating":"1","latitude":"13.0866","longitude":"-86.3583","state_id":null,"state_name":null,"country_id":null},{"active":false,"Giataid":"509176","cityId":20893,"cityName":"Granada","hotelId":509176,"hotelName":"Hotel Boutique La Cigale","address":"La Calzada Street 422,Central Park,4c. Lake,Granada,Nicaragua","phones":"","fax":"","email":"","url":"","countryIso2":"NI","countryName":"Nicaragua","hotelRating":"2","latitude":"11.93","longitude":"-85.9496","state_id":2890,"state_name":"Antioquia","country_id":48},{"active":false,"Giataid":"510175","cityId":null,"cityName":"Estel?","hotelId":510175,"hotelName":"Hotel Los Altos Esteli","address":"Calle Transversal 13,Ccathedral Church 1,Block South 1/2,31000 Esteli,Nicaragua","phones":"+50527135264","fax":"","email":"reservaciones@hotellosaltosesteli.com","url":"http://www.hotellosaltosesteli.com/en/home/","countryIso2":"NI","countryName":"Nicaragua","hotelRating":"3","latitude":"13.0917","longitude":"-86.3555","state_id":null,"state_name":null,"country_id":null},{"active":false,"Giataid":"512100","cityId":77213,"cityName":"Managua","hotelId":512100,"hotelName":"Hotel Los Pinos","address":"Calle San Juan 314,Reparto San Juan,Gimnasio Hercules 1c Al Sur 1/2c,Managua,Nicaragua","phones":"+50522700761","fax":"","email":"","url":"","countryIso2":"NI","countryName":"Nicaragua","hotelRating":"1","latitude":"12.1184","longitude":"-86.2691","state_id":941,"state_name":"Managua","country_id":159},{"active":false,"Giataid":"513643","cityId":77213,"cityName":"Managua","hotelId":513643,"hotelName":"Pandora Hostel","address":"","phones":"","fax":"","email":"","url":"","countryIso2":"NI","countryName":"Nicaragua","hotelRating":"2","latitude":"12.1425","longitude":"-86.2783","state_id":941,"state_name":"Managua","country_id":159},{"active":false,"Giataid":"515128","cityId":77213,"cityName":"Managua","hotelId":515128,"hotelName":"Hostal Sleep Easy Inn","address":"Bolonia,Lugo Rent a car 1 1/2 al Sur,1340 Managua,Nicaragua","phones":"+50522689130","fax":"","email":"","url":"","countryIso2":"NI","countryName":"Nicaragua","hotelRating":"2","latitude":"12.1408","longitude":"-86.287","state_id":941,"state_name":"Managua","country_id":159},{"active":false,"Giataid":"516519","cityId":20893,"cityName":"Granada","hotelId":516519,"hotelName":"New Century Hostel","address":"De la polvora,1 cuadra al sur,1/2 cuadra al oeste,Granada,Nicaragua","phones":"+50525523064","fax":"","email":"jorgevasquez28@hotmail.com","url":"http://www.newcenturyhostel.com/","countryIso2":"NI","countryName":"Nicaragua","hotelRating":"1","latitude":"11.9269","longitude":"-85.9656","state_id":2890,"state_name":"Antioquia","country_id":48},{"active":false,"Giataid":"516605","cityId":20893,"cityName":"Granada","hotelId":516605,"hotelName":"Glifloos Hotel - Restaurant","address":"","phones":"","fax":"","email":"","url":"","countryIso2":"NI","countryName":"Nicaragua","hotelRating":"2","latitude":"11.9296","longitude":"-85.9536","state_id":2890,"state_name":"Antioquia","country_id":48},{"active":false,"Giataid":"516735","cityId":77213,"cityName":"Managua","hotelId":516735,"hotelName":"Hotel Valerie","address":"","phones":"","fax":"","email":"","url":"","countryIso2":"NI","countryName":"Nicaragua","hotelRating":"2","latitude":"12.1417","longitude":"-86.2846","state_id":941,"state_name":"Managua","country_id":159},{"active":false,"Giataid":"540397","cityId":20893,"cityName":"Granada","hotelId":540397,"hotelName":"Hotel Estrada","address":"","phones":"","fax":"","email":"","url":"","countryIso2":"NI","countryName":"Nicaragua","hotelRating":"3","latitude":"11.9296","longitude":"-85.9536","state_id":2890,"state_name":"Antioquia","country_id":48},{"active":false,"Giataid":"546291","cityId":20893,"cityName":"Granada","hotelId":546291,"hotelName":"Sky Granada","address":"Costado Sur De La Lglesia Catedral,Calle Caimito Next Kelly's Bar,Granada,Nicaragua","phones":"","fax":"","email":"","url":"","countryIso2":"NI","countryName":"Nicaragua","hotelRating":"2","latitude":"11.9293","longitude":"-85.9531","state_id":2890,"state_name":"Antioquia","country_id":48},{"active":false,"Giataid":"551036","cityId":77213,"cityName":"Managua","hotelId":551036,"hotelName":"Hotel Casa de Angeles","address":"Monte de los Olivos,4 c arriba,1/2 al sur Managua,Managua,Nicaragua","phones":"+50522782276","fax":"","email":"","url":"http://casadeangeles.com.ni/","countryIso2":"NI","countryName":"Nicaragua","hotelRating":"3","latitude":"12.1243","longitude":"-86.2571","state_id":941,"state_name":"Managua","country_id":159},{"active":false,"Giataid":"590057","cityId":77216,"cityName":"Masaya","hotelId":590057,"hotelName":"Pacaya Lodge and Spa","address":"Paso del Tren 100 Varas al Norte y 100 Varas al Este,Comarca Pacaya,Catarina,Nicaragua","phones":"","fax":"","email":"","url":"","countryIso2":"NI","countryName":"Nicaragua","hotelRating":"5","latitude":"11.9521","longitude":"-86.0883","state_id":953,"state_name":"Masaya","country_id":159},{"active":false,"Giataid":"603265","cityId":null,"cityName":"Las Pe?itas","hotelId":603265,"hotelName":"Nayal Lodge","address":"De La Policia 300meters Al Este,21000 Las Pe?itas,Nicaragua","phones":"+50557150076","fax":"","email":"","url":"http://www.nayallodge.com/","countryIso2":"NI","countryName":"Nicaragua","hotelRating":"1","latitude":"12.3704","longitude":"-87.0343","state_id":null,"state_name":null,"country_id":null},{"active":false,"Giataid":"604438","cityId":null,"cityName":"Le?n","hotelId":604438,"hotelName":"Somar Surf camp & Lodge","address":"","phones":"","fax":"","email":"","url":"","countryIso2":"NI","countryName":"Nicaragua","hotelRating":"1","latitude":"12.4346","longitude":"-86.8781","state_id":null,"state_name":null,"country_id":null},{"active":false,"Giataid":"604442","cityId":null,"cityName":"Estel?","hotelId":604442,"hotelName":"Aparthotel Gueguense","address":"","phones":"+50527142229","fax":"","email":"","url":"","countryIso2":"NI","countryName":"Nicaragua","hotelRating":"1","latitude":"13.0708","longitude":"-86.352","state_id":null,"state_name":null,"country_id":null},{"active":false,"Giataid":"604444","cityId":62367,"cityName":"Bluefields","hotelId":604444,"hotelName":"Hotel Oasis Bluefields","address":"Esquina Opuesta al Muelle Municipal Pointeen,Bluefields,Nicaragua","phones":"","fax":"","email":"","url":"","countryIso2":"NI","countryName":"Nicaragua","hotelRating":"3","latitude":"12.0136","longitude":"-83.7595","state_id":3742,"state_name":"Westmoreland Parish","country_id":108},{"active":false,"Giataid":"604626","cityId":77264,"cityName":"San Juan del Sur","hotelId":604626,"hotelName":"Porta Do Sol Hostel","address":"Barrio San Rafael del Valle,Contiguo a las casas para el pueblo,El Container,San Juan del Sur,Nicaragua","phones":"","fax":"","email":"","url":"","countryIso2":"NI","countryName":"Nicaragua","hotelRating":"2","latitude":"11.262","longitude":"-85.872","state_id":942,"state_name":"Rivas","country_id":159},{"active":false,"Giataid":"604628","cityId":77213,"cityName":"Managua","hotelId":604628,"hotelName":"Managua Backpackers Inn","address":"1 Monte De Los Olivos,Casa 56,1 Block W And ? Block N Of Lake,Managua,Nicaragua","phones":"+50522670006","fax":"","email":"","url":"","countryIso2":"NI","countryName":"Nicaragua","hotelRating":"1","latitude":"12.1251","longitude":"-86.2626","state_id":941,"state_name":"Managua","country_id":159},{"active":false,"Giataid":"604633","cityId":77213,"cityName":"Managua","hotelId":604633,"hotelName":"Hotel La Tora","address":"Plaza El Sol, 1 Sur, 2 media abajo","phones":"","fax":"","email":"","url":"","countryIso2":"NI","countryName":"Nicaragua","hotelRating":"2","latitude":"12.1283","longitude":"-86.2637","state_id":941,"state_name":"Managua","country_id":159},{"active":false,"Giataid":"604635","cityId":77166,"cityName":"Chinandega","hotelId":604635,"hotelName":"Hostal Casa los Cocos","address":"Km 127.1 Carretera Leon-Chinandega,25000 Chinandega,Nicaragua","phones":"","fax":"","email":"","url":"","countryIso2":"NI","countryName":"Nicaragua","hotelRating":"1","latitude":"12.6573","longitude":"-87.1853","state_id":954,"state_name":"Chinandega","country_id":159},{"active":false,"Giataid":"604638","cityId":77289,"cityName":"Tola","hotelId":604638,"hotelName":"Hotel Popoyo","address":"","phones":"+50588853334","fax":"","email":"","url":"","countryIso2":"NI","countryName":"Nicaragua","hotelRating":"1","latitude":"11.4733","longitude":"-86.1276","state_id":942,"state_name":"Rivas","country_id":159},{"active":false,"Giataid":"604649","cityId":77264,"cityName":"San Juan del Sur","hotelId":604649,"hotelName":"Chez Nous B&B","address":"","phones":"","fax":"","email":"","url":"","countryIso2":"NI","countryName":"Nicaragua","hotelRating":"1","latitude":"11.262","longitude":"-85.872","state_id":942,"state_name":"Rivas","country_id":159},{"active":false,"Giataid":"604652","cityId":77264,"cityName":"San Juan del Sur","hotelId":604652,"hotelName":"Hostal y Restaurante Villa Mar","address":"Playa Marsella,50884 San Juan del Sur,Nicaragua","phones":"","fax":"","email":"","url":"","countryIso2":"NI","countryName":"Nicaragua","hotelRating":"1","latitude":"11.262","longitude":"-85.872","state_id":942,"state_name":"Rivas","country_id":159},{"active":false,"Giataid":"604653","cityId":null,"cityName":"Le?n","hotelId":604653,"hotelName":"Hostal Leyendas","address":"Teatro Municipal Jose de La Cruz Mena,4 1/2 Cuadras Al Oeste,21000 Le?n,Nicaragua","phones":"","fax":"","email":"","url":"","countryIso2":"NI","countryName":"Nicaragua","hotelRating":"1","latitude":"12.4328","longitude":"-86.8872","state_id":null,"state_name":null,"country_id":null},{"active":false,"Giataid":"604656","cityId":77213,"cityName":"Managua","hotelId":604656,"hotelName":"El Mirador Suites and Lounge","address":"","phones":"","fax":"","email":"","url":"","countryIso2":"NI","countryName":"Nicaragua","hotelRating":"1","latitude":"12.1294","longitude":"-86.26","state_id":941,"state_name":"Managua","country_id":159},{"active":false,"Giataid":"610997","cityId":77240,"cityName":"Nandaime","hotelId":610997,"hotelName":"Nekupe","address":"Nandaime,Granada,Nicaragua","phones":"+5056464125850","fax":"","email":"nekupe@bennettmercado.com","url":"http://www.nekupe.com/","countryIso2":"NI","countryName":"Nicaragua","hotelRating":"1","latitude":"11.6967","longitude":"-86.0474","state_id":943,"state_name":"Granada","country_id":159},{"active":false,"Giataid":"625757","cityId":null,"cityName":"Pochomil","hotelId":625757,"hotelName":"Casa Larocque","address":"100 Metros Al Este De Vistamar,10000 Pochomil,Nicaragua","phones":"","fax":"","email":"","url":"","countryIso2":"NI","countryName":"Nicaragua","hotelRating":"3","latitude":"11.7751","longitude":"-86.5122","state_id":null,"state_name":null,"country_id":null},{"active":false,"Giataid":"625823","cityId":77213,"cityName":"Managua","hotelId":625823,"hotelName":"Hotel Dulce Hogar & Spa","address":"","phones":"+50522770865","fax":"","email":"","url":"","countryIso2":"NI","countryName":"Nicaragua","hotelRating":"3","latitude":"12.1186","longitude":"-86.2525","state_id":941,"state_name":"Managua","country_id":159},{"active":false,"Giataid":"625832","cityId":null,"cityName":"Pochomil","hotelId":625832,"hotelName":"Hotel Casa Pochomil","address":"","phones":"","fax":"","email":"","url":"","countryIso2":"NI","countryName":"Nicaragua","hotelRating":"3","latitude":"11.7646","longitude":"-86.4991","state_id":null,"state_name":null,"country_id":null},{"active":false,"Giataid":"625838","cityId":77264,"cityName":"San Juan del Sur","hotelId":625838,"hotelName":"La Dolce Vita","address":"","phones":"+50525682649","fax":"","email":"","url":"","countryIso2":"NI","countryName":"Nicaragua","hotelRating":"3","latitude":"11.2547","longitude":"-85.8712","state_id":942,"state_name":"Rivas","country_id":159},{"active":false,"Giataid":"625843","cityId":20893,"cityName":"Granada","hotelId":625843,"hotelName":"Hacienda Colonial Hotel Boutique","address":"Del Jockey Country Club 400 mts. al oeste,43000 Granada,Nicaragua","phones":"+50575305917","fax":"","email":"","url":"","countryIso2":"NI","countryName":"Nicaragua","hotelRating":"2","latitude":"11.937","longitude":"-85.9731","state_id":2890,"state_name":"Antioquia","country_id":48},{"active":false,"Giataid":"625869","cityId":null,"cityName":"Le?n","hotelId":625869,"hotelName":"Hotel Leon Viejo","address":"","phones":"+50523110485","fax":"","email":"","url":"","countryIso2":"NI","countryName":"Nicaragua","hotelRating":"1","latitude":"12.435","longitude":"-86.8875","state_id":null,"state_name":null,"country_id":null},{"active":false,"Giataid":"625916","cityId":null,"cityName":"Le?n","hotelId":625916,"hotelName":"Hotel Libano","address":"De la Catedral 1/2,Cuadra al Norte,21000 Le?n,Nicaragua","phones":"+50523110857","fax":"","email":"","url":"","countryIso2":"NI","countryName":"Nicaragua","hotelRating":"3","latitude":"12.4357","longitude":"-86.8786","state_id":null,"state_name":null,"country_id":null},{"active":false,"Giataid":"625917","cityId":null,"cityName":"Le?n","hotelId":625917,"hotelName":"Hotel Real Leon","address":"Iglesia Recoleccion 1 1/2","phones":"","fax":"","email":"","url":"","countryIso2":"NI","countryName":"Nicaragua","hotelRating":"2","latitude":"12.4376","longitude":"-86.8753","state_id":null,"state_name":null,"country_id":null},{"active":false,"Giataid":"625919","cityId":null,"cityName":"Le?n","hotelId":625919,"hotelName":"Hotel El Sueno de Meme","address":"Antiguo Colegio Acad?mico Mercantil 3 cuadras abajo,1/2 cuadra al norte,21000 Le?n,Nicaragua","phones":"","fax":"","email":"","url":"","countryIso2":"NI","countryName":"Nicaragua","hotelRating":"1","latitude":"12.4393","longitude":"-86.8836","state_id":null,"state_name":null,"country_id":null},{"active":false,"Giataid":"625926","cityId":77264,"cityName":"San Juan del Sur","hotelId":625926,"hotelName":"Beach Please Hotel","address":"","phones":"","fax":"","email":"","url":"","countryIso2":"NI","countryName":"Nicaragua","hotelRating":"1","latitude":"11.2672","longitude":"-85.8648","state_id":942,"state_name":"Rivas","country_id":159},{"active":false,"Giataid":"625929","cityId":77264,"cityName":"San Juan del Sur","hotelId":625929,"hotelName":"Hotel Encanto del Sur","address":"Avenida Gaspar Garcia Laviana,San Juan Del Sur 48600,Nicaragua","phones":"+50525682222","fax":"","email":"","url":"","countryIso2":"NI","countryName":"Nicaragua","hotelRating":"2","latitude":"11.2516","longitude":"-85.8702","state_id":942,"state_name":"Rivas","country_id":159},{"active":false,"Giataid":"625931","cityId":null,"cityName":"Las Pe?itas","hotelId":625931,"hotelName":"Bomalu","address":"Desde Cruce Penitas Poneloya 900m Al Sur,Las Penitas,Nicaragua","phones":"+50575325546","fax":"","email":"","url":"","countryIso2":"NI","countryName":"Nicaragua","hotelRating":"1","latitude":"12.3634","longitude":"-87.0266","state_id":null,"state_name":null,"country_id":null},{"active":false,"Giataid":"625933","cityId":null,"cityName":"Estel?","hotelId":625933,"hotelName":"Hotel Don Vito","address":"","phones":"+50527134318","fax":"","email":"","url":"","countryIso2":"NI","countryName":"Nicaragua","hotelRating":"1","latitude":"13.0847","longitude":"-86.355","state_id":null,"state_name":null,"country_id":null},{"active":false,"Giataid":"625936","cityId":21225,"cityName":"Pueblo Nuevo","hotelId":625936,"hotelName":"Kahka Creek","address":"","phones":"+50525700962","fax":"","email":"","url":"","countryIso2":"NI","countryName":"Nicaragua","hotelRating":"1","latitude":"12.6645","longitude":"-83.7364","state_id":2898,"state_name":"Cordoba","country_id":48},{"active":false,"Giataid":"625944","cityId":null,"cityName":"Estel?","hotelId":625944,"hotelName":"Alameda","address":"","phones":"","fax":"","email":"","url":"","countryIso2":"NI","countryName":"Nicaragua","hotelRating":"1","latitude":"13.0866","longitude":"-86.3583","state_id":null,"state_name":null,"country_id":null},{"active":false,"Giataid":"625947","cityId":null,"cityName":"Las Pe?itas","hotelId":625947,"hotelName":"Simple Beach Lodge","address":"Contiguo a Playa Roca,Las Pe?itas,Nicaragua","phones":"+50576582009","fax":"","email":"","url":"","countryIso2":"NI","countryName":"Nicaragua","hotelRating":"1","latitude":"12.3599","longitude":"-87.0226","state_id":null,"state_name":null,"country_id":null},{"active":false,"Giataid":"625953","cityId":77213,"cityName":"Managua","hotelId":625953,"hotelName":"Brandts Ejecutivo Los Robles","address":"","phones":"","fax":"","email":"","url":"","countryIso2":"NI","countryName":"Nicaragua","hotelRating":"1","latitude":"12.1294","longitude":"-86.26","state_id":941,"state_name":"Managua","country_id":159},{"active":false,"Giataid":"625958","cityId":null,"cityName":"El Manchon","hotelId":625958,"hotelName":"Hotel Restaurante Plaza Manchon","address":"Km 70 1/2 carretera Nandaime Rivas,El Manchon,Nicaragua","phones":"","fax":"","email":"","url":"","countryIso2":"NI","countryName":"Nicaragua","hotelRating":"1","latitude":"11.7323","longitude":"-86.0171","state_id":null,"state_name":null,"country_id":null},{"active":false,"Giataid":"625960","cityId":null,"cityName":"Estel?","hotelId":625960,"hotelName":"Hotel El Meson","address":"De La Colonia 1c Al Norte,12085 Estel?,Nicaragua","phones":"","fax":"","email":"","url":"","countryIso2":"NI","countryName":"Nicaragua","hotelRating":"1","latitude":"13.0941","longitude":"-86.3558","state_id":null,"state_name":null,"country_id":null},{"active":false,"Giataid":"625964","cityId":null,"cityName":"Estel?","hotelId":625964,"hotelName":"Hotel El Acuario de Luis","address":"Cotran sur 1/2 cuadra al Norte 800 mts al Este.,Estel?,Nicaragua","phones":"+50527141125","fax":"","email":"acuariousdeluis10@gmail.com","url":"https://acuariousdeluis.online.com.ni/","countryIso2":"NI","countryName":"Nicaragua","hotelRating":"1","latitude":"13.0747","longitude":"-86.3435","state_id":null,"state_name":null,"country_id":null},{"active":false,"Giataid":"625963","cityId":null,"cityName":"Estel?","hotelId":625963,"hotelName":"Casa Hotel Santa Elena","address":"","phones":"+50589307040","fax":"","email":"","url":"","countryIso2":"NI","countryName":"Nicaragua","hotelRating":"1","latitude":"13.0825","longitude":"-86.3561","state_id":null,"state_name":null,"country_id":null},{"active":false,"Giataid":"625969","cityId":null,"cityName":"Estel?","hotelId":625969,"hotelName":"Hotel Mery","address":"Costado Norte Casa Pellas 2 cuadras al Oeste,Estel?,Nicaragua","phones":"","fax":"","email":"","url":"","countryIso2":"NI","countryName":"Nicaragua","hotelRating":"1","latitude":"13.0902","longitude":"-86.3528","state_id":null,"state_name":null,"country_id":null},{"active":false,"Giataid":"626073","cityId":null,"cityName":"Las Pe?itas","hotelId":626073,"hotelName":"Hotelito Dulce Mareas","address":"","phones":"+50588271161","fax":"","email":"","url":"","countryIso2":"NI","countryName":"Nicaragua","hotelRating":"1","latitude":"12.3592","longitude":"-87.0194","state_id":null,"state_name":null,"country_id":null},{"active":false,"Giataid":"626075","cityId":77197,"cityName":"Juigalpa","hotelId":626075,"hotelName":"Hotel Los Arcangeles","address":"Bo Central Costado Este de Catedral,Juigalpa,Nicaragua","phones":"","fax":"","email":"","url":"","countryIso2":"NI","countryName":"Nicaragua","hotelRating":"1","latitude":"12.1068","longitude":"-85.3643","state_id":940,"state_name":"Chontales","country_id":159},{"active":false,"Giataid":"626076","cityId":null,"cityName":"Corn Islands","hotelId":626076,"hotelName":"Sunrise Hotel","address":"Via Principal,82100 Big Corn Island,Nicaragua","phones":"","fax":"","email":"","url":"","countryIso2":"NI","countryName":"Nicaragua","hotelRating":"3","latitude":"12.1674","longitude":"-83.0432","state_id":null,"state_name":null,"country_id":null},{"active":false,"Giataid":"626081","cityId":null,"cityName":"Le?n","hotelId":626081,"hotelName":"Hotel Leon del Sol","address":"","phones":"+50523110350","fax":"","email":"","url":"","countryIso2":"NI","countryName":"Nicaragua","hotelRating":"1","latitude":"12.4376","longitude":"-86.8749","state_id":null,"state_name":null,"country_id":null},{"active":false,"Giataid":"626347","cityId":null,"cityName":"Poneloya","hotelId":626347,"hotelName":"Hotel Maritimo","address":"Calle Central Poneloya,Del Ensanche delas Pe?itas giras a la derecha 150 metros al Oeste,00884 Poneloya,Nicaragua","phones":"","fax":"","email":"","url":"","countryIso2":"NI","countryName":"Nicaragua","hotelRating":"1","latitude":"12.3741","longitude":"-87.0373","state_id":null,"state_name":null,"country_id":null},{"active":false,"Giataid":"627248","cityId":null,"cityName":"Estel?","hotelId":627248,"hotelName":"Hostal Azul d' la Selva Esteli","address":"Parque Infantil 2 c. al Oeste, 1/2 c al Norte,Estel?,Nicaragua","phones":"+50527141992","fax":"","email":"reservacion@hostalazulesteli.com","url":"http://www.hostalazulesteli.com/","countryIso2":"NI","countryName":"Nicaragua","hotelRating":"1","latitude":"13.0866","longitude":"-86.3583","state_id":null,"state_name":null,"country_id":null},{"active":false,"Giataid":"627254","cityId":null,"cityName":"Las Pe?itas","hotelId":627254,"hotelName":"El Cardhu del Mar","address":"From Pescanova 50 metres south, on Ocean side of street Kilometer marker 110.7,Las Pe?itas,Nicaragua","phones":"+50586482119","fax":"","email":"","url":"http://www.elcardhudelmar.com/en","countryIso2":"NI","countryName":"Nicaragua","hotelRating":"1","latitude":"12.3679","longitude":"-87.0315","state_id":null,"state_name":null,"country_id":null},{"active":false,"Giataid":"627259","cityId":null,"cityName":"Las Pe?itas","hotelId":627259,"hotelName":"El Belga Loco","address":"Costado Sur de Farallon Aquaculture de Nicaragua,21000 Las Pe?itas,Nicaragua","phones":"","fax":"","email":"","url":"","countryIso2":"NI","countryName":"Nicaragua","hotelRating":"1","latitude":"12.3634","longitude":"-87.0266","state_id":null,"state_name":null,"country_id":null},{"active":false,"Giataid":"627272","cityId":null,"cityName":"Estel?","hotelId":627272,"hotelName":"Casa Vinculos","address":"Del Almac?n Sony 1c. y 1/2 al Oeste,Estel?,Nicaragua","phones":"+50527132044","fax":"","email":"casavinculos@vinculosesteli.org","url":"https://casavinculoseng.wordpress.com/","countryIso2":"NI","countryName":"Nicaragua","hotelRating":"1","latitude":"13.0871","longitude":"-86.3587","state_id":null,"state_name":null,"country_id":null},{"active":false,"Giataid":"627280","cityId":null,"cityName":"Little Corn Island","hotelId":627280,"hotelName":"Las Palmeras","address":"De la policia, 150mts al noroeste,Little Corn Island,Nicaragua","phones":"","fax":"","email":"","url":"","countryIso2":"NI","countryName":"Nicaragua","hotelRating":"1","latitude":"12.2874","longitude":"-82.9831","state_id":null,"state_name":null,"country_id":null},{"active":false,"Giataid":"627310","cityId":null,"cityName":"Las Pe?itas","hotelId":627310,"hotelName":"Playa Roca Hotel","address":"Calle Al Norte Las Penitas,Las Pe?itas,Leon,Nicaragua","phones":"+50523170224","fax":"","email":"info@playarocahotel.com","url":"https://playarocahotel.com/","countryIso2":"NI","countryName":"Nicaragua","hotelRating":"1","latitude":"12.3601","longitude":"-87.0232","state_id":null,"state_name":null,"country_id":null},{"active":false,"Giataid":"627313","cityId":null,"cityName":"Little Corn Island","hotelId":627313,"hotelName":"Sea View","address":"","phones":"","fax":"","email":"","url":"","countryIso2":"NI","countryName":"Nicaragua","hotelRating":"1","latitude":"12.2865","longitude":"-82.9818","state_id":null,"state_name":null,"country_id":null},{"active":false,"Giataid":"627321","cityId":null,"cityName":"Corn Islands","hotelId":627321,"hotelName":"Hotel Morgan","address":"North End,82100 Big Corn Island,Nicaragua","phones":"","fax":"","email":"","url":"http://www.hotelmorganbigcornisland.com/","countryIso2":"NI","countryName":"Nicaragua","hotelRating":"1","latitude":"12.1828","longitude":"-83.0572","state_id":null,"state_name":null,"country_id":null},{"active":false,"Giataid":"627326","cityId":77220,"cityName":"Moyogalpa","hotelId":627326,"hotelName":"American Cafe and Hotel","address":"Ferry station 1/2,block East,Moyogalpa,Nicaragua","phones":"","fax":"","email":"","url":"","countryIso2":"NI","countryName":"Nicaragua","hotelRating":"1","latitude":"11.5407","longitude":"-85.6995","state_id":942,"state_name":"Rivas","country_id":159},{"active":false,"Giataid":"627327","cityId":null,"cityName":"Little Corn Island","hotelId":627327,"hotelName":"Hotel Los Delfines","address":"200 m Southeast from Municipal Warf,Little Corn Island,Islas del Ma?z,Regi?n Aut?noma de la Costa Caribe Sur,Nicaragua","phones":"+50584113572","fax":"","email":"hotellosdelfines@hotmail.com","url":"http://www.losdelfineslittlecorn.com/","countryIso2":"NI","countryName":"Nicaragua","hotelRating":"1","latitude":"12.2843","longitude":"-82.9786","state_id":null,"state_name":null,"country_id":null},{"active":false,"Giataid":"627329","cityId":77220,"cityName":"Moyogalpa","hotelId":627329,"hotelName":"Hostal Dilany","address":"Del Puerto de Moyogalpa 1.5 Km AL Sur y Del Puerto de San Jose 14 Km Norte,Moyogalpa,Nicaragua","phones":"","fax":"","email":"","url":"","countryIso2":"NI","countryName":"Nicaragua","hotelRating":"1","latitude":"11.5282","longitude":"-85.7077","state_id":942,"state_name":"Rivas","country_id":159},{"active":false,"Giataid":"627330","cityId":1428,"cityName":"San Jorge","hotelId":627330,"hotelName":"Hotel Dalinky","address":"200m Al Oeste Ael Muelle,San Jorge,Nicaragua","phones":"+50525634990","fax":"","email":"reservacion@hoteldalinky.com","url":"http://www.hoteldalinky.com/es/","countryIso2":"NI","countryName":"Nicaragua","hotelRating":"1","latitude":"11.4598","longitude":"-85.792","state_id":3641,"state_name":"Santa Fe","country_id":11},{"active":false,"Giataid":"667715","cityId":20893,"cityName":"Granada","hotelId":667715,"hotelName":"Hotel Casa Generalife","address":"Calle Corrales,Costado Norte Iglesia De San Francisco,De la Catedral 1 Block South And 1 1/2 Block East,43000 Granada,Nicaragua","phones":"+50525520589","fax":"","email":"info@hotelcasageneralife.com","url":"http://hotelcasageneralife.com","countryIso2":"NI","countryName":"Nicaragua","hotelRating":"3","latitude":"11.9327","longitude":"-85.952","state_id":2890,"state_name":"Antioquia","country_id":48},{"active":false,"Giataid":"669366","cityId":20893,"cityName":"Granada","hotelId":669366,"hotelName":"Isleta El Espino","address":"Las Isletas de Granada,Marina Cocibolca,Granada,Nicaragua","phones":"+50576360060","fax":"","email":"","url":"","countryIso2":"NI","countryName":"Nicaragua","hotelRating":"3","latitude":"11.8898","longitude":"-85.9131","state_id":2890,"state_name":"Antioquia","country_id":48},{"active":false,"Giataid":"707300","cityId":null,"cityName":"La Boquita","hotelId":707300,"hotelName":"Villa Mallen","address":"25 Kms Hacia la Boquita y Casares,La Boquita,Nicaragua","phones":"+50588860777","fax":"","email":"marlen@villamallen.com","url":"http://villamallen.com","countryIso2":"NI","countryName":"Nicaragua","hotelRating":"1","latitude":"11.6641","longitude":"-86.3707","state_id":null,"state_name":null,"country_id":null},{"active":false,"Giataid":"707428","cityId":77166,"cityName":"Chinandega","hotelId":707428,"hotelName":"Hostal del Pacifico Chinandega","address":"Iglesia San Antonio 1 1/2 cuadra al Sur,25000 Chinandega,Chinandega,Nicaragua","phones":"+50523413827","fax":"","email":"reservaciones@","url":"http://www.hostalpacificochinandega.com","countryIso2":"NI","countryName":"Nicaragua","hotelRating":"1","latitude":"12.6573","longitude":"-87.1853","state_id":954,"state_name":"Chinandega","country_id":159},{"active":false,"Giataid":"707463","cityId":null,"cityName":"Little Corn Island","hotelId":707463,"hotelName":"Little Corn Beach and Bungalow","address":"Located On The Eastern Coastal Side,Little Corn Island,Nicaragua","phones":"+50589232517","fax":"","email":"info@littlecornbb.com","url":"https://www.littlecornbb.com","countryIso2":"NI","countryName":"Nicaragua","hotelRating":"2","latitude":"12.2893","longitude":"-82.9762","state_id":null,"state_name":null,"country_id":null},{"active":false,"Giataid":"707678","cityId":77166,"cityName":"Chinandega","hotelId":707678,"hotelName":"Tapas and Surf","address":"Carretera Aserradores,Playa Nahualapa,El Manzano Numero 1,Departamento De Chinandega,Nicaragua","phones":"+50585607349","fax":"","email":"info@tapasandsurf.com","url":"http://www.tapasandsurf.com","countryIso2":"NI","countryName":"Nicaragua","hotelRating":"1","latitude":"12.6573","longitude":"-87.1853","state_id":954,"state_name":"Chinandega","country_id":159},{"active":false,"Giataid":"707983","cityId":77166,"cityName":"Chinandega","hotelId":707983,"hotelName":"Hostal CasaBlanca","address":"Calle Central,Supermercado Pali 250 metros Oeste,25000 Chinandega,Chinandega Departamentos,Nicaragua","phones":"+50581498592","fax":"","email":"hostal.casablanca.ch@gmail.com","url":"http://www.hostalcasablanca.info","countryIso2":"NI","countryName":"Nicaragua","hotelRating":"1","latitude":"12.6573","longitude":"-87.1853","state_id":954,"state_name":"Chinandega","country_id":159},{"active":false,"Giataid":"708005","cityId":null,"cityName":"Estel?","hotelId":708005,"hotelName":"Finca Neblina del Bosque","address":"Bus Stop The Rampla 300 meters to west,Miraflor,Reserva Natural Miraflor,Estel? Departamento,Nicaragua","phones":"+50575195685","fax":"","email":"isabelfincaneblina@gmail.com","url":"http://www.neblinadelbosque.com","countryIso2":"NI","countryName":"Nicaragua","hotelRating":"1","latitude":"13.0866","longitude":"-86.3583","state_id":null,"state_name":null,"country_id":null},{"active":false,"Giataid":"709227","cityId":77159,"cityName":"Boaco","hotelId":709227,"hotelName":"Hotel Sobalvarro","address":"Borrio Olama,Costado Sur Del Parque,Central,Boaco,Nicaragua","phones":"","fax":"","email":"","url":"","countryIso2":"NI","countryName":"Nicaragua","hotelRating":"1","latitude":"12.4868","longitude":"-85.5892","state_id":946,"state_name":"Boaco","country_id":159},{"active":false,"Giataid":"709350","cityId":null,"cityName":"Little Corn Island","hotelId":709350,"hotelName":"Las Palmeras Hotel","address":"Del Muelle 600m,Little Corn Island,Nicaragua","phones":"","fax":"","email":"bookme@laspalmeraslittlecorn.com","url":"http://www.laspalmeraslittlecorn.com","countryIso2":"NI","countryName":"Nicaragua","hotelRating":"1","latitude":"12.2865","longitude":"-82.9818","state_id":null,"state_name":null,"country_id":null},{"active":false,"Giataid":"709361","cityId":62367,"cityName":"Bluefields","hotelId":709361,"hotelName":"Flamingo Hotel And Casino","address":"Calle Municipal,Costado Opuesto Muelle Municipal,81000 Bluefields,Nicaragua","phones":"","fax":"","email":"","url":"","countryIso2":"NI","countryName":"Nicaragua","hotelRating":"1","latitude":"12.0122","longitude":"-83.7647","state_id":3742,"state_name":"Westmoreland Parish","country_id":108},{"active":false,"Giataid":"475772","cityId":20893,"cityName":"Granada","hotelId":709364,"hotelName":"Hotel Real Granada","address":"Avenida Guzman,250m from Central Park,43000 Granada,Nicaragua","phones":"","fax":"","email":"","url":"","countryIso2":"NI","countryName":"Nicaragua","hotelRating":"2","latitude":"11.9265","longitude":"-85.9533","state_id":2890,"state_name":"Antioquia","country_id":48},{"active":false,"Giataid":"709372","cityId":77240,"cityName":"Nandaime","hotelId":709372,"hotelName":"Nekupe Sporting Resort And Retreat","address":"30 Minutes From Granada,Nandaime,Nicaragua","phones":"","fax":"","email":"info@nekupe.com","url":"http://www.nekupe.com","countryIso2":"NI","countryName":"Nicaragua","hotelRating":"1","latitude":"11.6987","longitude":"-86.0429","state_id":943,"state_name":"Granada","country_id":159},{"active":false,"Giataid":"709470","cityId":77220,"cityName":"Moyogalpa","hotelId":709470,"hotelName":"Hostel Coco's","address":"Del Puerto De moyogalpa 2 Cuadras Al Este 3 Cuadras Al Sur,00505 Moyogalpa,Isla De Ometepe,Nicaragua","phones":"","fax":"","email":"","url":"","countryIso2":"NI","countryName":"Nicaragua","hotelRating":"1","latitude":"11.5395","longitude":"-85.6982","state_id":942,"state_name":"Rivas","country_id":159},{"active":false,"Giataid":"709500","cityId":20893,"cityName":"Granada","hotelId":709500,"hotelName":"Paraiso Granada","address":"Calle Cuiscoma,43000 Granada,Nicaragua","phones":"+50525527857","fax":"","email":"reservations@paraisogranada.com","url":"http://www.paraisogranada.com/","countryIso2":"NI","countryName":"Nicaragua","hotelRating":"3","latitude":"11.9272","longitude":"-85.9523","state_id":2890,"state_name":"Antioquia","country_id":48},{"active":false,"Giataid":"722535","cityId":77289,"cityName":"Tola","hotelId":722535,"hotelName":"Guacalito De La Isla","address":"Carretera las Salina km 10,Manzanillo,Tola,Rivas,Nicaragua","phones":"","fax":"","email":"","url":"","countryIso2":"NI","countryName":"Nicaragua","hotelRating":"1","latitude":"11.3716","longitude":"-86.0088","state_id":942,"state_name":"Rivas","country_id":159},{"active":false,"Giataid":"727313","cityId":77264,"cityName":"San Juan del Sur","hotelId":727313,"hotelName":"Casa Piancito Playa el Coco","address":"Playa el Coco,San Juan del Sur,Nicaragua","phones":"","fax":"","email":"","url":"","countryIso2":"NI","countryName":"Nicaragua","hotelRating":"1","latitude":"11.262","longitude":"-85.872","state_id":942,"state_name":"Rivas","country_id":159},{"active":false,"Giataid":"727397","cityId":77264,"cityName":"San Juan del Sur","hotelId":727397,"hotelName":"On The Hill Bed & Breakfast","address":"Boulevard de la Mar,Hotel Victoriano,600 Meters To The South at Brisas Del Pacifico Residential,48600 San Juan del Sur,Nicaragua","phones":"","fax":"","email":"","url":"","countryIso2":"NI","countryName":"Nicaragua","hotelRating":"1","latitude":"11.262","longitude":"-85.872","state_id":942,"state_name":"Rivas","country_id":159},{"active":false,"Giataid":"728099","cityId":77264,"cityName":"San Juan del Sur","hotelId":728099,"hotelName":"Bella Vista Luxury Stay","address":"km 139 Carretera Lomas de Palermo,San Juan del Sur 48600,Nicaragua","phones":"","fax":"","email":"","url":"","countryIso2":"NI","countryName":"Nicaragua","hotelRating":"1","latitude":"11.262","longitude":"-85.872","state_id":942,"state_name":"Rivas","country_id":159},{"active":false,"Giataid":"728636","cityId":20893,"cityName":"Granada","hotelId":728636,"hotelName":"Casa Calala","address":"Calle Santa Lucia 123,Puente De Los,Dardanelos Media Cuadra Al Este,Granada,Nicaragua","phones":"","fax":"","email":"","url":"","countryIso2":"NI","countryName":"Nicaragua","hotelRating":"1","latitude":"11.9296","longitude":"-85.9536","state_id":2890,"state_name":"Antioquia","country_id":48},{"active":false,"Giataid":"728893","cityId":null,"cityName":"Estel?","hotelId":728893,"hotelName":"Hotel Boutique Marduk Gardens","address":"Km 135 De La Carreterra Panamericana Norte,9 Km Al Oeste y 1 Km al Norte,Estel?,Nicaragua","phones":"+50583833863","fax":"","email":"webmarduk@gmail.com","url":"http://www.hotelmardukgardens.com","countryIso2":"NI","countryName":"Nicaragua","hotelRating":"2","latitude":"13.0866","longitude":"-86.3583","state_id":null,"state_name":null,"country_id":null},{"active":false,"Giataid":"729326","cityId":null,"cityName":"Ometepe","hotelId":729326,"hotelName":"Casa de Amadores","address":"Isla de Ometepe,Los Angeles,Del Parque 700 mts Al Sur,Ometepe Island,Nicaragua","phones":"","fax":"","email":"","url":"","countryIso2":"NI","countryName":"Nicaragua","hotelRating":"1","latitude":"11.5411","longitude":"-85.5963","state_id":null,"state_name":null,"country_id":null},{"active":false,"Giataid":"731348","cityId":77213,"cityName":"Managua","hotelId":731348,"hotelName":"Hotel Centro Urbano","address":"Iglesia Del Carmen 2 Cuadras Al Norte,1 Cuadra Al Oeste,10000 Managua,Nicaragua","phones":"+50522682225","fax":"","email":"hotelcentrourbano@gmail.com","url":"http://hotelcentrourbano.com","countryIso2":"NI","countryName":"Nicaragua","hotelRating":"1","latitude":"12.1294","longitude":"-86.26","state_id":941,"state_name":"Managua","country_id":159},{"active":false,"Giataid":"731817","cityId":null,"cityName":"Le?n","hotelId":731817,"hotelName":"Hotel El Portal 1610","address":"Frente Museo Rub?n Dario,Leon,Nicaragua","phones":"","fax":"","email":"","url":"","countryIso2":"NI","countryName":"Nicaragua","hotelRating":"2","latitude":"12.4351","longitude":"-86.8829","state_id":null,"state_name":null,"country_id":null},{"active":false,"Giataid":"732551","cityId":null,"cityName":"Le?n","hotelId":732551,"hotelName":"Casa de Los Berrios","address":"Cine Gonzalez 2 Y Media Al Sur,Leon,Nicaragua","phones":"","fax":"","email":"","url":"","countryIso2":"NI","countryName":"Nicaragua","hotelRating":"2","latitude":"12.4346","longitude":"-86.8781","state_id":null,"state_name":null,"country_id":null},{"active":false,"Giataid":"732732","cityId":20893,"cityName":"Granada","hotelId":732732,"hotelName":"Isleta El Recedo","address":"Isleta El Recedo,Las Isletas de Granada,Granada,Nicaragua","phones":"","fax":"","email":"","url":"","countryIso2":"NI","countryName":"Nicaragua","hotelRating":"3","latitude":"11.9296","longitude":"-85.9536","state_id":2890,"state_name":"Antioquia","country_id":48},{"active":false,"Giataid":"732853","cityId":null,"cityName":"Le?n","hotelId":732853,"hotelName":"Hotel Leon Inn","address":"Reparto Fatima Esquina Noreste,Parque Fta 1 Cuadra Al Norte 10 Oeste,Leon,Nicaragua","phones":"","fax":"","email":"","url":"","countryIso2":"NI","countryName":"Nicaragua","hotelRating":"1","latitude":"12.4346","longitude":"-86.8781","state_id":null,"state_name":null,"country_id":null},{"active":false,"Giataid":"732873","cityId":null,"cityName":"Le?n","hotelId":732873,"hotelName":"Paz De Luna B&B","address":"Recolecci?n Church,1 1/2 Blocks North,Leon 21000,Nicaragua","phones":"+50523112581","fax":"","email":"info@pazdelunabb.com","url":"https://www.pazdelunabb.com/","countryIso2":"NI","countryName":"Nicaragua","hotelRating":"1","latitude":"12.4389","longitude":"-86.8772","state_id":null,"state_name":null,"country_id":null},{"active":false,"Giataid":"733900","cityId":null,"cityName":"Le?n","hotelId":733900,"hotelName":"Hostal Casa San Jose","address":"Iglesia San Jose 25,Varas Al Sur,21000 Leon,Nicaragua","phones":"","fax":"","email":"","url":"","countryIso2":"NI","countryName":"Nicaragua","hotelRating":"2","latitude":"12.4346","longitude":"-86.8781","state_id":null,"state_name":null,"country_id":null},{"active":false,"Giataid":"734035","cityId":null,"cityName":"Le?n","hotelId":734035,"hotelName":"Hotel la Recoleccion","address":"1ra Avenida NE Y 2da,Calle De La Catedral 2,Cuadras Al Norte,En frente Iglesia Recolecci?n,21000 Leon,Nicaragua","phones":"","fax":"","email":"","url":"https://larecoleccionnicaragua.com/en/the-hotel/","countryIso2":"NI","countryName":"Nicaragua","hotelRating":"3","latitude":"12.4346","longitude":"-86.8781","state_id":null,"state_name":null,"country_id":null},{"active":false,"Giataid":"734090","cityId":null,"cityName":"Le?n","hotelId":734090,"hotelName":"Hostal Santiago de Los Caballeros","address":"Iglesia San Felipe 1,Cuadra y Media Al Sur,Le?n,Nicaragua","phones":"","fax":"","email":"","url":"","countryIso2":"NI","countryName":"Nicaragua","hotelRating":"2","latitude":"12.4395","longitude":"-86.8809","state_id":null,"state_name":null,"country_id":null},{"active":false,"Giataid":"734141","cityId":null,"cityName":"Le?n","hotelId":734141,"hotelName":"Hotel y Restaurante Charlies Bar BQ","address":"De La Biblioteca Del Banco Central,200mt Al Norte Frente a Pollo Estrella,Leon,Nicaragua","phones":"","fax":"","email":"","url":"","countryIso2":"NI","countryName":"Nicaragua","hotelRating":"1","latitude":"12.4346","longitude":"-86.8781","state_id":null,"state_name":null,"country_id":null},{"active":false,"Giataid":"734751","cityId":null,"cityName":"Le?n","hotelId":734751,"hotelName":"Hostal Ruinas De San Sebastian","address":"South Side San Sebastian Church,Le?n 21000,Nicaragua","phones":"+50523150372","fax":"","email":"hostalsansebastianleon@gmail.com","url":"https://hostalruinasdesansebastianleon.jimdo.com","countryIso2":"NI","countryName":"Nicaragua","hotelRating":"2","latitude":"12.4313","longitude":"-86.8789","state_id":null,"state_name":null,"country_id":null},{"active":false,"Giataid":"735152","cityId":null,"cityName":"Le?n","hotelId":735152,"hotelName":"El Callejon Guest House","address":"Teatro Gonzalez 2 cuadras al sur 1/2,cuadra al Oeste casa color azul # 206,Leon,Nicaragua","phones":"","fax":"","email":"","url":"","countryIso2":"NI","countryName":"Nicaragua","hotelRating":"2","latitude":"12.4346","longitude":"-86.8781","state_id":null,"state_name":null,"country_id":null},{"active":false,"Giataid":"735156","cityId":null,"cityName":"Le?n","hotelId":735156,"hotelName":"Hostal Nicarao II","address":"Parque San Juan 40 metros al Norte,Barrio El San Juan,Leon,Nicaragua","phones":"","fax":"","email":"","url":"","countryIso2":"NI","countryName":"Nicaragua","hotelRating":"1","latitude":"12.4346","longitude":"-86.8781","state_id":null,"state_name":null,"country_id":null},{"active":false,"Giataid":"735558","cityId":null,"cityName":"Le?n","hotelId":735558,"hotelName":"Hostal Nicarao I","address":"Costado Oeste Parque San Juan 130m al Sur Leon,Nicaragua,21000 Le?n,Nicaragua","phones":"","fax":"","email":"","url":"","countryIso2":"NI","countryName":"Nicaragua","hotelRating":"1","latitude":"12.4346","longitude":"-86.8781","state_id":null,"state_name":null,"country_id":null},{"active":false,"Giataid":"735954","cityId":null,"cityName":"Le?n","hotelId":735954,"hotelName":"Hostal Flamenco's","address":"Church Of The Merced 2 1/2 Blocks North,21000 Le?n,Nicaragua","phones":"+50523115753","fax":"","email":"rfmorales29@gmail.com","url":"http://www.hostalflamencos.com/en-gb","countryIso2":"NI","countryName":"Nicaragua","hotelRating":"1","latitude":"12.4396","longitude":"-86.8795","state_id":null,"state_name":null,"country_id":null},{"active":false,"Giataid":"736460","cityId":null,"cityName":"Le?n","hotelId":736460,"hotelName":"Guardabarranco Hostel","address":"From La Recoleccion Church 1 Block East,1/2 block South,Leon,Nicaragua","phones":"+50523117124","fax":"","email":"","url":"http://www.guardabarrancohostel.com","countryIso2":"NI","countryName":"Nicaragua","hotelRating":"1","latitude":"12.4346","longitude":"-86.8781","state_id":null,"state_name":null,"country_id":null},{"active":false,"Giataid":"739358","cityId":null,"cityName":"Le?n","hotelId":739358,"hotelName":"Malinche Leon","address":"3ra Calle South East,1.5 Blocks East of Hospital Escula Oscar,Leon 21000,Nicaragua","phones":"+50589321129","fax":"","email":"hostalmalincheleon@gmail.com","url":"http://www.hostelnicaragualeon.com","countryIso2":"NI","countryName":"Nicaragua","hotelRating":"2","latitude":"12.4346","longitude":"-86.8781","state_id":null,"state_name":null,"country_id":null},{"active":false,"Giataid":"739481","cityId":null,"cityName":"Le?n","hotelId":739481,"hotelName":"Hostal San Antonio","address":"I Etapa, del Banco Central,Banco Central 200 m al Noroeste,Fundeci,Leon,Nicaragua","phones":"","fax":"","email":"","url":"","countryIso2":"NI","countryName":"Nicaragua","hotelRating":"1","latitude":"12.4346","longitude":"-86.8781","state_id":null,"state_name":null,"country_id":null},{"active":false,"Giataid":"739917","cityId":20893,"cityName":"Granada","hotelId":739917,"hotelName":"Hotel La Calzada","address":"Calle La Calzada,43000 Granada,Nicaragua","phones":"+50525526818","fax":"","email":"info@hotellacalzada.com","url":"http://hotellacalzada.com","countryIso2":"NI","countryName":"Nicaragua","hotelRating":"1","latitude":"11.9296","longitude":"-85.9536","state_id":2890,"state_name":"Antioquia","country_id":48},{"active":false,"Giataid":"739929","cityId":null,"cityName":"Le?n","hotelId":739929,"hotelName":"Casona Colonial Guesthouse","address":"210 4ta Calle,Norte Parque,San Juan Media Cuadra Al Oeste,10000 Leon,Leon,Nicaragua","phones":"","fax":"","email":"","url":"","countryIso2":"NI","countryName":"Nicaragua","hotelRating":"1","latitude":"12.4396","longitude":"-86.8767","state_id":null,"state_name":null,"country_id":null},{"active":false,"Giataid":"740007","cityId":20893,"cityName":"Granada","hotelId":740007,"hotelName":"Hotel Gran Balcon","address":"Avenida Vega,Esquina opuesta Parque Central,Across Central Park,18007 Granada,Nicaragua","phones":"","fax":"","email":"","url":"","countryIso2":"NI","countryName":"Nicaragua","hotelRating":"3","latitude":"11.9296","longitude":"-85.9536","state_id":2890,"state_name":"Antioquia","country_id":48},{"active":false,"Giataid":"740972","cityId":77166,"cityName":"Chinandega","hotelId":740972,"hotelName":"Las Palmeras Beach Hotel","address":"Comarca El Manzano 1,De la Escuela Leticia Juarez 500 mts Al Noroeste,500m Northwest of the School,El Viejo,Aposentillo,Aserradores,Chinandega,Nicaragua","phones":"","fax":"","email":"","url":"","countryIso2":"NI","countryName":"Nicaragua","hotelRating":"2","latitude":"12.6573","longitude":"-87.1853","state_id":954,"state_name":"Chinandega","country_id":159},{"active":false,"Giataid":"741662","cityId":null,"cityName":"Le?n","hotelId":741662,"hotelName":"Hostal Fachente","address":"4ta Avenida NO Museo Archivo,Ruben Dario 20 mts Norte,Leon,Nicaragua","phones":"","fax":"","email":"","url":"","countryIso2":"NI","countryName":"Nicaragua","hotelRating":"1","latitude":"12.4346","longitude":"-86.8781","state_id":null,"state_name":null,"country_id":null},{"active":false,"Giataid":"741897","cityId":20893,"cityName":"Granada","hotelId":741897,"hotelName":"Casa Lucia Boutique Hotel & Yoga","address":"Calle Santa Lucia 5,Cuadras Al Oeste De La Flor Panamena,43000 Granada,Nicaragua","phones":"+50584323983","fax":"","email":"info@casaluciagranada.com","url":"http://www.casaluciagranada.com","countryIso2":"NI","countryName":"Nicaragua","hotelRating":"1","latitude":"11.9342","longitude":"-85.951","state_id":2890,"state_name":"Antioquia","country_id":48},{"active":false,"Giataid":"742221","cityId":null,"cityName":"Las Pe?itas","hotelId":742221,"hotelName":"Aaki Hotel","address":"Main Road,600 m from Highway 14,Las Pe?itas,Nicaragua","phones":"","fax":"","email":"","url":"","countryIso2":"NI","countryName":"Nicaragua","hotelRating":"1","latitude":"12.3634","longitude":"-87.0266","state_id":null,"state_name":null,"country_id":null},{"active":false,"Giataid":"742255","cityId":77213,"cityName":"Managua","hotelId":742255,"hotelName":"Hotel Casa Colonial Boutique","address":"Planes de Altamira km 4.5,Carretera a Masaya del Restaurante Tip Top 75 varas al Oeste 10 Managua,Nicaragua","phones":"","fax":"","email":"","url":"","countryIso2":"NI","countryName":"Nicaragua","hotelRating":"3","latitude":"12.1294","longitude":"-86.26","state_id":941,"state_name":"Managua","country_id":159},{"active":false,"Giataid":"742468","cityId":77166,"cityName":"Chinandega","hotelId":742468,"hotelName":"Las Dunas Surf Resort - Hostel","address":"Santa Maria del Mar 11,Playa Santa Mar?a,Aposentillo,26200 Chinandega,Chinandega,Nicaragua","phones":"+50584765211","fax":"","email":"","url":"http://www.lasdunassurfresort.com","countryIso2":"NI","countryName":"Nicaragua","hotelRating":"1","latitude":"12.6573","longitude":"-87.1853","state_id":954,"state_name":"Chinandega","country_id":159},{"active":false,"Giataid":"742512","cityId":20893,"cityName":"Granada","hotelId":742512,"hotelName":"Hostel La Orquidea","address":"De La Antigua Shell Palmira 1,Cuadra E, y 1/2 Cuadra Al Norte,Granada 43000,Nicaragua","phones":"","fax":"","email":"","url":"","countryIso2":"NI","countryName":"Nicaragua","hotelRating":"1","latitude":"11.9296","longitude":"-85.9536","state_id":2890,"state_name":"Antioquia","country_id":48},{"active":false,"Giataid":"746292","cityId":null,"cityName":"Le?n","hotelId":746292,"hotelName":"Mangos Hostel","address":"4ta Avenida SO 110,21000 Leon,Nicaragua","phones":"","fax":"","email":"","url":"","countryIso2":"NI","countryName":"Nicaragua","hotelRating":"1","latitude":"12.4346","longitude":"-86.8781","state_id":null,"state_name":null,"country_id":null},{"active":false,"Giataid":"746541","cityId":null,"cityName":"Le?n","hotelId":746541,"hotelName":"El Punche De Oro","address":"13va Avenida SO,Detr?s De Lglesia Sutiava,Leon,Nicaragua","phones":"","fax":"","email":"","url":"","countryIso2":"NI","countryName":"Nicaragua","hotelRating":"1","latitude":"12.4346","longitude":"-86.8781","state_id":null,"state_name":null,"country_id":null},{"active":false,"Giataid":"746700","cityId":77264,"cityName":"San Juan del Sur","hotelId":746700,"hotelName":"Casa Serenidad Sjds","address":"Route 72,Colinas De Miramar,San Juan Del Sur,Nicaragua","phones":"","fax":"","email":"contact@casaserenidadsjds.com","url":"http://www.casaserenidadsjds.com","countryIso2":"NI","countryName":"Nicaragua","hotelRating":"1","latitude":"11.262","longitude":"-85.872","state_id":942,"state_name":"Rivas","country_id":159},{"active":false,"Giataid":"746976","cityId":20893,"cityName":"Granada","hotelId":746976,"hotelName":"Casa del Agua","address":"La Gran Francia al Sur,Calle Guzman,40003 Granada,Nicaragua","phones":"+50588724627","fax":"","email":"gerry@casadelaguagranada.com","url":"http://hotel.casadelaguagranada.com","countryIso2":"NI","countryName":"Nicaragua","hotelRating":"1","latitude":"11.9296","longitude":"-85.9536","state_id":2890,"state_name":"Antioquia","country_id":48},{"active":false,"Giataid":"746980","cityId":77264,"cityName":"San Juan del Sur","hotelId":746980,"hotelName":"Selina San Juan","address":"Avenida Mercado,San Juan Del Sur,Nicaragua","phones":"","fax":"","email":"","url":"http://www.hotels.com/ho675377056","countryIso2":"NI","countryName":"Nicaragua","hotelRating":"2","latitude":"11.262","longitude":"-85.872","state_id":942,"state_name":"Rivas","country_id":159},{"active":false,"Giataid":"746984","cityId":null,"cityName":"Le?n","hotelId":746984,"hotelName":"Guesthouse La Clinica-Hostel","address":"Primera Avenida Sur Oeste,1 Cuadra y Media al Sur,21000 Leon,Nicaragua","phones":"","fax":"","email":"","url":"","countryIso2":"NI","countryName":"Nicaragua","hotelRating":"1","latitude":"12.4346","longitude":"-86.8781","state_id":null,"state_name":null,"country_id":null},{"active":false,"Giataid":"747000","cityId":77253,"cityName":"Rivas","hotelId":747000,"hotelName":"Gigante Place Hostel","address":"Playa de Gigante,Tola,Rivas 48500,Nicaragua,Nicaragua","phones":"","fax":"","email":"","url":"","countryIso2":"NI","countryName":"Nicaragua","hotelRating":"1","latitude":"11.4275","longitude":"-85.8327","state_id":942,"state_name":"Rivas","country_id":159},{"active":false,"Giataid":"747037","cityId":77213,"cityName":"Managua","hotelId":747037,"hotelName":"Santa Fe House of Veracruz","address":"Ciudad Real Lot 16,House 7,Managua,Nicaragua","phones":"","fax":"","email":"","url":"","countryIso2":"NI","countryName":"Nicaragua","hotelRating":"3","latitude":"12.1294","longitude":"-86.26","state_id":941,"state_name":"Managua","country_id":159},{"active":false,"Giataid":"748256","cityId":20893,"cityName":"Granada","hotelId":748256,"hotelName":"Hostal Surfing Donkey At The Lake","address":"End Of Calzada Street,In Front Of The Lake,43000 Granada,Nicaragua","phones":"","fax":"","email":"","url":"","countryIso2":"NI","countryName":"Nicaragua","hotelRating":"1","latitude":"11.9296","longitude":"-85.9536","state_id":2890,"state_name":"Antioquia","country_id":48},{"active":false,"Giataid":"748486","cityId":77264,"cityName":"San Juan del Sur","hotelId":748486,"hotelName":"AquaViva Hotel Collection","address":"Costado Oeste del Parque de San Juan del Sur,663.05 m al SE y 64.35 m al S,San Juan del Sur,Rivas,Nicaragua","phones":"+50586018833","fax":"","email":"info@aquaviva.io","url":"","countryIso2":"NI","countryName":"Nicaragua","hotelRating":"1","latitude":"11.262","longitude":"-85.872","state_id":942,"state_name":"Rivas","country_id":159},{"active":false,"Giataid":"748583","cityId":77264,"cityName":"San Juan del Sur","hotelId":748583,"hotelName":"Thirsty Turtle Hostel","address":"Barrio La Talanguera,2 Blocks North From School,4th House,00505 San Juan Del Sur,Rivas,Nicaragua","phones":"","fax":"","email":"","url":"https://www.thirstyturtlenica.com","countryIso2":"NI","countryName":"Nicaragua","hotelRating":"1","latitude":"11.262","longitude":"-85.872","state_id":942,"state_name":"Rivas","country_id":159},{"active":false,"Giataid":"749349","cityId":77213,"cityName":"Managua","hotelId":749349,"hotelName":"Airport Inn Managua","address":"Residencial Montecristi,front of Airport X Managua Hotel,11056 Managua,Nicaragua","phones":"","fax":"","email":"","url":"","countryIso2":"NI","countryName":"Nicaragua","hotelRating":"2","latitude":"12.1294","longitude":"-86.26","state_id":941,"state_name":"Managua","country_id":159},{"active":false,"Giataid":"750471","cityId":77166,"cityName":"Chinandega","hotelId":750471,"hotelName":"Hotel El Viejo Inn","address":"Iglesia Esquipulas 1 Cuadra Al Oeste 1,Cuadra Al Norte,El Viejo,Chinandega,Nicaragua","phones":"+50523440727","fax":"","email":"reservations@elviejoinn.com","url":"http://www.elviejoinn.com","countryIso2":"NI","countryName":"Nicaragua","hotelRating":"2","latitude":"12.6573","longitude":"-87.1853","state_id":954,"state_name":"Chinandega","country_id":159},{"active":false,"Giataid":"751223","cityId":77194,"cityName":"Jinotega","hotelId":751223,"hotelName":"Hotel Neblina","address":"Cuadra Al Sur 1/2,Cuadra Al Oeste,Del Restaurante Tip Top 1,65000 Jinotega,Nicaragua","phones":"","fax":"","email":"","url":"","countryIso2":"NI","countryName":"Nicaragua","hotelRating":"2","latitude":"13.0913","longitude":"-86.0018","state_id":955,"state_name":"Jinotega","country_id":159},{"active":false,"Giataid":"751384","cityId":77176,"cityName":"Diriamba","hotelId":751384,"hotelName":"Hotel El Casino","address":"Main Street,Beach Casares Diriamba,Diriamba,Nicaragua","phones":"","fax":"","email":"","url":"","countryIso2":"NI","countryName":"Nicaragua","hotelRating":"1","latitude":"11.7612","longitude":"-86.3002","state_id":950,"state_name":"Carazo","country_id":159},{"active":false,"Giataid":"757944","cityId":77264,"cityName":"San Juan del Sur","hotelId":757944,"hotelName":"La Veranera Guest House","address":"Next To Puesta Del Sol,San Juan Del Sur,Nicaragua","phones":"+50583286260","fax":"","email":"info@laveranera.net","url":"http://www.laveranera.net","countryIso2":"NI","countryName":"Nicaragua","hotelRating":"1","latitude":"11.262","longitude":"-85.872","state_id":942,"state_name":"Rivas","country_id":159},{"active":false,"Giataid":"758389","cityId":77264,"cityName":"San Juan del Sur","hotelId":758389,"hotelName":"Hotel Anamar","address":"Calle Paseo del Rey,Zona Costera Norte,San Juan del Sur,Rivas,Nicaragua","phones":"+50581982785","fax":"","email":"nfo@hotelanamar.com","url":"http://www.hotelanamar.com/","countryIso2":"NI","countryName":"Nicaragua","hotelRating":"1","latitude":"11.262","longitude":"-85.872","state_id":942,"state_name":"Rivas","country_id":159},{"active":false,"Giataid":"759164","cityId":77213,"cityName":"Managua","hotelId":759164,"hotelName":"Hotel Fontana","address":"Villa Fontana,Club Terraza 150 Metros al Oeste,Managua,Nicaragua","phones":"+50522786513","fax":"","email":"info@hotelfontana.co","url":"http://www.hotelfontana.co","countryIso2":"NI","countryName":"Nicaragua","hotelRating":"3","latitude":"12.1027","longitude":"-86.2663","state_id":941,"state_name":"Managua","country_id":159},{"active":false,"Giataid":"797012","cityId":77216,"cityName":"Masaya","hotelId":797012,"hotelName":"Hostal Los Pueblos","address":"Del Instituto Publico 200 meters Al Norte,Masatepe,Masaya,Nicaragua","phones":"","fax":"","email":"","url":"","countryIso2":"NI","countryName":"Nicaragua","hotelRating":"1","latitude":"11.9184","longitude":"-86.1478","state_id":953,"state_name":"Masaya","country_id":159},{"active":false,"Giataid":"797048","cityId":77220,"cityName":"Moyogalpa","hotelId":797048,"hotelName":"Hotel Los Ranchitos","address":"Del Magfor Media Cuadra Al Norte,Moyogalpa,Nicaragua","phones":"","fax":"","email":"","url":"","countryIso2":"NI","countryName":"Nicaragua","hotelRating":"1","latitude":"11.5395","longitude":"-85.6982","state_id":942,"state_name":"Rivas","country_id":159},{"active":false,"Giataid":"797180","cityId":77220,"cityName":"Moyogalpa","hotelId":797180,"hotelName":"Hotel La Punta Resort","address":"Entrada Punta Jes?s Mar?a,48700 Moyogalpa,Isla de Ometepe,Departamento Rivas,Nicaragua","phones":"","fax":"","email":"","url":"","countryIso2":"NI","countryName":"Nicaragua","hotelRating":"1","latitude":"11.5411","longitude":"-85.5963","state_id":942,"state_name":"Rivas","country_id":159},{"active":false,"Giataid":"797181","cityId":149139,"cityName":"Ocotal","hotelId":797181,"hotelName":"Hotel Frontera","address":"Contiguo A Gasolinera Ramos km 226,Carretera Panamericana Norte,Ocotal,Nueva Segovia,Nicaragua","phones":"+50527322668","fax":"","email":"hofrosa@turbonett.com.ni","url":"http://www.hotelfronteraocotal.com","countryIso2":"NI","countryName":"Nicaragua","hotelRating":"1","latitude":"0","longitude":"0","state_id":4964,"state_name":"Nueva Segovia","country_id":159},{"active":false,"Giataid":"797189","cityId":77197,"cityName":"Juigalpa","hotelId":797189,"hotelName":"Hotel San Pedro","address":"Carretera Managua km 147,Juigalpa,Nicaragua","phones":"","fax":"","email":"","url":"","countryIso2":"NI","countryName":"Nicaragua","hotelRating":"1","latitude":"0","longitude":"0","state_id":940,"state_name":"Chontales","country_id":159},{"active":false,"Giataid":"797976","cityId":77264,"cityName":"San Juan del Sur","hotelId":797976,"hotelName":"Casa Surfistas Nica","address":"Playa Remanso 155,San Juan del Sur,Nicaragua","phones":"","fax":"","email":"","url":"","countryIso2":"NI","countryName":"Nicaragua","hotelRating":"1","latitude":"11.2185","longitude":"-85.8448","state_id":942,"state_name":"Rivas","country_id":159},{"active":false,"Giataid":"797996","cityId":null,"cityName":"Little Corn Island","hotelId":797996,"hotelName":"Sunshine Hotel","address":"50 metres From The wharf,82100 Little Corn Island,Nicaragua","phones":"+50585444165","fax":"","email":"sunshinehotellci@gmail.com","url":"http://www.sunshinehotellittlecorn.com/","countryIso2":"NI","countryName":"Nicaragua","hotelRating":"1","latitude":"12.2865","longitude":"-82.9818","state_id":null,"state_name":null,"country_id":null},{"active":false,"Giataid":"798013","cityId":77264,"cityName":"San Juan del Sur","hotelId":798013,"hotelName":"Eden On The Chocolata","address":"200M Norte De Tanke De Agua,La Chocolata Nacascolo,San Juan Del Sur,Nicaragua","phones":"+50576298988","fax":"","email":"eden@choco.tokeetmail.com","url":"http://www.edenonthechocolata.com/","countryIso2":"NI","countryName":"Nicaragua","hotelRating":"3","latitude":"11.262","longitude":"-85.872","state_id":942,"state_name":"Rivas","country_id":159},{"active":false,"Giataid":"798174","cityId":null,"cityName":"Le?n","hotelId":798174,"hotelName":"Hostal La Tortuga Booluda","address":"Calle Jose De La Marcoleta,From The Sw Corner Of The Central Park,3.5 Blocks West,Leon,Nicaragua","phones":"+50523114653","fax":"","email":"tortugabooluda@yahoo.com","url":"http://www.tortugabooludahostel.com","countryIso2":"NI","countryName":"Nicaragua","hotelRating":"1","latitude":"12.4346","longitude":"-86.8781","state_id":null,"state_name":null,"country_id":null},{"active":false,"Giataid":"798247","cityId":77213,"cityName":"Managua","hotelId":798247,"hotelName":"Posada Bosawas","address":"Residencial Bello,Horizonte De La Iglesia Pio X,2 Cuadras Al Sur ? Abajo,11147 Managua,Nicaragua","phones":"+50522443888","fax":"","email":"","url":"http://posadabosawas.com","countryIso2":"NI","countryName":"Nicaragua","hotelRating":"1","latitude":"12.1294","longitude":"-86.26","state_id":941,"state_name":"Managua","country_id":159},{"active":false,"Giataid":"798371","cityId":77213,"cityName":"Managua","hotelId":798371,"hotelName":"Los Cardones Ecolodge","address":"Carretera Montelimar km 49,Finca Del Mar Beach Community,Oeste km 15,San Diego,16500 Managua,Nicaragua","phones":"+50583645925","fax":"","email":"loscardonesecolodge@gmail.com","url":"http://www.loscardones.com/","countryIso2":"NI","countryName":"Nicaragua","hotelRating":"1","latitude":"12.1294","longitude":"-86.26","state_id":941,"state_name":"Managua","country_id":159},{"active":false,"Giataid":"798417","cityId":null,"cityName":"Ometepe","hotelId":798417,"hotelName":"El Pital","address":"Balgue,Isla Ometepe,Nicaragua","phones":"+50525603249","fax":"","email":"paradise@elpitalometepe.com","url":"http://www.elpitalometepe.com/","countryIso2":"NI","countryName":"Nicaragua","hotelRating":"1","latitude":"11.5411","longitude":"-85.5963","state_id":null,"state_name":null,"country_id":null},{"active":false,"Giataid":"798737","cityId":77220,"cityName":"Moyogalpa","hotelId":798737,"hotelName":"Hostel Life Is Good","address":"619 Meter North Of The Moyogalpa,Moyogalpa,Nicaragua","phones":"","fax":"","email":"reservation@hostellifeisgood.com","url":"http://hostellifeisgood.com","countryIso2":"NI","countryName":"Nicaragua","hotelRating":"1","latitude":"11.5395","longitude":"-85.6982","state_id":942,"state_name":"Rivas","country_id":159},{"active":false,"Giataid":"798749","cityId":77217,"cityName":"Matagalpa","hotelId":798749,"hotelName":"Hotel Mana Del Cielo","address":"Calle De Los Bancos,Banpro 2 1/2 Cuadra Al Sur,61000 Matagalpa,Nicaragua","phones":"","fax":"","email":"","url":"","countryIso2":"NI","countryName":"Nicaragua","hotelRating":"1","latitude":"12.9248","longitude":"-85.9166","state_id":947,"state_name":"Matagalpa","country_id":159},{"active":false,"Giataid":"798771","cityId":77216,"cityName":"Masaya","hotelId":798771,"hotelName":"Hotel Mirador de los Arcangeles","address":"Avenida El Progreso,Masaya,Nicaragua","phones":"","fax":"","email":"","url":"","countryIso2":"NI","countryName":"Nicaragua","hotelRating":"1","latitude":"11.9521","longitude":"-86.0883","state_id":953,"state_name":"Masaya","country_id":159},{"active":false,"Giataid":"798795","cityId":null,"cityName":"Estel?","hotelId":798795,"hotelName":"Hotel Boutique Colina Real","address":"Kilometro 152 Carretera Panamericana Norte, Comunidad La Thompson,a 5 minutos del Centro de Esteli,Esteli,Nicaragua","phones":"+50588361716","fax":"","email":"","url":"http://hotelboutiquecolinareal.com/","countryIso2":"NI","countryName":"Nicaragua","hotelRating":"1","latitude":"13.0866","longitude":"-86.3583","state_id":null,"state_name":null,"country_id":null},{"active":false,"Giataid":"798868","cityId":77220,"cityName":"Moyogalpa","hotelId":798868,"hotelName":"Hostal Familiar Pilos","address":"Del  Banco Procredit 3 y media al Sur Isla de Ometepe,Rivas,00036 Moyogalpa,Nicaragua","phones":"","fax":"","email":"","url":"","countryIso2":"NI","countryName":"Nicaragua","hotelRating":"1","latitude":"11.5395","longitude":"-85.6982","state_id":942,"state_name":"Rivas","country_id":159},{"active":false,"Giataid":"798893","cityId":77253,"cityName":"Rivas","hotelId":798893,"hotelName":"Hotel Hacienda Casa Grande","address":"Panamerican Highway km 92,Belen,Rivas,Nicaragua","phones":"","fax":"","email":"hotelhaciendacasagrande@gmail.com","url":"http://hotelhaciendacasagrande.com","countryIso2":"NI","countryName":"Nicaragua","hotelRating":"1","latitude":"11.4275","longitude":"-85.8327","state_id":942,"state_name":"Rivas","country_id":159},{"active":false,"Giataid":"798904","cityId":null,"cityName":"Le?n","hotelId":798904,"hotelName":"ViaVia Leon","address":"2da Avenida NE 210,Le?n,Nicaragua","phones":"","fax":"","email":"","url":"","countryIso2":"NI","countryName":"Nicaragua","hotelRating":"1","latitude":"12.4346","longitude":"-86.8781","state_id":null,"state_name":null,"country_id":null},{"active":false,"Giataid":"799010","cityId":77264,"cityName":"San Juan del Sur","hotelId":799010,"hotelName":"Coconut Surf","address":"Parque Central 100 Metros Este,El Oro,San Juan Del Sur,Nicaragua","phones":"","fax":"","email":"info@coconutsurf.com","url":"https://www.coconutsurf.com/","countryIso2":"NI","countryName":"Nicaragua","hotelRating":"1","latitude":"11.262","longitude":"-85.872","state_id":942,"state_name":"Rivas","country_id":159},{"active":false,"Giataid":"799029","cityId":20893,"cityName":"Granada","hotelId":799029,"hotelName":"Hostal Mochilas","address":"Avenida Guzman,De la Gran Francia 100 metros Al Sur,Casa Celeste,Granada,Nicaragua","phones":"+50525527442","fax":"","email":"","url":"http://www.hostalmochilas.org/","countryIso2":"NI","countryName":"Nicaragua","hotelRating":"1","latitude":"11.9296","longitude":"-85.9536","state_id":2890,"state_name":"Antioquia","country_id":48},{"active":false,"Giataid":"799154","cityId":null,"cityName":"Estel?","hotelId":799154,"hotelName":"Luna International Hostel","address":"De El Hotel Meson,Una Cuadra Al Este,31000 Esteli,Nicaragua","phones":"+50584418466","fax":"","email":"info@cafeluzyluna.com","url":"http://cafeluzyluna.org","countryIso2":"NI","countryName":"Nicaragua","hotelRating":"1","latitude":"13.0866","longitude":"-86.3583","state_id":null,"state_name":null,"country_id":null},{"active":false,"Giataid":"800025","cityId":77213,"cityName":"Managua","hotelId":800025,"hotelName":"Hostal La Casa de los Abuelos","address":"Hospital Infantil La Mascota 1.5 cuadras al Norte,Managua,Nicaragua","phones":"","fax":"","email":"","url":"","countryIso2":"NI","countryName":"Nicaragua","hotelRating":"1","latitude":"12.1239","longitude":"-86.2383","state_id":941,"state_name":"Managua","country_id":159},{"active":false,"Giataid":"800063","cityId":77264,"cityName":"San Juan del Sur","hotelId":800063,"hotelName":"Saltwater Hostel","address":"From Uno Gas Station,3 Blocks West,1 Block North,1 Block East,On The Hill,48600 San Juan Del Sur,Rivas,Nicaragua","phones":"+50525624200","fax":"","email":"hostelsaltwater@gmail.com","url":"http://hostelsaltwater.com","countryIso2":"NI","countryName":"Nicaragua","hotelRating":"1","latitude":"11.262","longitude":"-85.872","state_id":942,"state_name":"Rivas","country_id":159},